House number,Street name,Postal code,Latitude,Longitude
14,Gessnerallee,8001,47.3756281,8.5352614
1,Bahnhofbrücke,8001,47.3767316,8.5421608
146,Am Wasser,8049,47.3995257,8.4973287
7,Wengistrasse,8004,47.3750200,8.5228950
73,Bullingerstrasse,8004,47.3815928,8.5095448
32,Rautistrasse,8047,47.3811098,8.4921479
10,Albisstrasse,8038,47.3447855,8.5330027
64,Widmerstrasse,8038,47.3361381,8.5322408
81,Albisstrasse,8038,47.3409666,8.5306007
15,Alte Kalchbühlstrasse,8038,47.3400698,8.5305461
50,Schluhenweg,8041,47.3281042,8.5255473
118,Kalchbühlstrasse,8038,47.3345738,8.5342067
53,Erligatterweg,8038,47.3321637,8.5326119
3,Etzelstrasse,8038,47.3447487,8.5299814
115,Albisstrasse,8038,47.3374315,8.5302419
81,Albisstrasse,8038,47.3408021,8.5304839
10,Tessinerplatz,8002,47.3648083,8.5313604
15,Rämistrasse,8001,47.3684088,8.5461252
118,Limmatstrasse,8005,47.3842753,8.5325158
320,Mythenquai,8038,47.3485725,8.5340966
21,Mythenquai,8002,47.3612318,8.5356923
407,Seestrasse,8038,47.3435586,8.5368559
141,Josefstrasse,8005,47.3843493,8.5281025
70,Flurstrasse,8048,47.3828070,8.4929412
526,Badenerstrasse,8048,47.3825781,8.5012681
571,Badenerstrasse,8048,47.3841009,8.4964028
275,Zurlindenstrasse,8003,47.3765101,8.5112790
8,Erikastrasse,8003,47.3719367,8.5208660
170,Manessestrasse,8045,47.3618344,8.5223752
186,Regensbergstrasse,8050,47.4097670,8.5374793
28a,Bahnhofstrasse,8001,47.3703727,8.5399233
21,Bahnhofstrasse,8001,47.3692939,8.5392157
111,Universitätstrasse,8006,47.3849796,8.5482469
4,Thujastrasse,8038,47.3502028,8.5276055
76,Albisstrasse,8038,47.3418267,8.5303691
76,Albisstrasse,8038,47.3417256,8.5303027
1,Ginsterstrasse,8047,47.3760492,8.4949766
57,Bahnhofstrasse,8001,47.3729704,8.5376718
28,Sihlstrasse,8001,47.3733042,8.5367495
31-35,Löwenstrasse,8001,47.3752549,8.5361073
10,Röslistrasse,8006,47.3883166,8.5411342
102,Universitätstrasse,8006,47.3840769,8.5484706
101,Universitätstrasse,8006,47.3841491,8.5479932
2,Bederstrasse,8002,47.3652524,8.5313107
18,Wehntalerstrasse,8057,47.3980896,8.5399105
379,Hofwiesenstrasse,8050,47.4117889,8.5452197
60,Ausstellungsstrasse,8005,47.3829824,8.5357988
3,Uraniastrasse,8001,47.3740506,8.5410752
36,Albisstrasse,8038,47.3441758,8.5309460
97,Kasernenstrasse,8004,47.3773339,8.5353361
9,Regensdorferstrasse,8049,47.4025200,8.4987333
16,Regensdorferstrasse,8049,47.4032811,8.4980725
159,Limmattalstrasse,8049,47.4012329,8.5011516
281,Rautistrasse,8048,47.3845988,8.4772959
1,Culmannstrasse,8006,47.3794422,8.5470198
15,Regensdorferstrasse,8049,47.4031061,8.4977920
188,Schaffhauserstrasse,8057,47.4001030,8.5436425
560,Hohlstrasse,8048,47.3910962,8.4888858
24,Zürichbergstrasse,8032,47.3734628,8.5534720
26,Plattenstrasse,8032,47.3737380,8.5531845
5,Gasometerstrasse,8005,47.3835914,8.5283234
55,Freiestrasse,8032,47.3697086,8.5557788
60,Gemeindestrasse,8032,47.3697879,8.5563885
10,Tessinerplatz,8002,47.3640724,8.5309446
89,Seebahnstrasse,8003,47.3711945,8.5228829
75,Zürichbergstrasse,8044,47.3764170,8.5595945
70,Hüttenkopfstrasse,8050,47.3995321,8.5727756
5,Albisriederstrasse,8003,47.3780052,8.5096462
1,Albisriederplatz,8003,47.3779324,8.5104889
231,Badenerstrasse,8003,47.3764240,8.5141895
181,Badenerstrasse,8003,47.3763377,8.5143811
355,Badenerstrasse,8003,47.3783291,8.5096105
333,Badenerstrasse,8003,47.3777162,8.5112192
560,Hohlstrasse,8048,47.3909762,8.4892581
11,Altstetterplatz,8048,47.3914676,8.4887528
14,Robert-Maillart-Strasse,8050,47.4145066,8.5330149
2,Ellen-Widmann-Weg,8050,47.4143917,8.5394550
38,Uetlibergstrasse,8045,47.3639501,8.5201156
24,Eibenstrasse,8045,47.3635821,8.5202242
70,Uetlibergstrasse,8045,47.3626560,8.5186658
473,Hohlstrasse,8048,47.3883215,8.4965956
260,Hardstrasse,8005,47.3884346,8.5208041
234,Hardstrasse,8005,47.3872345,8.5194620
5,Geroldstrasse,8005,47.3848740,8.5202395
1,Maagplatz,8005,47.3858089,8.5165739
3,Schiffbaustrasse,8005,47.3884382,8.5189441
152,Limmatstrasse,8005,47.3855977,8.5314709
50,Limmatstrasse,8005,47.3819993,8.5354777
5,Bahnhofplatz,8001,47.3767165,8.5403343
20,Uetlibergstrasse,8045,47.3648716,8.5210060
297,Birmensdorferstrasse,8055,47.3697414,8.5100698
65,Uetlibergstrasse,8045,47.3623912,8.5189172
19,Hopfenstrasse,8045,47.3651417,8.5200023
166,Uetlibergstrasse,8045,47.3592215,8.5162289
130,Uetlibergstrasse,8045,47.3605314,8.5164809
14,Seegartenstrasse,8008,47.3613874,8.5494120
63,Seefeldstrasse,8008,47.3616226,8.5513071
1,Talstrasse,8001,47.3671121,8.5393433
12,Poststrasse,8001,47.3697691,8.5397725
62,Seefeldstrasse,8008,47.3618394,8.5506873
61,Seefeldstrasse,8008,47.3618934,8.5510330
40,Seefeldstrasse,8008,47.3630112,8.5495281
151,Förrlibuckstrasse,8005,47.3919487,8.5102485
4,Rämistrasse,8001,47.3675511,8.5457188
3,Limmatquai,8001,47.3678872,8.5443882
2,Limmatquai,8001,47.3677942,8.5451446
7,Freieckgasse,8001,47.3673843,8.5458541
4,St. Urbangasse,8001,47.3670484,8.5462454
8,St. Urbangasse,8001,47.3671867,8.5464840
178,Talwiesenstrasse,8055,47.3695212,8.5107127
2,Mühlebachstrasse,8008,47.3659313,8.5490837
4,Dufourstrasse,8008,47.3641688,8.5472235
23,Mainaustrasse,8008,47.3606695,8.5499916
25,Seefeldstrasse,8008,47.3637174,8.5494425
4,Dufourstrasse,8008,47.3642310,8.5471877
6,Falkenstrasse,8008,47.3643873,8.5470213
10,Utoquai,8008,47.3637531,8.5462955
24,Dufourstrasse,8008,47.3637126,8.5476190
2,Klosbachstrasse,8032,47.3647890,8.5548938
5,Kreuzplatz,8032,47.3651703,8.5545280
115,Seefeldstrasse,8008,47.3582879,8.5541672
6,Färberstrasse,8008,47.3617898,8.5482086
5,Seefeldstrasse,8008,47.3650577,8.5482803
142,Dufourstrasse,8008,47.3557489,8.5531163
61,Riesbachstrasse,8008,47.3581997,8.5554797
7,Riesbachstrasse,8008,47.3603851,8.5536988
87,Feldeggstrasse,8008,47.3627304,8.5545618
34,Seefeldstrasse,8008,47.3632012,8.5494522
10,Theaterstrasse,8001,47.3663196,8.5467367
1,Sechseläutenplatz,8001,47.3649869,8.5460635
14,Theaterstrasse,8001,47.3668025,8.5461401
18,Theaterstrasse,8001,47.3673600,8.5461737
237,Regensdorferstrasse,8049,47.4179171,8.4826063
12,Tessinerplatz,8002,47.3638611,8.5311821
2,Beethovenstrasse,8002,47.3652563,8.5378953
6,Zollikerstrasse,8008,47.3640095,8.5544426
96,Seefeldstrasse,8008,47.3597536,8.5524861
123,Seefeldstrasse,8008,47.3579403,8.5546463
163,Bergstrasse,8032,47.3649250,8.5664519
76,Forchstrasse,8008,47.3623472,8.5587815
34,Neumünsterstrasse,8008,47.3615601,8.5603652
10,Hammerstrasse,8008,47.3596206,8.5585046
35,Wolfbachstrasse,8032,47.3703441,8.5522040
27,Hottingerstrasse,8032,47.3697919,8.5529812
31,Hottingerstrasse,8032,47.3696848,8.5535638
33,Hottingerstrasse,8032,47.3695588,8.5540543
2,Kruggasse,8001,47.3681833,8.5451811
7,Hechtplatz,8001,47.3682487,8.5447542
2,Oberdorfstrasse,8001,47.3683512,8.5459397
18,Schifflände,8001,47.3687308,8.5445975
16,Limmatquai,8001,47.3690472,8.5439586
30,Schifflände,8001,47.3691599,8.5440950
2,Weinplatz,8001,47.3712661,8.5417938
20,Münsterhof,8001,47.3700612,8.5416945
5,Waaggasse,8001,47.3700603,8.5398264
4,Waaggasse,8001,47.3702715,8.5401314
8,Münsterhof,8001,47.3702401,8.5403116
6,Münsterhof,8001,47.3700175,8.5403598
16,Kappelergasse,8001,47.3689961,8.5402339
111-113,Seefeldstrasse,8008,47.3583667,8.5540739
19-21,Falkenstrasse,8008,47.3656781,8.5480408
10,Stadelhoferstrasse,8001,47.3667726,8.5480794
20,Kreuzplatz,8032,47.3645956,8.5538464
4,Forchstrasse,8008,47.3643000,8.5551291
8,Forchstrasse,8008,47.3641215,8.5556530
18,Stadelhoferstrasse,8001,47.3670788,8.5477023
22,Stadelhoferstrasse,8001,47.3671507,8.5474280
8,Theaterstrasse,8001,47.3662030,8.5469287
27,Falkenstrasse,8008,47.3661112,8.5486513
19-21,Falkenstrasse,8008,47.3654324,8.5478765
10,Stadelhoferstrasse,8001,47.3668299,8.5481000
38,Freiestrasse,8032,47.3706992,8.5545782
231,Zürichbergstrasse,8044,47.3843967,8.5751844
260,Bellerivestrasse,8008,47.3480497,8.5623665
269,Seefeldstrasse,8008,47.3490341,8.5631953
351,Forchstrasse,8008,47.3534438,8.5768921
331,Forchstrasse,8008,47.3546412,8.5753312
271,Forchstrasse,8008,47.3578267,8.5724184
221,Freiestrasse,8032,47.3604653,8.5670716
193,Forchstrasse,8032,47.3604238,8.5676494
2,Forchstrasse,8008,47.3643316,8.5545739
7,Uraniastrasse,8001,47.3742976,8.5398423
9,Uraniastrasse,8001,47.3743748,8.5394674
3,Werdmühleplatz,8001,47.3751744,8.5397124
48,Rennweg,8001,47.3736638,8.5392193
53,Rennweg,8001,47.3736029,8.5389560
1,Bellevueplatz,8001,47.3670907,8.5451486
2,Limmatquai,8001,47.3676704,8.5452760
81,Seefeldstrasse,8008,47.3603177,8.5523900
260,Forchstrasse,8008,47.3576104,8.5713693
16,Fraumünsterstrasse,8001,47.3689582,8.5413011
3,Riesbachstrasse,8008,47.3605777,8.5536620
123,Seefeldstrasse,8008,47.3579955,8.5544844
17,Stockerstrasse,8002,47.3654980,8.5360074
30,Claridenstrasse,8002,47.3675057,8.5374869
63,Seefeldstrasse,8008,47.3615761,8.5513602
7a,Seefeldstrasse,8008,47.3650488,8.5486637
3,Jonas-Furrer-Strasse,8046,47.4193630,8.5077194
549,Wehntalerstrasse,8046,47.4188884,8.5056989
551,Wehntalerstrasse,8046,47.4192212,8.5054537
11,Schiffbaustrasse,8005,47.3890206,8.5170578
13,Schiffbaustrasse,8005,47.3891361,8.5167438
2,Technoparkstrasse,8005,47.3889729,8.5161860
8,Theaterstrasse,8001,47.3661724,8.5469837
37,Sihlstrasse,8001,47.3726732,8.5357790
21,Hottingerstrasse,8032,47.3701637,8.5519296
4,Beatenplatz,8001,47.3761856,8.5413414
21,Marktgasse,8001,47.3722057,8.5437442
12,Scheffelstrasse,8037,47.3936950,8.5295514
55,Röschibachstrasse,8037,47.3936416,8.5264684
12,Scheffelstrasse,8037,47.3936485,8.5295435
1,Weihersteig,8037,47.3962726,8.5267738
22,Röschibachstrasse,8037,47.3925390,8.5245566
155,Sihlquai,8005,47.3860523,8.5319464
7,Bahnhofplatz,8001,47.3769479,8.5394468
21,Lintheschergasse,8001,47.3766974,8.5388369
87,Bahnhofstrasse,8001,47.3764123,8.5392291
6,Schweizergasse,8001,47.3760268,8.5384828
8,Schweizergasse,8001,47.3760500,8.5383251
32,Schützengasse,8001,47.3771315,8.5375254
12,Seidengasse,8001,47.3750941,8.5376361
34,Löwenstrasse,8001,47.3749180,8.5364760
262,Heinrichstrasse,8005,47.3895233,8.5217251
188,Regensbergstrasse,8050,47.4097743,8.5373570
31,Sihlstrasse,8001,47.3729055,8.5366859
8,Pelikanstrasse,8001,47.3722044,8.5371777
11,Zähringerplatz,8001,47.3735998,8.5447955
11,Sternenstrasse,8002,47.3600645,8.5340786
82,Seestrasse,8002,47.3597047,8.5318434
8,General-Wille-Strasse,8002,47.3635147,8.5339001
36,Grütlistrasse,8002,47.3621580,8.5308050
125,Seestrasse,8002,47.3577263,8.5332740
17,Geroldstrasse,8005,47.3855039,8.5199443
47,Bleicherweg,8002,47.3658410,8.5325611
9,Tessinerplatz,8002,47.3639340,8.5320471
5,Tessinerplatz,8002,47.3643354,8.5321297
13,Stüssihofstatt,8001,47.3723135,8.5437395
109,Badenerstrasse,8004,47.3741511,8.5247996
109,Badenerstrasse,8004,47.3741673,8.5247260
111,Langstrasse,8004,47.3789283,8.5271456
536,Hohlstrasse,8048,47.3901555,8.4921812
177,Limmattalstrasse,8049,47.4018188,8.4993857
126,Hardturmstrasse,8005,47.3937910,8.5132196
261,Hardturmstrasse,8005,47.3936197,8.5078042
24,Seefeldstrasse,8008,47.3637036,8.5488057
14,Spitalgasse,8001,47.3735537,8.5446241
18,Pelikanstrasse,8001,47.3718100,8.5364241
129,Birmensdorferstrasse,8003,47.3698845,8.5208099
1,Kalkbreitestrasse,8003,47.3742338,8.5214527
43,Elisabethenstrasse,8004,47.3739598,8.5209969
100,Seebahnstrasse,8003,47.3728411,8.5211422
138,Sihlfeldstrasse,8004,47.3788337,8.5163135
202,Kanzleistrasse,8004,47.3785125,8.5170798
20,Birmensdorferstrasse,8004,47.3726689,8.5266427
55,Kernstrasse,8004,47.3778418,8.5258089
8,Molkenstrasse,8004,47.3766665,8.5271254
15,Strassburgstrasse,8004,47.3726710,8.5282160
2,Splügenstrasse,8002,47.3645731,8.5342368
21,Badenerstrasse,8004,47.3734328,8.5297366
26,Stauffacherstrasse,8004,47.3731732,8.5293204
6,Badenerstrasse,8004,47.3736830,8.5308900
50,Badenerstrasse,8004,47.3734424,8.5281438
18,Kanzleistrasse,8004,47.3738054,8.5278402
41,Badenerstrasse,8004,47.3732537,8.5287756
55,Birmensdorferstrasse,8004,47.3714414,8.5251725
55,Birmensdorferstrasse,8004,47.3713618,8.5249359
36,Werdstrasse,8004,47.3728259,8.5294871
80,Birmensdorferstrasse,8003,47.3714515,8.5237697
133,Schaffhauserstrasse,8057,47.3972052,8.5408759
109,Badenerstrasse,8004,47.3741322,8.5244471
19,Seestrasse,8002,47.3647025,8.5317713
6,Pfingstweidstrasse,8005,47.3878633,8.5186448
12,Giessereistrasse,8005,47.3900555,8.5179098
66,Hardturmstrasse,8005,47.3919262,8.5187946
15,Max-Bill-Platz,8050,47.4143333,8.5403532
45,Waidbadstrasse,8037,47.3999623,8.5154056
225,Josefstrasse,8005,47.3879264,8.5201721
60b,Pfingstweidstrasse,8005,47.3906821,8.5149569
4,Regensdorferstrasse,8049,47.4026387,8.4989275
15,Rütihofstrasse,8049,47.4137195,8.4794588
18,Hohlstrasse,8004,47.3770674,8.5277016
15,Molkenstrasse,8004,47.3764107,8.5263373
470,Schaffhauserstrasse,8052,47.4195222,8.5482860
491,Schaffhauserstrasse,8052,47.4211522,8.5493620
499,Schaffhauserstrasse,8052,47.4214367,8.5496900
469,Schaffhauserstrasse,8052,47.4198706,8.5480159
479,Schaffhauserstrasse,8052,47.4205226,8.5487362
2a,Bahnhaldenstrasse,8052,47.4194387,8.5469629
460,Schaffhauserstrasse,8052,47.4184353,8.5471740
43,Binzmühlestrasse,8050,47.4140306,8.5452509
475,Schaffhauserstrasse,8052,47.4202502,8.5484299
2a,Bahnhaldenstrasse,8052,47.4194842,8.5469086
9,Nansenstrasse,8050,47.4107063,8.5448251
354,Schaffhauserstrasse,8050,47.4100617,8.5464781
352,Schaffhauserstrasse,8050,47.4098258,8.5464212
1,Wallisellenstrasse,8050,47.4103990,8.5466217
354,Schaffhauserstrasse,8050,47.4099916,8.5463757
117,Dörflistrasse,8050,47.4109387,8.5469906
9,Max-Bill-Platz,8050,47.4141700,8.5394484
7,Max-Bill-Platz,8050,47.4139298,8.5394202
78,Kanzleistrasse,8004,47.3756685,8.5243755
7,Wengistrasse,8004,47.3748981,8.5234086
35,Hohlstrasse,8004,47.3770779,8.5264444
181,Albisriederstrasse,8047,47.3775520,8.4983437
73,Universitätstrasse,8006,47.3824677,8.5479911
96,Stauffacherstrasse,8004,47.3765292,8.5259639
44,Hohlstrasse,8004,47.3775516,8.5262968
2,Ellen-Widmann-Weg,8050,47.4145536,8.5394615
15,Max-Bill-Platz,8050,47.4143322,8.5405276
5,Otto-Schütz-Weg,8050,47.4148171,8.5408969
19,Max-Bill-Platz,8050,47.4143135,8.5408549
348,Schaffhauserstrasse,8050,47.4095081,8.5465063
345,Schaffhauserstrasse,8050,47.4092055,8.5462331
3,Querstrasse,8050,47.4099302,8.5457062
38,Winzerstrasse,8049,47.4010238,8.4915916
146,Am Wasser,8049,47.3995892,8.4972119
387,Wehntalerstrasse,8046,47.4141963,8.5182140
309,Regensbergstrasse,8050,47.4114261,8.5265305
35,Köchlistrasse,8004,47.3739825,8.5222246
42,Baumackerstrasse,8050,47.4096081,8.5427060
197,Langstrasse,8005,47.3825398,8.5296036
50,Limmatstrasse,8005,47.3818876,8.5355750
15,Regensdorferstrasse,8049,47.4031860,8.4976343
8,Albisriederplatz,8004,47.3786284,8.5103744
376,Badenerstrasse,8004,47.3791999,8.5087992
81,Sihlfeldstrasse,8004,47.3758295,8.5164278
244,Badenerstrasse,8004,47.3758529,8.5173594
232,Albisriederstrasse,8047,47.3791065,8.4946389
62,Gotthardstrasse,8002,47.3648388,8.5323564
11,Langstrasse,8004,47.3748589,8.5244037
120,Badenerstrasse,8004,47.3744220,8.5239732
120,Badenerstrasse,8004,47.3744932,8.5240393
3,Elisabethenstrasse,8004,47.3724091,8.5232069
2,Welchogasse,8050,47.4095283,8.5461048
5,Welchogasse,8050,47.4093496,8.5461235
339,Schaffhauserstrasse,8050,47.4088628,8.5463003
12,Rautistrasse,8047,47.3802915,8.4940158
78,Badenerstrasse,8004,47.3738833,8.5264947
1,Freilagerstrasse,8047,47.3779936,8.4926226
39,Langstrasse,8004,47.3760590,8.5252233
2,Ohmstrasse,8050,47.4105090,8.5461529
51,Birmensdorferstrasse,8004,47.3715926,8.5256213
30,Breitingerstrasse,8002,47.3625030,8.5330275
597,Wehntalerstrasse,8046,47.4210295,8.5017030
85,Sihlfeldstrasse,8004,47.3761196,8.5163348
89,Sihlfeldstrasse,8004,47.3764320,8.5162699
163,Stauffacherstrasse,8004,47.3778609,8.5211491
56,Herman-Greulich-Strasse,8004,47.3783616,8.5206048
45,Sihlfeldstrasse,8003,47.3744885,8.5168160
63,Sihlfeldstrasse,8003,47.3752742,8.5165912
27,Stauffacherstrasse,8004,47.3730187,8.5289781
35,Beethovenstrasse,8002,47.3672324,8.5354219
21,Jonas-Furrer-Strasse,8046,47.4202260,8.5085756
32,Beethovenstrasse,8002,47.3673025,8.5360943
2,Selnaustrasse,8001,47.3698304,8.5336387
47,Stockerstrasse,8002,47.3682406,8.5342265
5,Sihlamtsstrasse,8001,47.3702232,8.5318280
40,Rütihofstrasse,8049,47.4138889,8.4774567
21,Rütihofstrasse,8049,47.4139157,8.4789474
180,Weststrasse,8003,47.3743750,8.5177655
21,Langstrasse,8004,47.3754357,8.5244774
144,Limmatquai,8001,47.3765801,8.5441952
66,Niederdorfstrasse,8001,47.3755965,8.5441089
11,Mühlegasse,8001,47.3743728,8.5439976
40,Niederdorfstrasse,8001,47.3745243,8.5439506
76,Niederdorfstrasse,8001,47.3759081,8.5441559
100,Rämistrasse,8006,47.3765878,8.5490701
25,Niederdorfstrasse,8001,47.3741258,8.5435892
30,Niederdorfstrasse,8001,47.3740829,8.5438491
14,Kirchgasse,8001,47.3697813,8.5445846
1a,Werdinsel,8049,47.3993584,8.4893633
73,Bullingerstrasse,8004,47.3814552,8.5095138
320,Mythenquai,8038,47.3483916,8.5341088
100,Thurgauerstrasse,8052,47.4196530,8.5562010
100,Thurgauerstrasse,8052,47.4198064,8.5563058
457,Badenerstrasse,8003,47.3807554,8.5040594
32,Oberdorfstrasse,8001,47.3693607,8.5447874
1,Stauffacherquai,8004,47.3731773,8.5316759
83,Birmensdorferstrasse,8003,47.3707577,8.5238038
89a,Wasserwerkstrasse,8037,47.3867368,8.5340332
14,Wolfgang-Pauli-Strasse,8049,47.4083614,8.5079214
27,Wolfgang-Pauli-Strasse,8093,47.4103225,8.5085530
5,Hofwiesenstrasse,8057,47.3922444,8.5381347
75,Schaffhauserstrasse,8057,47.3925525,8.5384284
1-5,Milchbuckstrasse,8057,47.3957248,8.5404707
34,Leonhardstrasse,8092,47.3759249,8.5466398
34,Leonhardstrasse,8092,47.3763026,8.5465369
6,Universitätstrasse,8092,47.3783140,8.5488050
18,Fierzgasse,8005,47.3841236,8.5317649
17,Habsburgstrasse,8037,47.3919593,8.5269784
237,Heinrichstrasse,8005,47.3886944,8.5227559
1,Zeughausstrasse,8004,47.3745992,8.5320588
61,Zeughausstrasse,8004,47.3763729,8.5292946
121,Schaffhauserstrasse,8057,47.3962653,8.5402882
125,Schaffhauserstrasse,8057,47.3965472,8.5404687
70,Niederdorfstrasse,8001,47.3757513,8.5441431
132,Limmatquai,8001,47.3758264,8.5438660
6,In Gassen,8001,47.3706846,8.5406432
245,Schweighofstrasse,8055,47.3612769,8.5056635
517,Birmensdorferstrasse,8055,47.3674023,8.4943259
1,Niklausstrasse,8006,47.3864891,8.5391019
55,Am Wasser,8049,47.3956579,8.5063309
175,Altstetterstrasse,8048,47.3858113,8.4860116
56,Thurgauerstrasse,8050,47.4159403,8.5528486
184,Scheuchzerstrasse,8057,47.3946186,8.5425411
76,Glatttalstrasse,8052,47.4271971,8.5469024
550,Hohlstrasse,8048,47.3904417,8.4908812
544,Hohlstrasse,8048,47.3903750,8.4913858
102,Hegibachstrasse,8032,47.3646705,8.5666881
21,Ausstellungsstrasse,8005,47.3815648,8.5369701
509,Schaffhauserstrasse,8052,47.4216827,8.5498597
3,Witikonerstrasse,8032,47.3643937,8.5667554
35,Uraniastrasse,8001,47.3730817,8.5355865
20,Marktgasse,8001,47.3721828,8.5439082
3,Metzgergasse,8001,47.3721619,8.5432079
3,Spitalgasse,8001,47.3735166,8.5439446
16,Bertastrasse,8003,47.3748597,8.5149995
76,Bertastrasse,8003,47.3723327,8.5104366
99,Sihlstrasse,8001,47.3730587,8.5324944
82,Talstrasse,8001,47.3721520,8.5346291
102,Uetlibergstrasse,8045,47.3618473,8.5177598
107,Uetlibergstrasse,8045,47.3612909,8.5176250
140,Birmensdorferstrasse,8003,47.3701315,8.5200770
10,Binzring,8045,47.3615291,8.5098809
11,Hardturmstrasse,8005,47.3912062,8.5185804
571a,Badenerstrasse,8048,47.3838351,8.4961616
17,Strassburgstrasse,8004,47.3728883,8.5280453
60,Werdstrasse,8004,47.3726372,8.5277578
66,Werdstrasse,8004,47.3726012,8.5273865
5,Strassburgstrasse,8004,47.3722450,8.5289743
6,Köchlistrasse,8004,47.3732235,8.5237696
16,Badenerstrasse,8004,47.3736978,8.5307293
7,Müllerstrasse,8004,47.3739550,8.5313012
29,Pflanzschulstrasse,8004,47.3764695,8.5195407
123,Brauerstrasse,8004,47.3798419,8.5218944
115,Brauerstrasse,8004,47.3800406,8.5225929
68,Konradstrasse,8005,47.3818740,8.5338089
33,Klingenstrasse,8005,47.3819982,8.5336329
160,Limmattalstrasse,8049,47.4016256,8.5010076
168,Limmattalstrasse,8049,47.4018760,8.5002193
177,Limmattalstrasse,8049,47.4017494,8.4996666
178,Limmattalstrasse,8049,47.4021194,8.4994606
56,Glatttalstrasse,8052,47.4258408,8.5478098
138,Glatttalstrasse,8052,47.4310129,8.5442164
8,Gessnerallee,8001,47.3751438,8.5349263
11,Gessnerallee,8001,47.3744071,8.5336734
62,Langstrasse,8004,47.3768022,8.5261200
67,Hohlstrasse,8004,47.3777467,8.5244364
5,Neumarkt,8001,47.3726451,8.5457546
18,Kanonengasse,8004,47.3772565,8.5294991
16,Albisriederstrasse,8003,47.3782065,8.5085890
24,Zahnradstrasse,8005,47.3868557,8.5169154
129,Wasserwerkstrasse,8037,47.3890103,8.5300993
395,Seestrasse,8038,47.3434159,8.5357631
92,Weinbergstrasse,8006,47.3847497,8.5430595
1,Schaffhauserstrasse,8006,47.3880223,8.5391198
26,Weinbergstrasse,8001,47.3789263,8.5444555
4,Engelstrasse,8004,47.3748470,8.5221288
144,Badenerstrasse,8004,47.3744335,8.5224373
2,Niederdorfstrasse,8001,47.3727200,8.5438402
42,Limmatquai,8001,47.3708573,8.5432024
3,Nägelihof,8001,47.3708655,8.5438060
7,Rennweg,8001,47.3724404,8.5398562
5,Römerhofplatz,8032,47.3683702,8.5605979
51,Zähringerstrasse,8001,47.3766497,8.5442567
142,Limmatquai,8001,47.3764199,8.5441261
90,Niederdorfstrasse,8001,47.3763302,8.5440373
88,Niederdorfstrasse,8001,47.3762232,8.5440583
84,Niederdorfstrasse,8001,47.3761215,8.5440720
74,Niederdorfstrasse,8001,47.3758260,8.5441268
68,Niederdorfstrasse,8001,47.3756656,8.5441177
64,Niederdorfstrasse,8001,47.3754942,8.5440790
60,Niederdorfstrasse,8001,47.3754161,8.5440085
52,Niederdorfstrasse,8001,47.3751577,8.5439328
39,Niederdorfstrasse,8001,47.3749576,8.5437443
40,Niederdorfstrasse,8001,47.3745945,8.5439190
29,Niederdorfstrasse,8001,47.3745124,8.5437060
21,Niederdorfstrasse,8001,47.3738970,8.5436368
6,Badergasse,8001,47.3738072,8.5433593
15,Niederdorfstrasse,8001,47.3734874,8.5436348
13,Niederdorfstrasse,8001,47.3733773,8.5432575
11,Niederdorfstrasse,8001,47.3733143,8.5436396
10,Niederdorfstrasse,8001,47.3730720,8.5439228
10,Niederdorfstrasse,8001,47.3730001,8.5438598
10,Niederdorfstrasse,8001,47.3729070,8.5438580
5,Niederdorfstrasse,8001,47.3729061,8.5436598
7,Niederdorfstrasse,8001,47.3729877,8.5436586
1,Niederdorfstrasse,8001,47.3726619,8.5436085
19,Marktgasse,8001,47.3721304,8.5437352
27,Münstergasse,8001,47.3717372,8.5436505
12,Marktgasse,8001,47.3718028,8.5439066
21,Münstergasse,8001,47.3715110,8.5438574
23,Münstergasse,8001,47.3715721,8.5438375
4,Napfgasse,8001,47.3714893,8.5443699
4,Münstergasse,8001,47.3708560,8.5445409
3,Blaufahnenstrasse,8001,47.3709521,8.5448246
27,Oberdorfstrasse,8001,47.3695359,8.5444403
44,Albisstrasse,8038,47.3438585,8.5298166
4,Schiffbaustrasse,8005,47.3886695,8.5191166
445,Wehntalerstrasse,8046,47.4154865,8.5130242
130,Limmattalstrasse,8049,47.4004328,8.5036259
22,Brahmsstrasse,8003,47.3786937,8.5065553
5-7,Sihlhallenstrasse,8004,47.3795994,8.5270327
57,Kornhausstrasse,8037,47.3912249,8.5359972
331,Schaffhauserstrasse,8050,47.4080191,8.5465859
336,Schaffhauserstrasse,8050,47.4080425,8.5470462
335,Schaffhauserstrasse,8050,47.4085258,8.5464126
330,Schaffhauserstrasse,8050,47.4076280,8.5472258
33,Seebahnstrasse,8003,47.3709038,8.5233636
10,Frankentalerstrasse,8049,47.4055169,8.4812849
12,Saatlenstrasse,8051,47.4047820,8.5718792
480,Schaffhauserstrasse,8052,47.4196446,8.5484530
502,Schaffhauserstrasse,8052,47.4214731,8.5502880
470,Schaffhauserstrasse,8052,47.4196734,8.5483971
90,Katzenbachstrasse,8052,47.4228706,8.5470656
14,Wolfgang-Pauli-Strasse,8093,47.4084878,8.5080082
1,Emil-Oprecht-Strasse,8050,47.4119577,8.5410497
5,Lerchenberg,8046,47.4122149,8.5086931
7,Lerchenberg,8046,47.4119992,8.5083426
9,Lerchenberg,8046,47.4123398,8.5084259
11,Lerchenberg,8046,47.4124831,8.5082830
2,Lerchenberg,8046,47.4126048,8.5091903
4,Lerchenberg,8046,47.4127576,8.5094982
6,Lerchenberg,8046,47.4129537,8.5089184
8,Lerchenberg,8046,47.4127723,8.5091008
17,Lerchenberg,8046,47.4121693,8.5077824
19,Lerchenberg,8046,47.4120276,8.5075290
20,Lerchenberg,8046,47.4130010,8.5081188
14,Lerchenberg,8046,47.4131146,8.5083006
18,Lerchenberg,8046,47.4131508,8.5079719
16,Lerchenberg,8046,47.4133086,8.5077901
45,Lerchenberg,8046,47.4136102,8.5071685
43,Lerchenberg,8046,47.4134767,8.5069110
47,Lerchenberg,8046,47.4136699,8.5067783
37,Lerchenberg,8046,47.4130736,8.5071397
35,Lerchenberg,8046,47.4128622,8.5068063
39,Lerchenberg,8046,47.4130951,8.5066745
31,Lerchenberg,8046,47.4124801,8.5069276
29,Lerchenberg,8046,47.4123242,8.5065755
27,Lerchenberg,8046,47.4121649,8.5067713
25,Lerchenberg,8046,47.4119992,8.5069555
190,Ackersteinstrasse,8049,47.4009100,8.5001545
60,Stampfenbachstrasse,8006,47.3812767,8.5424243
230,Badenerstrasse,8004,47.3758096,8.5171178
219,Badenerstrasse,8003,47.3752429,8.5177380
138,Sihlfeldstrasse,8004,47.3790894,8.5162093
25,Uraniastrasse,8001,47.3745566,8.5371702
6,Sihlstrasse,8001,47.3738550,8.5370669
39,Bleicherweg,8002,47.3662032,8.5329076
47,Pflanzschulstrasse,8004,47.3764393,8.5202361
177,Stauffacherstrasse,8004,47.3781278,8.5203259
174,Stauffacherstrasse,8004,47.3781815,8.5210555
95,Pflanzschulstrasse,8004,47.3787279,8.5218575
110,Brauerstrasse,8004,47.3800218,8.5230344
123,Feldstrasse,8004,47.3799396,8.5240669
125,Feldstrasse,8004,47.3800409,8.5239720
127,Feldstrasse,8004,47.3802151,8.5239164
114,Brauerstrasse,8004,47.3802677,8.5236534
305,Hardstrasse,8005,47.3899318,8.5212819
21,Kornhausstrasse,8037,47.3879989,8.5359119
634,Wehntalerstrasse,8046,47.4231699,8.4991627
634,Wehntalerstrasse,8046,47.4229383,8.5003472
1,Stadelhoferplatz,8001,47.3662927,8.5477565
22,Goethestrasse,8001,47.3660923,8.5482317
237,Langstrasse,8005,47.3840524,8.5309307
21,Dreikönigstrasse,8002,47.3670249,8.5369792
225,Langstrasse,8005,47.3835567,8.5305025
91,Josefstrasse,8005,47.3829967,8.5306674
7,Limmatplatz,8005,47.3849509,8.5318219
1,Limmatplatz,8005,47.3842469,8.5316451
241,Langstrasse,8005,47.3842512,8.5310961
119,Limmatstrasse,8005,47.3839118,8.5323405
117,Zollstrasse,8005,47.3815517,8.5300454
229,Langstrasse,8005,47.3837642,8.5306845
181,Winterthurerstrasse,8057,47.3980291,8.5461300
17,Brunngasse,8001,47.3734574,8.5449046
65,Giesshübelstrasse,8045,47.3580599,8.5173007
15,Gablerstrasse,8002,47.3589183,8.5297352
267,Heinrichstrasse,8005,47.3887272,8.5213785
267,Heinrichstrasse,8005,47.3884825,8.5211173
5,Kalanderplatz,8045,47.3580389,8.5221427
300,Regensbergstrasse,8050,47.4115497,8.5280301
21,Jonas-Furrer-Strasse,8046,47.4204198,8.5082174
174,In Böden,8046,47.4199085,8.5080891
1,Fabrikstrasse,8005,47.3874430,8.5295366
354,Hofwiesenstrasse,8050,47.4105711,8.5430953
350-354,Hofwiesenstrasse,8050,47.4107127,8.5432363
74,Seilergraben,8001,47.3765931,8.5447612
69,Seilergraben,8001,47.3762729,8.5446666
23,Fabrikstrasse,8005,47.3863612,8.5280176
180,Limmatstrasse,8005,47.3863905,8.5295503
186,Limmatstrasse,8005,47.3870499,8.5299899
51,Josefstrasse,8005,47.3845990,8.5275777
97,Sihlstrasse,8001,47.3729919,8.5327533
48,Röntgenstrasse,8005,47.3847889,8.5271250
218,Josefstrasse,8005,47.3875172,8.5227486
214,Josefstrasse,8005,47.3872757,8.5232440
212,Josefstrasse,8005,47.3870756,8.5230308
216,Josefstrasse,8005,47.3873165,8.5225353
41,Badenerstrasse,8004,47.3732185,8.5288507
5,Bellevueplatz,8001,47.3674528,8.5445780
1,Engelstrasse,8004,47.3747658,8.5214439
3,Engelstrasse,8004,47.3748814,8.5216447
5,Engelstrasse,8004,47.3749959,8.5218451
7,Engelstrasse,8004,47.3751095,8.5220465
240,Sihlquai,8005,47.3874601,8.5302574
3,Friesenbergplatz,8045,47.3609191,8.5068265
542,Badenerstrasse,8048,47.3835275,8.4991562
77a,Kasernenstrasse,8004,47.3761362,8.5338456
39,Herrligstrasse,8048,47.3885734,8.4847702
3,Scheffelstrasse,8037,47.3937084,8.5292465
72,Röschibachstrasse,8037,47.3930599,8.5285694
58,Dammstrasse,8037,47.3933700,8.5294371
4,Nordbrücke,8037,47.3935843,8.5296761
22,Uetlibergstrasse,8045,47.3645425,8.5207830
135,Hofwiesenstrasse,8057,47.3988666,8.5326286
39,St. Jakobstrasse,8004,47.3748238,8.5294079
1,Bockhornstrasse,8047,47.3759665,8.4839506
379,Albisriederstrasse,8047,47.3750359,8.4841815
13,Max-Bill-Platz,8050,47.4143470,8.5401427
102,Binzmühlestrasse,8050,47.4137515,8.5390963
104,Binzmühlestrasse,8050,47.4135291,8.5387892
88,Seefeldstrasse,8008,47.3602524,8.5521363
56,Herdernstrasse,8004,47.3830187,8.5061122
29,Rütschistrasse,8037,47.3938594,8.5311096
31,Bahnhofstrasse,8001,47.3709245,8.5385422
7,Stationsstrasse,8003,47.3727070,8.5198180
37,Plattenstrasse,8032,47.3729648,8.5545976
110,Hagenholzstrasse,8050,47.4148407,8.5647166
7,Gottfried-Keller-Strasse,8001,47.3664563,8.5476202
2b,Utoquai,8038,47.3676554,8.5435036
20-22,Bärengasse,8001,47.3696895,8.5365613
424,Hohlstrasse,8048,47.3876887,8.5003739
20,Dachslernstrasse,8048,47.3886220,8.4806770
25,Alfred-Escher-Strasse,8002,47.3638846,8.5334810
2,Kochstrasse,8004,47.3779179,8.5160184
31a,Dreikönigstrasse,8002,47.3663045,8.5350081
11,Franklinstrasse,8050,47.4090339,8.5450649
333,Wallisellenstrasse,8050,47.4110882,8.5628577
141,Stauffacherstrasse,8004,47.3772026,8.5228816
44,Schulstrasse,8050,47.4107886,8.5434830
25,Selnaustrasse,8001,47.3725862,8.5323111
28,Grubenstrasse,8045,47.3617716,8.5149344
10,Räffelstrasse,8045,47.3632680,8.5154139
12,Grubenstrasse,8045,47.3619773,8.5164484
2,H.-R.-Giger-Weg,8052,47.4220718,8.5529983
102,Stampfenbachstrasse,8006,47.3831180,8.5413332
27,Waidstrasse,8037,47.3958783,8.5223606
22,Niederdorfstrasse,8001,47.3737764,8.5437342
9,Uraniastrasse,8001,47.3743784,8.5393280
96,Limmatquai,8001,47.3744414,8.5432381
96,Limmatquai,8001,47.3745017,8.5432535
98,Limmatquai,8001,47.3745643,8.5432628
100,Limmatquai,8001,47.3746710,8.5432714
106,Limmatquai,8001,47.3750168,8.5434055
110,Limmatquai,8001,47.3751241,8.5435996
116,Limmatquai,8001,47.3753724,8.5435390
122,Limmatquai,8001,47.3756019,8.5436018
102,Limmatquai,8001,47.3748142,8.5433481
34a,Müllerstrasse,8004,47.3749524,8.5305302
1a,Rosengartenstrasse,8037,47.3932805,8.5236214
5,Limmatstrasse,8005,47.3801255,8.5374525
5,Limmatstrasse,8005,47.3802393,8.5372867
41,Sihlquai,8005,47.3815048,8.5376100
201,Hardstrasse,8005,47.3859984,8.5174066
72,Rotbuchstrasse,8037,47.3934106,8.5301545
68,Rotbuchstrasse,8037,47.3933575,8.5304850
586c,Wehntalerstrasse,8046,47.4209538,8.5025926
30,Bleicherweg,8002,47.3681056,8.5358071
62,Rotbuchstrasse,8037,47.3932614,8.5312229
14,Binzmühlestrasse,8050,47.4142375,8.5496663
121,Allmendstrasse,8041,47.3403588,8.5193947
65,Ankerstrasse,8004,47.3749683,8.5258392
344,Badenerstrasse,8004,47.3781646,8.5109337
231,Zurlindenstrasse,8003,47.3752564,8.5132591
6,Ankerstrasse,8004,47.3725479,8.5239768
19,Tellstrasse,8004,47.3787873,8.5288027
15,Neufrankengasse,8004,47.3804729,8.5270494
103,Langstrasse,8004,47.3787576,8.5270372
7,Limmatplatz,8005,47.3851076,8.5314772
6,Limmatplatz,8005,47.3847471,8.5311137
12,Militärstrasse,8004,47.3763300,8.5332976
201,Hardturmstrasse,8005,47.3935649,8.5094170
20,Uraniastrasse,8001,47.3740895,8.5361280
1,Löwenstrasse,8001,47.3730935,8.5343630
395,Seestrasse,8038,47.3434473,8.5364251
56,Neugasse,8005,47.3827935,8.5295411
7,Schoffelgasse,8001,47.3711907,8.5436743
131,Kalkbreitestrasse,8003,47.3705169,8.5143437
147,Altstetterstrasse,8048,47.3878129,8.4868415
5,Lindenplatz,8048,47.3873990,8.4854595
681,Badenerstrasse,8048,47.3877883,8.4855758
672,Badenerstrasse,8048,47.3879571,8.4863203
585,Badenerstrasse,8048,47.3849608,8.4947688
501,Badenerstrasse,8048,47.3812766,8.5029351
393,Binzmühlestrasse,8046,47.4140560,8.5213913
9,Chaletweg,8050,47.4128887,8.5321239
40,Hirzenbachstrasse,8051,47.4034212,8.5893605
72,Oberwiesenstrasse,8050,47.4127255,8.5317411
74,Oberwiesenstrasse,8050,47.4127132,8.5320180
30,Langwiesstrasse,8050,47.4112925,8.5346202
34,Langwiesstrasse,8050,47.4115114,8.5340652
148,Affolternstrasse,8050,47.4112226,8.5323683
125,Affolternstrasse,8050,47.4107142,8.5341463
26,Kügeliloostrasse,8050,47.4120109,8.5291460
199,Affolternstrasse,8050,47.4115504,8.5291784
201,Affolternstrasse,8050,47.4117102,8.5292213
34,Kügeliloostrasse,8050,47.4122507,8.5293555
36,Kügeliloostrasse,8050,47.4123771,8.5293848
73a,Oberwiesenstrasse,8050,47.4120115,8.5310238
73d,Oberwiesenstrasse,8050,47.4124253,8.5306161
73e,Oberwiesenstrasse,8050,47.4125403,8.5306660
73f,Oberwiesenstrasse,8050,47.4122727,8.5311755
73g,Oberwiesenstrasse,8050,47.4124739,8.5312514
8,Flurstrasse,8048,47.3869997,8.4966793
60,Baslerstrasse,8048,47.3867459,8.4963630
2,Flurstrasse,8048,47.3880965,8.4971955
471,Hohlstrasse,8048,47.3882403,8.4968284
507,Hohlstrasse,8048,47.3891634,8.4940153
517,Hohlstrasse,8048,47.3893349,8.4928321
6,Schmidgasse,8001,47.3746906,8.5434991
102,Baslerstrasse,8048,47.3875196,8.4933990
530,Badenerstrasse,8048,47.3831915,8.5000558
571,Badenerstrasse,8048,47.3843600,8.4965827
15,Rudenzweg,8048,47.3844892,8.4986090
554,Hohlstrasse,8048,47.3907475,8.4899153
85,In der Ey,8047,47.3702753,8.4920191
239,Letzigraben,8047,47.3704893,8.4927577
14,Freiestrasse,8032,47.3733589,8.5521561
12,Gräbligasse,8001,47.3755172,8.5447481
28,Zähringerstrasse,8001,47.3754122,8.5446840
9,Gräbligasse,8001,47.3756281,8.5447944
69,Seilergraben,8001,47.3761666,8.5447841
6,Leonhardstrasse,8001,47.3789806,8.5449371
1,Leonhardstrasse,8001,47.3791435,8.5452080
55,Clausiusstrasse,8092,47.3802576,8.5452552
3,Haldenbachstrasse,8006,47.3799672,8.5469246
2,Haldenbachstrasse,8006,47.3797764,8.5469483
20,Sonneggstrasse,8006,47.3796498,8.5468125
40,Universitätstrasse,8006,47.3805744,8.5483371
11,Universitätstrasse,8006,47.3784731,8.5479490
9,Universitätstrasse,8006,47.3782514,8.5479609
8,Universitätstrasse,8006,47.3789731,8.5483091
16,Universitätstrasse,8006,47.3793567,8.5483147
31,Universitätstrasse,8006,47.3796283,8.5479597
39,Universitätstrasse,8006,47.3801122,8.5480132
13,Stüssihofstatt,8001,47.3723500,8.5436672
6,Grossmünsterplatz,8001,47.3696941,8.5443598
2,Oberdorfstrasse,8001,47.3683116,8.5458880
1,Frankengasse,8001,47.3694326,8.5447271
9,Kirchgasse,8001,47.3700099,8.5446076
26,Münstergasse,8001,47.3716025,8.5439078
1,Spiegelgasse,8001,47.3716221,8.5440917
14,Marktgasse,8001,47.3719843,8.5438876
19,Marktgasse,8001,47.3721215,8.5437803
1,Kirchgasse,8001,47.3693561,8.5439336
20,Limmatquai,8001,47.3693463,8.5437951
1,Rüdenplatz,8001,47.3709424,8.5431943
2,Rüdenplatz,8001,47.3710388,8.5432970
82,Limmatquai,8001,47.3735016,8.5429504
88,Limmatquai,8001,47.3738500,8.5430559
94,Limmatquai,8001,47.3741873,8.5431516
17,Zähringerplatz,8001,47.3740356,8.5444740
9,Zähringerstrasse,8001,47.3743220,8.5445625
12,Theaterstrasse,8001,47.3665378,8.5465228
4,Limmatquai,8001,47.3680495,8.5448701
10,Rosengasse,8001,47.3731339,8.5434820
82,Limmatquai,8001,47.3735273,8.5430124
10,Graue Gasse,8001,47.3735245,8.5434014
9,Hirschengasse,8001,47.3734396,8.5434048
12,Graue Gasse,8001,47.3735458,8.5435454
18,Niederdorfstrasse,8001,47.3735536,8.5438226
2,Spitalgasse,8001,47.3733368,8.5439692
2,Spitalgasse,8001,47.3733914,8.5440513
74,Limmatquai,8001,47.3729666,8.5429790
3,Stüssihofstatt,8001,47.3726391,8.5432845
3,Stüssihofstatt,8001,47.3725790,8.5433042
76,Limmatquai,8001,47.3730900,8.5429984
5,Rosengasse,8001,47.3732271,8.5433304
12,Brunngasse,8001,47.3732316,8.5446029
23,Marktgasse,8001,47.3723034,8.5438071
15,Stüssihofstatt,8001,47.3724834,8.5433829
16,Rindermarkt,8001,47.3723923,8.5447663
8,Schlüsselgasse,8001,47.3709800,8.5411700
2,Marktgasse,8001,47.3717841,8.5431082
4,Marktgasse,8001,47.3717999,8.5432316
62,Limmatquai,8001,47.3720822,8.5430073
15,Metzgergasse,8001,47.3720923,8.5436882
18,Marktgasse,8001,47.3721126,8.5439075
8,Schneggengasse,8001,47.3723574,8.5431576
88,Limmatquai,8001,47.3737914,8.5430563
519,Winterthurerstrasse,8051,47.4040619,8.5717620
524,Winterthurerstrasse,8051,47.4037955,8.5730423
524,Winterthurerstrasse,8051,47.4039790,8.5727162
529,Winterthurerstrasse,8051,47.4045260,8.5729473
21,Bahnhofstrasse,8001,47.3694816,8.5391402
1a,Bleicherweg,8001,47.3689525,8.5384389
46,Tödistrasse,8002,47.3674208,8.5339604
44,Tödistrasse,8002,47.3671287,8.5341393
25,Bleicherweg,8002,47.3673934,8.5343486
27,Bleicherweg,8002,47.3673176,8.5342531
16,Selnaustrasse,8001,47.3702331,8.5328922
46,Bleicherweg,8002,47.3678875,8.5348942
10,Bleicherweg,8002,47.3684665,8.5367856
18,Bleicherweg,8002,47.3682598,8.5363320
11,Altstetterplatz,8048,47.3915497,8.4884573
5,Hardaustrasse,8003,47.3779135,8.5102727
213,Badenerstrasse,8003,47.3751657,8.5180665
15,Badenerstrasse,8004,47.3732882,8.5305624
80,Limmatquai,8001,47.3733722,8.5429910
94,Limmatquai,8001,47.3742181,8.5432466
5,Spitalgasse,8001,47.3736035,8.5442869
5,Spitalgasse,8001,47.3735523,8.5441065
8,Spitalgasse,8001,47.3734466,8.5442664
5,Spitalgasse,8001,47.3736467,8.5444180
8,Schmidgasse,8001,47.3747081,8.5437108
5,Schmidgasse,8001,47.3747427,8.5437019
3,Malergasse,8001,47.3745606,8.5442604
46,Niederdorfstrasse,8001,47.3749695,8.5438675
1,Häringstrasse,8001,47.3749438,8.5439710
21,Zähringerstrasse,8001,47.3749804,8.5445108
3,Am Rank,8001,47.3754623,8.5437310
25,Zähringerstrasse,8001,47.3752188,8.5444857
21,Zähringerstrasse,8001,47.3750719,8.5444095
61,Niederdorfstrasse,8001,47.3756566,8.5439639
2,Gräbligasse,8001,47.3755246,8.5441159
57,Niederdorfstrasse,8001,47.3755650,8.5439407
63,Niederdorfstrasse,8001,47.3757250,8.5439814
3,Gräbligasse,8001,47.3756375,8.5442399
33,Zähringerstrasse,8001,47.3757274,8.5444631
17,Mühlegasse,8001,47.3744622,8.5448208
28,Zähringerstrasse,8001,47.3754711,8.5447223
32,Zähringerstrasse,8001,47.3757507,8.5446601
136,Limmatquai,8001,47.3759780,8.5438053
134,Limmatquai,8001,47.3759136,8.5437443
67,Niederdorfstrasse,8001,47.3758131,8.5439946
69,Niederdorfstrasse,8001,47.3758968,8.5439942
43,Zähringerstrasse,8001,47.3761683,8.5443812
142,Limmatquai,8001,47.3764444,8.5441610
15,Brauerstrasse,8004,47.3773121,8.5277904
60,Stauffacherstrasse,8004,47.3755766,8.5271252
105,Militärstrasse,8004,47.3790011,8.5288494
1,Sihlhallenstrasse,8004,47.3793783,8.5274204
122,Langstrasse,8004,47.3793647,8.5276523
18,Hohlstrasse,8004,47.3770748,8.5274942
4,Kurzgasse,8004,47.3772164,8.5276576
113,Ankerstrasse,8004,47.3763280,8.5278780
4,Brauerstrasse,8004,47.3770439,8.5287783
42,Brauerstrasse,8004,47.3779077,8.5270821
10,Langstrasse,8004,47.3747605,8.5246725
156,Badenerstrasse,8004,47.3745898,8.5218592
7,Herostrasse,8048,47.3940047,8.4878976
9,Herostrasse,8048,47.3937532,8.4882582
10,Albisriederplatz,8004,47.3782798,8.5108558
334,Albisriederstrasse,8047,47.3758956,8.4870255
330,Albisriederstrasse,8047,47.3760408,8.4881764
205,Aemtlerstrasse,8003,47.3775600,8.5080068
1,Birmensdorferstrasse,8004,47.3729960,8.5278947
475,Dübendorfstrasse,8051,47.3972723,8.5963102
70,Rotwandstrasse,8004,47.3760207,8.5296180
69,Rotwandstrasse,8004,47.3760847,8.5294885
34,Oberdorfstrasse,8001,47.3694481,8.5446634
22,Dennlerstrasse,8048,47.3816652,8.4979596
30,Dennlerstrasse,8047,47.3811563,8.4972590
24,Dennlerstrasse,8048,47.3815526,8.4978148
90,Badenerstrasse,8004,47.3743100,8.5259877
66,Badenerstrasse,8004,47.3735871,8.5273055
350,Hofwiesenstrasse,8050,47.4104775,8.5426205
37,Schulstrasse,8050,47.4099456,8.5436500
556,Hohlstrasse,8048,47.3909924,8.4899267
40,Glaubtenstrasse,8046,47.4126408,8.5150526
42,Glaubtenstrasse,8046,47.4125209,8.5151172
19,Fuchsiastrasse,8048,47.3832727,8.4967391
15,Fuchsiastrasse,8048,47.3830685,8.4972266
9,Fuchsiastrasse,8048,47.3826917,8.4979899
5,Fuchsiastrasse,8048,47.3824756,8.4984271
14,Dennlerstrasse,8048,47.3823145,8.4987631
16,Dennlerstrasse,8048,47.3821538,8.4985745
10,Dennlerstrasse,8048,47.3827351,8.4986801
9,Dennlerstrasse,8048,47.3821287,8.4990367
11,Dennlerstrasse,8048,47.3820148,8.4989487
11a,Dennlerstrasse,8048,47.3819264,8.4987880
29,Gladiolenweg,8048,47.3814182,8.4986046
27,Gladiolenweg,8048,47.3813351,8.4985286
25,Gladiolenweg,8048,47.3812339,8.4984423
23,Gladiolenweg,8048,47.3811508,8.4983492
24,Campanellaweg,8048,47.3812503,8.4995200
22,Campanellaweg,8048,47.3813329,8.4995943
42,Edelweissstrasse,8048,47.3811499,8.5001237
40,Edelweissstrasse,8048,47.3810952,8.5000637
36,Edelweissstrasse,8048,47.3809710,8.5002722
38,Edelweissstrasse,8048,47.3810501,8.5003290
41,Edelweissstrasse,8048,47.3808838,8.4998574
342,Badenerstrasse,8004,47.3780916,8.5111029
220,Limmattalstrasse,8049,47.4022574,8.4966603
186,Josefstrasse,8005,47.3859740,8.5251584
6,Ellen-Widmann-Weg,8050,47.4148932,8.5394998
9,Otto-Schütz-Weg,8050,47.4149033,8.5397482
1,Central,8001,47.3770836,8.5436340
8,Neumühlequai,8001,47.3778738,8.5430990
10,Neumühlequai,8001,47.3780858,8.5429785
12,Neumühlequai,8001,47.3784234,8.5429244
12,Neumühlequai,8001,47.3783529,8.5428534
6,Neumühlequai,8001,47.3774376,8.5433123
12,Walcheplatz,8001,47.3784795,8.5432022
41,Sihlquai,8005,47.3813900,8.5377965
55,Sihlquai,8005,47.3819756,8.5377279
57,Sihlquai,8005,47.3821056,8.5376616
71,Sihlquai,8005,47.3825475,8.5373692
75,Sihlquai,8005,47.3826290,8.5372633
2,Walcheplatz,8001,47.3787699,8.5431953
278,Sihlquai,8005,47.3890713,8.5279773
280,Sihlquai,8005,47.3891298,8.5279083
282,Sihlquai,8005,47.3891913,8.5277973
244,Sihlquai,8005,47.3880185,8.5293957
252,Sihlquai,8005,47.3881167,8.5292008
266,Sihlquai,8005,47.3885615,8.5286424
268,Sihlquai,8005,47.3886815,8.5284976
151,Sihlquai,8005,47.3855849,8.5325413
12,Geroldstrasse,8005,47.3860234,8.5197724
81,Viaduktstrasse,8005,47.3856292,8.5213740
83,Viaduktstrasse,8005,47.3855574,8.5212997
77,Viaduktstrasse,8005,47.3857759,8.5215236
257,Limmatstrasse,8005,47.3881773,8.5261688
67,Viaduktstrasse,8005,47.3862632,8.5222290
55,Viaduktstrasse,8005,47.3865626,8.5229170
57,Viaduktstrasse,8005,47.3865176,8.5227987
59,Viaduktstrasse,8005,47.3864680,8.5226749
51,Viaduktstrasse,8005,47.3867799,8.5235532
47,Viaduktstrasse,8005,47.3868577,8.5238007
49,Viaduktstrasse,8005,47.3868198,8.5236814
23,Viaduktstrasse,8005,47.3873269,8.5251710
25,Viaduktstrasse,8005,47.3872866,8.5250770
29,Viaduktstrasse,8005,47.3872064,8.5248496
31,Viaduktstrasse,8005,47.3871660,8.5247262
27,Viaduktstrasse,8005,47.3872453,8.5249617
33,Viaduktstrasse,8005,47.3871303,8.5246109
37,Viaduktstrasse,8005,47.3870494,8.5243741
41,Viaduktstrasse,8005,47.3869731,8.5241385
45,Viaduktstrasse,8005,47.3868958,8.5239135
43,Viaduktstrasse,8005,47.3869342,8.5240331
6,Rebbergsteig,8037,47.3974179,8.5147626
18,Rebbergstrasse,8037,47.3984035,8.5167284
2,Brown-Boveri-Strasse,8050,47.4136523,8.5365541
18b,Margrit-Rainer-Strasse,8050,47.4161591,8.5376377
20a,Margrit-Rainer-Strasse,8050,47.4161112,8.5372773
18,Margrit-Rainer-Strasse,8050,47.4160164,8.5376211
20d,Margrit-Rainer-Strasse,8050,47.4163274,8.5372987
8,Brown-Boveri-Strasse,8050,47.4154591,8.5368168
16b,Margrit-Rainer-Strasse,8050,47.4161612,8.5380153
13,Margrit-Rainer-Strasse,8050,47.4157248,8.5377775
22b,Margrit-Rainer-Strasse,8050,47.4162040,8.5369127
22,Margrit-Rainer-Strasse,8050,47.4160531,8.5369029
18a,Margrit-Rainer-Strasse,8050,47.4160945,8.5376302
16d,Margrit-Rainer-Strasse,8050,47.4162928,8.5380329
16,Margrit-Rainer-Strasse,8050,47.4160056,8.5379946
18c,Margrit-Rainer-Strasse,8050,47.4162299,8.5376459
20b,Margrit-Rainer-Strasse,8050,47.4161737,8.5372835
16c,Margrit-Rainer-Strasse,8050,47.4162319,8.5380248
15,Margrit-Rainer-Strasse,8050,47.4157442,8.5374232
22c,Margrit-Rainer-Strasse,8050,47.4162798,8.5369176
20,Margrit-Rainer-Strasse,8050,47.4160380,8.5372700
20c,Margrit-Rainer-Strasse,8050,47.4162537,8.5372914
10,Brown-Boveri-Strasse,8050,47.4156276,8.5368455
16a,Margrit-Rainer-Strasse,8050,47.4160835,8.5380050
18d,Margrit-Rainer-Strasse,8050,47.4163187,8.5376562
22d,Margrit-Rainer-Strasse,8050,47.4163490,8.5369221
12,Brown-Boveri-Strasse,8050,47.4157680,8.5368646
22a,Margrit-Rainer-Strasse,8050,47.4161326,8.5369081
17,Margrit-Rainer-Strasse,8050,47.4157572,8.5371168
100,Neunbrunnenstrasse,8050,47.4171746,8.5355235
72,Neunbrunnenstrasse,8050,47.4170922,8.5365578
96,Neunbrunnenstrasse,8050,47.4168303,8.5355540
70,Neunbrunnenstrasse,8050,47.4169344,8.5365988
92,Neunbrunnenstrasse,8050,47.4168497,8.5357191
80,Neunbrunnenstrasse,8050,47.4169077,8.5362143
86,Neunbrunnenstrasse,8050,47.4168787,8.5359667
74,Neunbrunnenstrasse,8050,47.4172545,8.5365156
98,Neunbrunnenstrasse,8050,47.4170476,8.5355728
82,Neunbrunnenstrasse,8050,47.4168981,8.5361318
78,Neunbrunnenstrasse,8050,47.4169174,8.5362969
90,Neunbrunnenstrasse,8050,47.4168594,8.5358016
102,Neunbrunnenstrasse,8050,47.4173483,8.5354983
84,Neunbrunnenstrasse,8050,47.4168884,8.5360492
94,Neunbrunnenstrasse,8050,47.4168400,8.5356365
88,Neunbrunnenstrasse,8050,47.4168690,8.5358842
184,Birchstrasse,8050,47.4154809,8.5382127
11c,Margrit-Rainer-Strasse,8050,47.4157628,8.5382956
14,Margrit-Rainer-Strasse,8050,47.4161574,8.5383868
11b,Margrit-Rainer-Strasse,8050,47.4157472,8.5387837
12,Margrit-Rainer-Strasse,8050,47.4161309,8.5388411
10,Margrit-Rainer-Strasse,8050,47.4161210,8.5392938
11a,Margrit-Rainer-Strasse,8050,47.4157335,8.5391967
167,Neunbrunnenstrasse,8050,47.4156154,8.5312383
161,Neunbrunnenstrasse,8050,47.4155115,8.5320899
155,Neunbrunnenstrasse,8050,47.4157825,8.5319565
171,Neunbrunnenstrasse,8050,47.4152512,8.5318042
165,Neunbrunnenstrasse,8050,47.4155798,8.5315303
159,Neunbrunnenstrasse,8050,47.4158604,8.5313190
173,Neunbrunnenstrasse,8050,47.4152934,8.5314587
153,Neunbrunnenstrasse,8050,47.4157564,8.5321706
163,Neunbrunnenstrasse,8050,47.4155376,8.5318758
157,Neunbrunnenstrasse,8050,47.4158247,8.5316110
169,Neunbrunnenstrasse,8050,47.4152251,8.5320183
175,Neunbrunnenstrasse,8050,47.4153291,8.5311667
12,Robert-Maillart-Strasse,8050,47.4148195,8.5329835
183a,Birchstrasse,8050,47.4141902,8.5377273
3,Lamprechtweg,8050,47.4136115,8.5368408
14,Robert-Maillart-Strasse,8050,47.4151264,8.5330166
18,Robert-Maillart-Strasse,8050,47.4158411,8.5331698
2,Lamprechtweg,8050,47.4138278,8.5373705
4,Lamprechtweg,8050,47.4138536,8.5369025
16,Robert-Maillart-Strasse,8050,47.4154907,8.5331240
67,Bahnhofstrasse,8001,47.3737537,8.5380122
71,Bahnhofstrasse,8001,47.3742811,8.5383036
69a,Bahnhofstrasse,8001,47.3741798,8.5382528
69,Bahnhofstrasse,8001,47.3740287,8.5381375
66,Bahnhofstrasse,8001,47.3737848,8.5385683
73,Bahnhofstrasse,8001,47.3745178,8.5384221
6,Seidengasse,8001,47.3744749,8.5380400
15,Uraniastrasse,8001,47.3745818,8.5380909
80,Bahnhofstrasse,8001,47.3750024,8.5391090
78,Bahnhofstrasse,8001,47.3749047,8.5390586
76,Bahnhofstrasse,8001,47.3748167,8.5390132
79,Bahnhofstrasse,8001,47.3751570,8.5387967
1,Uraniastrasse,8001,47.3743314,8.5417037
1,Uraniastrasse,8001,47.3742949,8.5416954
4,Uraniastrasse,8001,47.3745967,8.5393819
7,Uraniastrasse,8001,47.3743397,8.5400970
7,Uraniastrasse,8001,47.3742694,8.5400447
4,Werdmühleplatz,8001,47.3747955,8.5400627
4,Werdmühleplatz,8001,47.3746905,8.5401388
2,Uraniastrasse,8001,47.3746616,8.5401740
10,Werdmühlestrasse,8001,47.3750223,8.5403296
4,Werdmühleplatz,8001,47.3748607,8.5401514
82,Bahnhofstrasse,8001,47.3752289,8.5391866
88,Bahnhofstrasse,8001,47.3755553,8.5394000
84,Bahnhofstrasse,8001,47.3753884,8.5392693
92,Bahnhofstrasse,8001,47.3758108,8.5395401
3,Werdmühleplatz,8001,47.3751667,8.5399862
81,Bahnhofstrasse,8001,47.3758718,8.5391041
87,Bahnhofstrasse,8001,47.3762819,8.5393325
87,Bahnhofstrasse,8001,47.3761685,8.5392732
83,Bahnhofstrasse,8001,47.3760714,8.5392229
81,Bahnhofstrasse,8001,47.3759089,8.5391820
87,Bahnhofstrasse,8001,47.3763443,8.5393559
102,Bahnhofstrasse,8001,47.3762665,8.5397921
12,Schützengasse,8001,47.3763866,8.5400710
93,Bahnhofstrasse,8001,47.3768277,8.5395824
93,Bahnhofstrasse,8001,47.3767665,8.5395515
93,Bahnhofstrasse,8001,47.3768187,8.5396511
93,Bahnhofstrasse,8001,47.3767137,8.5395222
91,Bahnhofstrasse,8001,47.3766543,8.5394903
91,Bahnhofstrasse,8001,47.3766828,8.5395812
89,Bahnhofstrasse,8001,47.3765411,8.5394487
93,Bahnhofstrasse,8001,47.3768894,8.5396171
104,Bahnhofstrasse,8001,47.3764479,8.5398479
106,Bahnhofstrasse,8001,47.3765608,8.5398953
6,Bahnhofplatz,8001,47.3767615,8.5401477
108,Bahnhofstrasse,8001,47.3766900,8.5399521
4,Bahnhofplatz,8001,47.3766587,8.5404551
5,Badergasse,8001,47.3738831,8.5433371
9,Badergasse,8001,47.3738507,8.5435420
94,Limmatquai,8001,47.3741946,8.5434679
14,Mühlegasse,8001,47.3741508,8.5441356
2,Ruedi-Walter-Strasse,8050,47.4144008,8.5417858
2a,Ruedi-Walter-Strasse,8050,47.4147477,8.5418364
70,Binzmühlestrasse,8050,47.4141346,8.5432732
62,Binzmühlestrasse,8050,47.4140885,8.5437329
60,Binzmühlestrasse,8050,47.4140613,8.5439266
76,Binzmühlestrasse,8050,47.4143617,8.5424645
76a,Binzmühlestrasse,8050,47.4146744,8.5425115
78,Binzmühlestrasse,8050,47.4150116,8.5425548
78a,Binzmühlestrasse,8050,47.4153951,8.5426125
4,Ruedi-Walter-Strasse,8050,47.4150848,8.5418869
4a,Ruedi-Walter-Strasse,8050,47.4154488,8.5419266
68,Binzmühlestrasse,8050,47.4143398,8.5433021
66,Binzmühlestrasse,8050,47.4143231,8.5436592
64,Binzmühlestrasse,8050,47.4142268,8.5436316
21,Orellistrasse,8044,47.3824554,8.5671437
531,Winterthurerstrasse,8051,47.4044862,8.5732978
539,Winterthurerstrasse,8051,47.4044975,8.5739059
549,Winterthurerstrasse,8051,47.4046050,8.5744967
512,Winterthurerstrasse,8051,47.4036184,8.5718235
81,Binzmühlestrasse,8050,47.4137302,8.5421577
27,Jungholzstrasse,8050,47.4141107,8.5440711
12,Jungstrasse,8050,47.4148302,8.5437911
14,Jungstrasse,8050,47.4148465,8.5435572
19,Jungstrasse,8050,47.4146238,8.5433728
17,Jungstrasse,8050,47.4146096,8.5436057
15a,Jungstrasse,8050,47.4145946,8.5439162
15,Jungstrasse,8050,47.4145853,8.5440670
28,Jungholzstrasse,8050,47.4143166,8.5444322
29,Jungholzstrasse,8050,47.4142699,8.5440681
33,Jungholzstrasse,8050,47.4148236,8.5441101
8,Jungstrasse,8050,47.4148258,8.5445341
9,Jungstrasse,8050,47.4146168,8.5445637
35,Jungholzstrasse,8050,47.4150949,8.5440937
34,Jungholzstrasse,8050,47.4150593,8.5444256
8,Gujerstrasse,8050,47.4155152,8.5444519
7,Gujerstrasse,8050,47.4152973,8.5444947
46,Jungholzstrasse,8050,47.4157154,8.5443862
5,Jungstrasse,8050,47.4147658,8.5450961
7,Jungstrasse,8050,47.4146924,8.5448365
3,Jungstrasse,8050,47.4148169,8.5453163
3,Gujerstrasse,8050,47.4153662,8.5446656
182,Nordstrasse,8037,47.3923975,8.5314371
199,Nordstrasse,8037,47.3925569,8.5308196
185,Birchstrasse,8050,47.4154334,8.5376306
187,Birchstrasse,8050,47.4154561,8.5370955
189,Birchstrasse,8050,47.4154790,8.5378700
14a,Margrit-Rainer-Strasse,8050,47.4159866,8.5383770
14b,Margrit-Rainer-Strasse,8050,47.4159745,8.5385187
12a,Margrit-Rainer-Strasse,8050,47.4159601,8.5388215
12c,Margrit-Rainer-Strasse,8050,47.4159392,8.5391195
12b,Margrit-Rainer-Strasse,8050,47.4159513,8.5389762
14c,Margrit-Rainer-Strasse,8050,47.4159634,8.5386717
10a,Margrit-Rainer-Strasse,8050,47.4159645,8.5392742
80,Binzmühlestrasse,8050,47.4142881,8.5418429
7,Eggbühlstrasse,8050,47.4161910,8.5444202
9,Eggbühlstrasse,8050,47.4161835,8.5443281
410,Schaffhauserstrasse,8050,47.4148230,8.5457621
48,Wallisellenstrasse,8050,47.4105397,8.5530471
5,Stefano-Franscini-Platz,8049,47.4086747,8.5075425
7,Stampfenbachstrasse,8001,47.3776379,8.5435927
48,Stapferstrasse,8006,47.3847595,8.5459714
20,Gablerstrasse,8002,47.3594111,8.5294544
127,Limmatstrasse,8005,47.3874963,8.5272804
12,Fabrikstrasse,8005,47.3871627,8.5284890
183,Limmatstrasse,8005,47.3861884,8.5292674
189,Limmatstrasse,8005,47.3863054,8.5289489
68,Thurgauerstrasse,8050,47.4173938,8.5542213
70,Thurgauerstrasse,8050,47.4178471,8.5544546
72,Thurgauerstrasse,8050,47.4180338,8.5548012
74,Thurgauerstrasse,8050,47.4176646,8.5550878
123,Limmatstrasse,8005,47.3840712,8.5321284
34,Limmatstrasse,8005,47.3813370,8.5363702
5,Limmatplatz,8005,47.3845051,8.5311548
56,Ackerstrasse,8005,47.3832551,8.5332337
40,Limmatstrasse,8005,47.3814444,8.5362356
118,Limmatstrasse,8031,47.3840732,8.5326388
10,Baumgasse,8005,47.3821574,8.5357577
50,Limmatstrasse,8005,47.3818677,8.5355975
27,Limmatstrasse,8005,47.3810194,8.5362530
28,Limmatstrasse,8005,47.3812470,8.5365560
118,Limmatstrasse,8005,47.3840273,8.5327479
253,Sihlquai,8005,47.3875431,8.5289799
21,Bleicherweg,8002,47.3677153,8.5353823
21,Bleicherweg,8002,47.3675607,8.5355374
21,Bleicherweg,8002,47.3675952,8.5355052
61,Limmatquai,8001,47.3718827,8.5426140
11,Imfeldstrasse,8037,47.3884875,8.5348056
28,Wengistrasse,8004,47.3756179,8.5222394
98,Feldstrasse,8004,47.3787172,8.5233543
41,Bahnhofstrasse,8001,47.3714586,8.5378013
4,Kirchgasse,8001,47.3693222,8.5440348
3,Paradiesstrasse,8038,47.3347288,8.5295890
3,Sihlstrasse,8001,47.3737329,8.5376830
530,Wehntalerstrasse,8046,47.4187288,8.5080711
2,Zehntenhausstrasse,8046,47.4193712,8.5067513
22,Kreuzplatz,8008,47.3648163,8.5536721
58,Hirschengraben,8001,47.3750816,8.5462749
4,Sophie-Taeuber-Strasse,8050,47.4136892,8.5410753
4,Sophie-Taeuber-Strasse,8050,47.4134214,8.5405759
459,Schaffhauserstrasse,8052,47.4184706,8.5468061
227,Seebahnstrasse,8004,47.3782458,8.5189171
225,Seebahnstrasse,8004,47.3781285,8.5188148
201,Seebahnstrasse,8004,47.3775529,8.5184221
197,Seebahnstrasse,8004,47.3772598,8.5183079
231,Seebahnstrasse,8004,47.3785317,8.5191953
193,Seebahnstrasse,8004,47.3770424,8.5182240
195,Seebahnstrasse,8004,47.3771757,8.5182785
221,Seebahnstrasse,8004,47.3778571,8.5186143
229,Seebahnstrasse,8004,47.3783786,8.5190437
199,Seebahnstrasse,8004,47.3773985,8.5183495
223,Seebahnstrasse,8004,47.3779748,8.5186952
6,Karl-Bürkli-Strasse,8004,47.3770037,8.5176139
153,Kanzleistrasse,8004,47.3774147,8.5177742
151,Kanzleistrasse,8004,47.3773455,8.5179661
10,Karl-Bürkli-Strasse,8004,47.3770972,8.5172417
155,Kanzleistrasse,8004,47.3774765,8.5176027
4,Karl-Bürkli-Strasse,8004,47.3769556,8.5178051
8,Karl-Bürkli-Strasse,8004,47.3770515,8.5174236
91,Weinbergstrasse,8006,47.3844754,8.5428124
118,Weinbergstrasse,8006,47.3865473,8.5417994
93,Weinbergstrasse,8006,47.3845879,8.5427582
2,Riedtlistrasse,8006,47.3901801,8.5400652
10,Badweg,8001,47.3715541,8.5329039
40,Anemonenstrasse,8047,47.3809800,8.4955561
1,Nietengasse,8004,47.3791312,8.5250934
74,Brauerstrasse,8004,47.3790069,8.5249463
13,Langstrasse,8004,47.3750304,8.5245340
35,Langstrasse,8004,47.3758647,8.5251128
51,Pflanzschulstrasse,8004,47.3766909,8.5202749
67,Anwandstrasse,8004,47.3772751,8.5211454
130,Kanzleistrasse,8004,47.3772534,8.5199096
35,Pflanzschulstrasse,8004,47.3768521,8.5192053
60,Anwandstrasse,8004,47.3772223,8.5217190
61,Schreinerstrasse,8004,47.3769872,8.5228924
34,Anwandstrasse,8004,47.3767252,8.5230924
31,Anwandstrasse,8004,47.3764487,8.5234362
25,Pflanzschulstrasse,8004,47.3762617,8.5198583
82,Anwandstrasse,8004,47.3778943,8.5199632
46,Feldstrasse,8004,47.3763382,8.5215333
75,Anwandstrasse,8004,47.3775870,8.5203409
91,Kanzleistrasse,8004,47.3759320,8.5230736
45,Anwandstrasse,8004,47.3767382,8.5226332
77,Anwandstrasse,8004,47.3776476,8.5201883
127,Kanzleistrasse,8004,47.3770015,8.5201004
47,Anwandstrasse,8004,47.3767983,8.5224662
105,Kanzleistrasse,8004,47.3762688,8.5221333
37,Pflanzschulstrasse,8004,47.3767859,8.5193747
121,Kanzleistrasse,8004,47.3767368,8.5207415
70,Anwandstrasse,8004,47.3775236,8.5208893
28,Anwandstrasse,8004,47.3765797,8.5234959
135,Kanzleistrasse,8004,47.3772012,8.5195561
41,Pflanzschulstrasse,8004,47.3766583,8.5197016
66,Anwandstrasse,8004,47.3773762,8.5212770
64,Schreinerstrasse,8004,47.3770596,8.5231713
32,Anwandstrasse,8004,47.3766728,8.5232387
19,Pflanzschulstrasse,8004,47.3760639,8.5195540
36,Pflanzschulstrasse,8004,47.3765955,8.5205738
108,Kanzleistrasse,8004,47.3765223,8.5218492
124,Kanzleistrasse,8004,47.3770250,8.5205012
21,Pflanzschulstrasse,8004,47.3761687,8.5193650
78,Anwandstrasse,8004,47.3778331,8.5201175
33,Pflanzschulstrasse,8004,47.3766190,8.5191584
44,Anwandstrasse,8004,47.3768919,8.5226287
102,Kanzleistrasse,8004,47.3763392,8.5223615
109,Kanzleistrasse,8004,47.3763784,8.5218246
48,Anwandstrasse,8004,47.3769849,8.5223713
92,Kanzleistrasse,8004,47.3760458,8.5231812
81,Anwandstrasse,8004,47.3777794,8.5198561
96,Kanzleistrasse,8004,47.3761772,8.5228139
76,Anwandstrasse,8004,47.3777671,8.5202837
24,Feldstrasse,8004,47.3755141,8.5209803
104,Kanzleistrasse,8004,47.3764166,8.5221450
132,Kanzleistrasse,8004,47.3773217,8.5197327
65,Anwandstrasse,8004,47.3772371,8.5212504
51,Anwandstrasse,8004,47.3769487,8.5220481
62,Schreinerstrasse,8004,47.3769275,8.5230857
33,Anwandstrasse,8004,47.3764953,8.5233071
17,Pflanzschulstrasse,8004,47.3759762,8.5196804
72,Anwandstrasse,8004,47.3776084,8.5206757
2,Anwandstrasse,8004,47.3760428,8.5250580
111,Kanzleistrasse,8004,47.3764087,8.5217413
93,Kanzleistrasse,8004,47.3759789,8.5229421
53,Pflanzschulstrasse,8004,47.3768007,8.5204993
26,Kanzleistrasse,8004,47.3771472,8.5202111
43,Pflanzschulstrasse,8004,47.3765640,8.5198207
134,Kanzleistrasse,8004,47.3773526,8.5196527
45,Feldstrasse,8004,47.3763773,8.5213408
15,Pflanzschulstrasse,8004,47.3757189,8.5196353
48,Herman-Greulich-Strasse,8004,47.3776346,8.5197552
27,Pflanzschulstrasse,8004,47.3763709,8.5197051
59,Anwandstrasse,8004,47.3771632,8.5214551
103,Kanzleistrasse,8004,47.3762270,8.5222487
106,Kanzleistrasse,8004,47.3764742,8.5219838
57,Anwandstrasse,8004,47.3770802,8.5216848
86,Kanzleistrasse,8004,47.3758201,8.5239157
50,Anwandstrasse,8004,47.3770314,8.5222420
31,Pflanzschulstrasse,8004,47.3765439,8.5193505
30,Anwandstrasse,8004,47.3766267,8.5233646
73,Anwandstrasse,8004,47.3775066,8.5205435
90,Kanzleistrasse,8004,47.3759414,8.5234889
136,Kanzleistrasse,8004,47.3773879,8.5195614
133,Kanzleistrasse,8004,47.3771164,8.5197732
41,Feldstrasse,8004,47.3763003,8.5212833
39,Pflanzschulstrasse,8004,47.3767250,8.5195310
46,Anwandstrasse,8004,47.3769469,8.5224784
60,Schreinerstrasse,8004,47.3767987,8.5230001
95,Kanzleistrasse,8004,47.3760353,8.5227844
35,Anwandstrasse,8004,47.3765591,8.5231304
125,Kanzleistrasse,8004,47.3769032,8.5203458
45,Pflanzschulstrasse,8004,47.3765190,8.5198823
137,Kanzleistrasse,8004,47.3772847,8.5193410
49,Pflanzschulstrasse,8004,47.3765791,8.5203410
9,Pflanzschulstrasse,8004,47.3755575,8.5195555
94,Kanzleistrasse,8004,47.3761158,8.5229855
79,Anwandstrasse,8004,47.3777196,8.5200067
43,Schreinerstrasse,8004,47.3760785,8.5223060
74,Anwandstrasse,8004,47.3777053,8.5204394
42,Feldstrasse,8004,47.3761665,8.5214062
59,Schreinerstrasse,8004,47.3769166,8.5228476
64,Anwandstrasse,8004,47.3773031,8.5214861
42,Schreinerstrasse,8004,47.3759512,8.5224547
107,Kanzleistrasse,8004,47.3763353,8.5219460
40,Feldstrasse,8004,47.3759654,8.5212578
49,Anwandstrasse,8004,47.3768674,8.5222742
23,Pflanzschulstrasse,8004,47.3762502,8.5191553
30,Wengistrasse,8004,47.3756896,8.5220541
42,Friesstrasse,8050,47.4162906,8.5462204
41,Friesstrasse,8050,47.4161617,8.5459761
40,Friesstrasse,8050,47.4161710,8.5462756
43,Friesstrasse,8050,47.4164773,8.5458066
44,Friesstrasse,8050,47.4165588,8.5461935
46,Friesstrasse,8050,47.4166415,8.5461506
48,Friesstrasse,8050,47.4167366,8.5461067
29,Friesstrasse,8050,47.4153343,8.5463814
50,Friesstrasse,8050,47.4168464,8.5460618
433,Schaffhauserstrasse,8050,47.4163931,8.5449222
27,Friesstrasse,8050,47.4153264,8.5462499
5,Grünhaldenstrasse,8050,47.4164221,8.5454715
8,Friesstrasse,8050,47.4140516,8.5469861
7,Grünhaldenstrasse,8050,47.4164238,8.5455491
6,Grünhaldenstrasse,8050,47.4162278,8.5458828
9,Grünhaldenstrasse,8050,47.4164240,8.5456332
458,Schaffhauserstrasse,8052,47.4182488,8.5470103
454,Schaffhauserstrasse,8052,47.4179283,8.5466654
34,Friesstrasse,8050,47.4157727,8.5465144
448,Schaffhauserstrasse,8050,47.4174780,8.5462430
456,Schaffhauserstrasse,8052,47.4180889,8.5468314
15,Witikonerstrasse,8032,47.3639891,8.5670756
424,Schaffhauserstrasse,8050,47.4155790,8.5455356
418,Schaffhauserstrasse,8050,47.4151368,8.5457415
410,Schaffhauserstrasse,8050,47.4147495,8.5457388
6,Wattstrasse,8050,47.4132156,8.5455670
409,Schaffhauserstrasse,8050,47.4146035,8.5453714
431,Schaffhauserstrasse,8050,47.4161299,8.5448645
405,Schaffhauserstrasse,8050,47.4143461,8.5453393
403,Schaffhauserstrasse,8050,47.4142325,8.5452895
427,Schaffhauserstrasse,8050,47.4159619,8.5448810
411,Schaffhauserstrasse,8050,47.4147115,8.5453852
60,Zeughausstrasse,8004,47.3764891,8.5295321
26,Röschibachstrasse,8037,47.3931002,8.5249800
18,Giessereistrasse,8005,47.3907031,8.5183213
63,Engelstrasse,8004,47.3769030,8.5238555
115,Kanzleistrasse,8004,47.3765501,8.5213465
61,Pflanzschulstrasse,8004,47.3771989,8.5207666
6,Engelstrasse,8004,47.3749295,8.5222803
59,Engelstrasse,8004,47.3766718,8.5236937
119,Kanzleistrasse,8004,47.3766599,8.5210398
54,Feldstrasse,8004,47.3767620,8.5218463
119,Stauffacherstrasse,8004,47.3768522,8.5241598
49,Engelstrasse,8004,47.3762815,8.5234195
57,Pflanzschulstrasse,8004,47.3770210,8.5206434
56,Pflanzschulstrasse,8004,47.3770581,8.5209025
63,Pflanzschulstrasse,8004,47.3772724,8.5208175
63,Engelstrasse,8004,47.3769007,8.5237880
61,Engelstrasse,8004,47.3767666,8.5237602
34,Pflanzschulstrasse,8004,47.3764710,8.5204848
117,Kanzleistrasse,8004,47.3766003,8.5212063
172,Badenerstrasse,8004,47.3750196,8.5202352
64,Engelstrasse,8004,47.3767906,8.5239973
7,Pflanzschulstrasse,8004,47.3753608,8.5194538
59,Pflanzschulstrasse,8004,47.3771091,8.5207045
112,Kanzleistrasse,8004,47.3766886,8.5213842
91,Kanzleistrasse,8004,47.3759083,8.5230483
121,Kanzleistrasse,8004,47.3767265,8.5208535
58,Pflanzschulstrasse,8004,47.3771417,8.5209624
2,Pflanzschulstrasse,8004,47.3753448,8.5196542
52,Engelstrasse,8004,47.3760908,8.5235056
55,Feldstrasse,8004,47.3769190,8.5217395
120,Kanzleistrasse,8004,47.3768394,8.5209637
43,Engelstrasse,8004,47.3757316,8.5230329
51,Schreinerstrasse,8004,47.3765329,8.5225999
155,Stauffacherstrasse,8004,47.3776680,8.5217986
171,Stauffacherstrasse,8004,47.3780020,8.5208868
73,Pflanzschulstrasse,8004,47.3777865,8.5211888
91,Pflanzschulstrasse,8004,47.3785341,8.5217234
180,Stauffacherstrasse,8004,47.3783100,8.5206776
62,Feldstrasse,8004,47.3772362,8.5221957
59,Feldstrasse,8004,47.3771768,8.5218922
122,Hohlstrasse,8004,47.3796152,8.5218326
66,Herman-Greulich-Strasse,8004,47.3789281,8.5208430
5,Wydenstrasse,8004,47.3788641,8.5215307
52,Schreinerstrasse,8004,47.3764025,8.5227465
153,Stauffacherstrasse,8004,47.3776197,8.5219390
117,Hohlstrasse,8004,47.3792853,8.5218641
145,Stauffacherstrasse,8004,47.3773309,8.5227762
79,Pflanzschulstrasse,8004,47.3782033,8.5214888
175,Stauffacherstrasse,8004,47.3781278,8.5205493
61,Feldstrasse,8004,47.3773407,8.5220380
179,Stauffacherstrasse,8004,47.3781859,8.5201769
149,Stauffacherstrasse,8004,47.3774620,8.5224018
6,Wydenstrasse,8004,47.3790354,8.5215139
116,Hohlstrasse,8004,47.3794209,8.5221662
9,Wydenstrasse,8004,47.3790215,8.5211701
157,Stauffacherstrasse,8004,47.3777186,8.5216515
12,Gutstrasse,8003,47.3706869,8.5091818
74,Herman-Greulich-Strasse,8004,47.3793662,8.5215160
163,Stauffacherstrasse,8004,47.3779106,8.5211333
80,Pflanzschulstrasse,8004,47.3776789,8.5213356
93,Pflanzschulstrasse,8004,47.3786205,8.5217828
178,Stauffacherstrasse,8004,47.3782446,8.5208496
60,Herman-Greulich-Strasse,8004,47.3787854,8.5206946
145a,Stauffacherstrasse,8004,47.3771795,8.5225644
3,Wydenstrasse,8004,47.3787854,8.5217211
54,Schreinerstrasse,8004,47.3765465,8.5228394
151,Stauffacherstrasse,8004,47.3775676,8.5220905
115,Hohlstrasse,8004,47.3791913,8.5220255
77,Pflanzschulstrasse,8004,47.3781090,8.5214243
71,Pflanzschulstrasse,8004,47.3776263,8.5210756
87,Pflanzschulstrasse,8004,47.3783903,8.5216193
4,Wydenstrasse,8004,47.3789421,8.5217368
60,Feldstrasse,8004,47.3771389,8.5221238
118,Hohlstrasse,8004,47.3795335,8.5219722
7,Wydenstrasse,8004,47.3789311,8.5213723
50,Schreinerstrasse,8004,47.3762949,8.5226770
159,Stauffacherstrasse,8004,47.3777686,8.5215059
119,Hohlstrasse,8004,47.3793924,8.5216803
78,Pflanzschulstrasse,8004,47.3775257,8.5212227
81,Pflanzschulstrasse,8004,47.3783127,8.5215606
59,Feldstrasse,8004,47.3772218,8.5219489
147,Stauffacherstrasse,8004,47.3773761,8.5226455
56,Herman-Greulich-Strasse,8004,47.3786118,8.5205159
99,Pflanzschulstrasse,8004,47.3788689,8.5219715
114,Hohlstrasse,8004,47.3793068,8.5223626
119,Brauerstrasse,8004,47.3799814,8.5222871
121,Brauerstrasse,8004,47.3799035,8.5220569
117,Brauerstrasse,8004,47.3800298,8.5224663
8,Langstrasse,8004,47.3746627,8.5245673
110,Badenerstrasse,8004,47.3743452,8.5246863
120,Badenerstrasse,8004,47.3743947,8.5237362
111,Brauerstrasse,8004,47.3799407,8.5228109
20,Langstrasse,8004,47.3751917,8.5249443
9,Gamperstrasse,8004,47.3806235,8.5242671
2,Wengistrasse,8004,47.3747193,8.5241551
110,Hohlstrasse,8004,47.3795245,8.5224370
102,Brauerstrasse,8004,47.3797657,8.5235248
63,Kanzleistrasse,8004,47.3752288,8.5251953
105,Brauerstrasse,8004,47.3797616,8.5231484
157,Badenerstrasse,8004,47.3743245,8.5217240
97,Brauerstrasse,8004,47.3795157,8.5236393
12,Langstrasse,8004,47.3748790,8.5247230
1,Wengistrasse,8004,47.3746283,8.5239898
12,Langstrasse,8004,47.3748922,8.5247666
121,Feldstrasse,8004,47.3798900,8.5241687
4,Langstrasse,8004,47.3744840,8.5244807
6,Langstrasse,8004,47.3746040,8.5245253
108,Brauerstrasse,8004,47.3799193,8.5232364
108,Badenerstrasse,8004,47.3743412,8.5248280
112,Brauerstrasse,8004,47.3802323,8.5234680
119,Feldstrasse,8004,47.3796769,8.5240573
4,Langstrasse,8004,47.3744027,8.5244242
98,Brauerstrasse,8004,47.3796503,8.5236840
138,Badenerstrasse,8004,47.3744544,8.5229403
6,Langstrasse,8004,47.3745663,8.5245378
101,Brauerstrasse,8004,47.3796018,8.5234762
134,Badenerstrasse,8004,47.3745218,8.5231289
155,Badenerstrasse,8004,47.3742898,8.5218981
20,Langstrasse,8004,47.3752425,8.5250339
18,Langstrasse,8004,47.3750965,8.5248560
7,Gamperstrasse,8004,47.3805341,8.5244142
125,Badenerstrasse,8004,47.3742019,8.5234872
10,Langstrasse,8004,47.3747906,8.5246600
109,Brauerstrasse,8004,47.3798486,8.5229838
145,Feldstrasse,8004,47.3804769,8.5247481
8,Kernstrasse,8004,47.3750349,8.5237485
4,Langstrasse,8004,47.3745131,8.5244597
104,Brauerstrasse,8004,47.3798496,8.5233658
111,Feldstrasse,8004,47.3793104,8.5236728
115,Feldstrasse,8004,47.3795829,8.5239556
103,Brauerstrasse,8004,47.3796883,8.5232872
99,Brauerstrasse,8004,47.3795584,8.5235621
138,Badenerstrasse,8004,47.3744796,8.5227208
129,Feldstrasse,8004,47.3802364,8.5240961
153,Badenerstrasse,8004,47.3742671,8.5220841
14,Langstrasse,8004,47.3749601,8.5248393
15,Elisabethenstrasse,8004,47.3729128,8.5225740
2,Köchlistrasse,8004,47.3731429,8.5239003
38,Ankerstrasse,8004,47.3738757,8.5248622
29,Köchlistrasse,8004,47.3737033,8.5224159
28,Elisabethenstrasse,8004,47.3737299,8.5218676
3,Köchlistrasse,8004,47.3730044,8.5238421
35,Köchlistrasse,8004,47.3739236,8.5221929
24,Ankerstrasse,8004,47.3733411,8.5245843
25,Köchlistrasse,8004,47.3736115,8.5228777
27,Köchlistrasse,8004,47.3737240,8.5227011
31,Grüngasse,8004,47.3740658,8.5242029
31,Köchlistrasse,8004,47.3737725,8.5226250
23,Ankerstrasse,8004,47.3733506,8.5242958
3,Feldgütliweg,8004,47.3731886,8.5240700
25,Ankerstrasse,8004,47.3734165,8.5243421
27a,Köchlistrasse,8004,47.3736332,8.5225285
33,Köchlistrasse,8004,47.3738555,8.5222973
45,Stauffacherstrasse,8004,47.3743924,8.5276118
70,Müllerstrasse,8004,47.3762506,8.5288331
85,Badenerstrasse,8004,47.3738093,8.5260732
8,Wyssgasse,8004,47.3737102,8.5257490
87,Badenerstrasse,8004,47.3738341,8.5259558
7,Cramerstrasse,8004,47.3732733,8.5259497
85,Badenerstrasse,8004,47.3738096,8.5260280
3,Grüngasse,8004,47.3724170,8.5263281
89,Badenerstrasse,8004,47.3739027,8.5258212
12,Wyssgasse,8004,47.3738350,8.5256252
4,Grüngasse,8004,47.3726460,8.5262515
6,Wyssgasse,8004,47.3736008,8.5254536
87,Badenerstrasse,8004,47.3738695,8.5259189
3,Wyssgasse,8004,47.3735328,8.5252165
2,Wyssgasse,8004,47.3734579,8.5253476
5,Grüngasse,8004,47.3724796,8.5262274
10,Wyssgasse,8004,47.3737512,8.5255742
16,Cramerstrasse,8004,47.3734655,8.5262850
97,Badenerstrasse,8004,47.3739400,8.5255194
9,Wyssgasse,8004,47.3737590,8.5253840
2,Grüngasse,8004,47.3725188,8.5264595
6,Cramerstrasse,8004,47.3731038,8.5260527
1,Cramerstrasse,8004,47.3730789,8.5258611
89,Badenerstrasse,8004,47.3739162,8.5257137
7,Grüngasse,8004,47.3725655,8.5260875
45,Zweierstrasse,8004,47.3726186,8.5250634
8,Ankerstrasse,8004,47.3726748,8.5241337
16a,Ankerstrasse,8004,47.3729585,8.5245075
10,Grüngasse,8004,47.3732011,8.5255649
14,Ankerstrasse,8004,47.3729519,8.5242091
6,Ankerstrasse,8004,47.3726133,8.5239841
55,Zweierstrasse,8004,47.3724086,8.5242924
19,Grüngasse,8004,47.3733352,8.5249615
12,Grüngasse,8004,47.3733287,8.5253891
58,Zweierstrasse,8004,47.3725107,8.5240120
12,Ankerstrasse,8004,47.3728624,8.5241459
56,Zweierstrasse,8004,47.3725415,8.5241556
6,Grüngasse,8004,47.3731141,8.5256742
16,Ankerstrasse,8004,47.3730302,8.5242645
1,Kalkbreitestrasse,8003,47.3742665,8.5215202
3,Kalkbreitestrasse,8003,47.3741828,8.5213250
50c,Mühlezelgstrasse,8047,47.3774441,8.4939323
50b,Mühlezelgstrasse,8047,47.3774902,8.4938698
1,Bülachstrasse,8057,47.4009111,8.5481609
65,Hotzestrasse,8006,47.3920571,8.5391006
57,Schaffhauserstrasse,8057,47.3921165,8.5386272
241,Schaffhauserstrasse,8057,47.4033589,8.5472861
98,Stauffacherstrasse,8004,47.3766139,8.5255795
105,Stauffacherstrasse,8004,47.3765678,8.5250285
99,Stauffacherstrasse,8004,47.3762176,8.5252429
102,Stauffacherstrasse,8004,47.3766910,8.5253378
97,Stauffacherstrasse,8004,47.3763183,8.5253411
106,Stauffacherstrasse,8004,47.3767906,8.5250335
100,Stauffacherstrasse,8004,47.3766604,8.5254315
101,Stauffacherstrasse,8004,47.3765084,8.5252100
104,Stauffacherstrasse,8004,47.3767460,8.5251692
95,Stauffacherstrasse,8004,47.3763811,8.5254416
54,Kernstrasse,8004,47.3773686,8.5257850
51,Brauerstrasse,8004,47.3783239,8.5259233
130,Feldstrasse,8004,47.3798798,8.5245195
149,Langstrasse,8004,47.3804627,8.5278406
55,Brauerstrasse,8004,47.3783673,8.5258389
28,Rolandstrasse,8004,47.3796912,8.5256469
15,Magnusstrasse,8004,47.3799102,8.5247005
31,Stauffacherstrasse,8004,47.3734849,8.5287165
60,Kernstrasse,8004,47.3778900,8.5261031
47,Hohlstrasse,8004,47.3775058,8.5259210
7,Herbartstrasse,8004,47.3781158,8.5254984
64,Langstrasse,8004,47.3769641,8.5262115
52,Hohlstrasse,8004,47.3777542,8.5256172
8,Marmorgasse,8004,47.3772108,8.5258193
1,Herbartstrasse,8004,47.3783556,8.5257090
46,Hohlstrasse,8004,47.3775929,8.5260559
9,Marmorgasse,8004,47.3770649,8.5255558
52,Brauerstrasse,8004,47.3783413,8.5261507
60,Kernstrasse,8004,47.3780014,8.5261636
11,Herbartstrasse,8004,47.3779693,8.5253697
57,Kernstrasse,8004,47.3780343,8.5260006
5,Herbartstrasse,8004,47.3782006,8.5255728
48,Hohlstrasse,8004,47.3777478,8.5259695
43,Hohlstrasse,8004,47.3774042,8.5261115
50,Kernstrasse,8004,47.3771634,8.5252363
52,Kernstrasse,8004,47.3773718,8.5254619
62,Langstrasse,8004,47.3768190,8.5261079
48,Hohlstrasse,8004,47.3776617,8.5259041
69,Langstrasse,8004,47.3772198,8.5261165
44,Hohlstrasse,8004,47.3775089,8.5262157
54,Brauerstrasse,8004,47.3783860,8.5260645
49,Hohlstrasse,8004,47.3775692,8.5257718
9,Herbartstrasse,8004,47.3780428,8.5254343
65,Langstrasse,8004,47.3770426,8.5259963
16,Brauerstrasse,8004,47.3773258,8.5283976
3,Herbartstrasse,8004,47.3783013,8.5256613
48,Hohlstrasse,8004,47.3776451,8.5259640
63,Langstrasse,8004,47.3769443,8.5257794
67,Langstrasse,8004,47.3770974,8.5260337
83,Birmensdorferstrasse,8003,47.3707685,8.5240165
59,Zurlindenstrasse,8003,47.3695261,8.5203510
51,Zurlindenstrasse,8003,47.3691806,8.5208532
49,Zurlindenstrasse,8003,47.3690708,8.5210128
41,Stauffacherstrasse,8004,47.3741361,8.5281839
33a,Stauffacherstrasse,8004,47.3735082,8.5281931
20,Lutherstrasse,8004,47.3743043,8.5290213
20,Kanzleistrasse,8004,47.3741547,8.5274166
10,Lutherstrasse,8004,47.3740281,8.5295060
14,Lutherstrasse,8004,47.3742360,8.5292614
19,Kanzleistrasse,8004,47.3740880,8.5271297
33,Bäckerstrasse,8004,47.3746683,8.5288761
33b,Stauffacherstrasse,8004,47.3735751,8.5281605
4,Rotwandstrasse,8004,47.3740768,8.5266947
19,Bäckerstrasse,8004,47.3743564,8.5294720
38,Rotwandstrasse,8004,47.3750560,8.5281783
4,Lutherstrasse,8004,47.3737966,8.5296884
32,Lutherstrasse,8004,47.3747566,8.5286506
37,Stauffacherstrasse,8004,47.3737960,8.5283475
8,St. Jakobstrasse,8004,47.3737484,8.5282790
29,St. Jakobstrasse,8004,47.3744963,8.5289398
15,Kanzleistrasse,8004,47.3738403,8.5274506
42,Rotwandstrasse,8004,47.3752032,8.5283903
2,Lutherstrasse,8004,47.3737148,8.5297947
36,Lutherstrasse,8004,47.3748232,8.5283491
10,Lutherstrasse,8004,47.3741115,8.5294315
6,St. Jakobstrasse,8004,47.3737089,8.5282093
73,Badenerstrasse,8004,47.3732483,8.5266547
74,Badenerstrasse,8004,47.3736957,8.5269877
30,Lutherstrasse,8004,47.3746197,8.5287433
40,Rotwandstrasse,8004,47.3751068,8.5282427
6,St. Jakobstrasse,8004,47.3736685,8.5280227
6,Lutherstrasse,8004,47.3738940,8.5295586
20,Lutherstrasse,8004,47.3743152,8.5290412
31,St. Jakobstrasse,8004,47.3745502,8.5290168
17,Kanzleistrasse,8004,47.3739580,8.5272993
10,Rotwandstrasse,8004,47.3743612,8.5271313
35,Stauffacherstrasse,8004,47.3736510,8.5285031
279,Witikonerstrasse,8053,47.3587395,8.5853955
120,Universitätstrasse,8006,47.3857176,8.5487292
19,Neumarkt,8001,47.3729359,8.5463846
8,Leuengasse,8001,47.3720691,8.5445524
21,Leuengasse,8001,47.3722611,8.5451617
15,Leuengasse,8001,47.3722354,8.5448679
12,Elsässergasse,8001,47.3720773,8.5444509
27,Spiegelgasse,8001,47.3721696,8.5453180
25,Münstergasse,8001,47.3716886,8.5437814
7,Krebsgasse,8001,47.3716931,8.5434485
7,Rosengasse,8001,47.3732395,8.5435047
10,Krebsgasse,8001,47.3715665,8.5436440
19,Obere Zäune,8001,47.3716921,8.5446644
13,Spiegelgasse,8001,47.3718497,8.5446047
2,Spiegelgasse,8001,47.3716034,8.5441094
33,Spiegelgasse,8001,47.3723577,8.5456378
5,Untere Zäune,8001,47.3712516,8.5463260
28,Kirchgasse,8001,47.3702379,8.5452238
8,Untere Zäune,8001,47.3710120,8.5461141
24,Kirchgasse,8001,47.3701811,8.5451070
22,Kirchgasse,8001,47.3701159,8.5449008
33,Kirchgasse,8001,47.3706708,8.5462642
1,Napfgasse,8001,47.3714937,8.5441049
4,Schoffelgasse,8001,47.3710913,8.5436039
3,Obere Zäune,8001,47.3708414,8.5462292
19,Obere Zäune,8001,47.3716071,8.5448411
3,Napfgasse,8001,47.3715687,8.5442823
24,Obere Zäune,8001,47.3715708,8.5451179
1,Predigergasse,8001,47.3730053,8.5463537
4,Predigergasse,8001,47.3730630,8.5463591
11,Frankengasse,8001,47.3697877,8.5455254
15/17,Querstrasse,8050,47.4096018,8.5443935
14,Zwinglistrasse,8004,47.3782999,8.5291133
26,Bertastrasse,8003,47.3744151,8.5141933
32,Rämistrasse,8001,47.3700945,8.5491025
26,Fabrikstrasse,8005,47.3863041,8.5276055
66,Röntgenstrasse,8005,47.3856431,8.5269917
35,Rotwandstrasse,8004,47.3750443,8.5279233
118,Ankerstrasse,8004,47.3764148,8.5287416
52,Rotwandstrasse,8004,47.3755116,8.5288806
52,Bäckerstrasse,8004,47.3757317,8.5284679
53,Rotwandstrasse,8004,47.3756031,8.5287641
57,Müllerstrasse,8004,47.3756126,8.5291179
31,Müllerstrasse,8004,47.3746803,8.5302627
24,Bäckerstrasse,8004,47.3746162,8.5296647
74,Müllerstrasse,8004,47.3762231,8.5285426
51,Müllerstrasse,8004,47.3754498,8.5292142
31,Bäckerstrasse,8004,47.3746589,8.5290969
37,Rotwandstrasse,8004,47.3750934,8.5279971
31,Bäckerstrasse,8004,47.3746940,8.5290193
54,Bäckerstrasse,8004,47.3756017,8.5283335
66,Rotwandstrasse,8004,47.3758876,8.5294158
51,Rotwandstrasse,8004,47.3755238,8.5286444
67,Müllerstrasse,8004,47.3760128,8.5286132
56,Bäckerstrasse,8004,47.3757099,8.5281439
67,Rotwandstrasse,8004,47.3760226,8.5293947
49,Rotwandstrasse,8004,47.3754620,8.5285509
56,Müllerstrasse,8004,47.3755526,8.5293818
37,Bäckerstrasse,8004,47.3749106,8.5288311
50,Rotwandstrasse,8004,47.3753566,8.5288210
44,St. Jakobstrasse,8004,47.3748970,8.5297087
60,Bäckerstrasse,8004,47.3758618,8.5278769
37,Stauffacherstrasse,8004,47.3739127,8.5283678
28,Bäckerstrasse,8004,47.3747124,8.5296651
62,Rotwandstrasse,8004,47.3757778,8.5292531
39,Rotwandstrasse,8004,47.3751507,8.5280834
43,Bäckerstrasse,8004,47.3751266,8.5285460
68,Rotwandstrasse,8004,47.3759596,8.5295240
114,Ankerstrasse,8004,47.3762772,8.5280816
51,Bäckerstrasse,8004,47.3754115,8.5281077
65,Rotwandstrasse,8004,47.3759396,8.5292697
30,Bäckerstrasse,8004,47.3746709,8.5295877
39,Bäckerstrasse,8004,47.3749854,8.5287321
76,Müllerstrasse,8004,47.3762884,8.5284610
55,Müllerstrasse,8004,47.3754949,8.5291582
48,Rotwandstrasse,8004,47.3753307,8.5287741
37,Bäckerstrasse,8004,47.3748928,8.5287964
62,Bäckerstrasse,8004,47.3759312,8.5277540
33,Müllerstrasse,8004,47.3747719,8.5299753
43,Müllerstrasse,8004,47.3751261,8.5296628
64,Rotwandstrasse,8004,47.3758362,8.5293392
42,Rotwandstrasse,8004,47.3751694,8.5284160
48,Müllerstrasse,8004,47.3753606,8.5296202
41,Bäckerstrasse,8004,47.3750588,8.5286351
5,Glasmalergasse,8004,47.3744961,8.5300772
64,Müllerstrasse,8004,47.3761115,8.5287900
62,Bäckerstrasse,8004,47.3758989,8.5276621
51,Müllerstrasse,8004,47.3754267,8.5293032
57,Bäckerstrasse,8004,47.3755808,8.5278096
45,Müllerstrasse,8004,47.3753045,8.5295019
63,Rotwandstrasse,8004,47.3758548,8.5291418
49,Rotwandstrasse,8004,47.3754803,8.5284806
41,St. Jakobstrasse,8004,47.3749398,8.5295600
118a,Ankerstrasse,8004,47.3763382,8.5289361
112,Ankerstrasse,8004,47.3759875,8.5280602
63,Müllerstrasse,8004,47.3757482,8.5287815
35,Müllerstrasse,8004,47.3747999,8.5299402
46,Müllerstrasse,8004,47.3752826,8.5297180
35,Bäckerstrasse,8004,47.3748497,8.5289117
22,Bäckerstrasse,8004,47.3745465,8.5297579
72,Müllerstrasse,8004,47.3761735,8.5287479
58,Bäckerstrasse,8004,47.3757039,8.5279009
26,Bäckerstrasse,8004,47.3746990,8.5297965
10,Bäckerstrasse,8004,47.3741378,8.5301142
1,Bäckerstrasse,8004,47.3737171,8.5301798
7,Bäckerstrasse,8004,47.3739621,8.5300398
25,Müllerstrasse,8004,47.3745038,8.5304840
18,Badenerstrasse,8004,47.3738543,8.5304205
27,Bäckerstrasse,8004,47.3745374,8.5291889
34,Müllerstrasse,8004,47.3748429,8.5302667
54,St. Jakobstrasse,8004,47.3751536,8.5302962
20,Müllerstrasse,8004,47.3745794,8.5306584
6,Glasmalergasse,8004,47.3744093,8.5302661
23,Müllerstrasse,8004,47.3743453,8.5306087
15,Bäckerstrasse,8004,47.3742218,8.5296137
5,Rebgasse,8004,47.3742146,8.5304601
9,Bäckerstrasse,8004,47.3740704,8.5299301
25,Bäckerstrasse,8004,47.3744296,8.5292393
27,Bäckerstrasse,8004,47.3745332,8.5292422
36,Müllerstrasse,8004,47.3749649,8.5301163
20,Bäckerstrasse,8004,47.3744371,8.5297206
56,St. Jakobstrasse,8004,47.3750822,8.5303018
52,St. Jakobstrasse,8004,47.3751340,8.5300514
30,Bäckerstrasse,8004,47.3746892,8.5294759
23,Müllerstrasse,8004,47.3743907,8.5306252
31,Müllerstrasse,8004,47.3746427,8.5302421
21,Bäckerstrasse,8004,47.3743065,8.5293968
17,Bäckerstrasse,8004,47.3741699,8.5295280
55,Zeughausstrasse,8004,47.3762362,8.5295461
11,Zeughausstrasse,8004,47.3748994,8.5315290
51,Zeughausstrasse,8004,47.3760661,8.5298038
47,Zeughausstrasse,8004,47.3759581,8.5298611
28,Oberdorfstrasse,8001,47.3692628,8.5449163
7,Rämistrasse,8001,47.3680490,8.5459520
10,Torgasse,8001,47.3681104,8.5458885
2,Oberdorfstrasse,8001,47.3682948,8.5459868
3,Oberdorfstrasse,8001,47.3683480,8.5457407
6,Waldmannstrasse,8001,47.3686681,8.5466671
17,Rämistrasse,8001,47.3683917,8.5463752
10,Oberdorfstrasse,8024,47.3686282,8.5457679
4,Brauerstrasse,8004,47.3772103,8.5284939
17,Molkenstrasse,8004,47.3766284,8.5265873
87,Müllerstrasse,8004,47.3766278,8.5278139
26,Brauerstrasse,8004,47.3774349,8.5280040
20,Molkenstrasse,8004,47.3768498,8.5268435
92,Müllerstrasse,8004,47.3767352,8.5279551
16,Brauerstrasse,8004,47.3772637,8.5281892
9,Molkenstrasse,8004,47.3764122,8.5270381
32,Hohlstrasse,8004,47.3773344,8.5271522
15,Brauerstrasse,8004,47.3773155,8.5278628
18,Hohlstrasse,8004,47.3770193,8.5276502
92,Müllerstrasse,8004,47.3767192,8.5279160
31,Brauerstrasse,8004,47.3776759,8.5270955
15,Molkenstrasse,8004,47.3764964,8.5265816
113,Ankerstrasse,8004,47.3763319,8.5279388
91,Müllerstrasse,8004,47.3767502,8.5276508
24,Brauerstrasse,8004,47.3775263,8.5281369
110,Ankerstrasse,8004,47.3761275,8.5279756
8,Molkenstrasse,8004,47.3766095,8.5272698
4,Hohlstrasse,8004,47.3769613,8.5280193
21,Molkenstrasse,8004,47.3768871,8.5265934
13,Brauerstrasse,8004,47.3771366,8.5279793
30,Brauerstrasse,8004,47.3776123,8.5277650
29,Brauerstrasse,8004,47.3775754,8.5272939
27,Hohlstrasse,8004,47.3770555,8.5270146
24,Brauerstrasse,8004,47.3775633,8.5280646
93,Müllerstrasse,8004,47.3768716,8.5274892
27,Brauerstrasse,8004,47.3774174,8.5274893
35,Hohlstrasse,8004,47.3771708,8.5264859
9,Brauerstrasse,8004,47.3771486,8.5281168
30,Hohlstrasse,8004,47.3771953,8.5272756
25,Hohlstrasse,8004,47.3769745,8.5272043
36,Hohlstrasse,8004,47.3774119,8.5267819
106,Zweierstrasse,8003,47.3717267,8.5214185
11,Mimosenstrasse,8057,47.4028305,8.5452970
39,Konradstrasse,8005,47.3808121,8.5352681
77,Bahnhofstrasse,8001,47.3750322,8.5386809
5-7,Nansenstrasse,8050,47.4108162,8.5456052
5,Nansenstrasse,8050,47.4108324,8.5453065
11,Ohmstrasse,8050,47.4104578,8.5457352
11,Ohmstrasse,8050,47.4102248,8.5456327
11,Ohmstrasse,8050,47.4103223,8.5456832
351,Schaffhauserstrasse,8050,47.4096356,8.5460679
355,Schaffhauserstrasse,8050,47.4098373,8.5459984
355,Schaffhauserstrasse,8050,47.4099690,8.5459530
350,Schaffhauserstrasse,8050,47.4095957,8.5464844
25,Schwamendingenstrasse,8050,47.4075972,8.5484154
276,Schaffhauserstrasse,8057,47.4046592,8.5485190
48,Schwamendingenstrasse,8050,47.4067404,8.5507215
70,Hermetschloostrasse,8048,47.3945506,8.4740835
173,In Böden,8046,47.4194962,8.5076354
8,Müllerstrasse,8004,47.3740323,8.5314834
6,Werdstrasse,8004,47.3729366,8.5304421
4,Badenerstrasse,8004,47.3735430,8.5313676
34,Werdstrasse,8004,47.3728128,8.5298006
15,Badenerstrasse,8004,47.3734534,8.5304688
11,Müllerstrasse,8004,47.3741775,8.5309204
13,Kasernenstrasse,8004,47.3740336,8.5319468
18,Kanonengasse,8004,47.3775053,8.5296205
9,Kanonengasse,8004,47.3772915,8.5291113
16,Kanonengasse,8004,47.3770720,8.5292879
2,Werdstrasse,8004,47.3732208,8.5311957
6,Müllerstrasse,8004,47.3739774,8.5316179
7,Zeughausstrasse,8004,47.3746734,8.5315584
6,Badenerstrasse,8004,47.3736178,8.5309984
9,Badenerstrasse,8004,47.3734395,8.5308588
15,Kasernenstrasse,8004,47.3741525,8.5320301
9,Kanonengasse,8004,47.3772700,8.5290614
4,Werdstrasse,8004,47.3730040,8.5307315
1,Stauffacherquai,8004,47.3732014,8.5316162
15,Badenerstrasse,8004,47.3734842,8.5306197
17,Kasernenstrasse,8004,47.3741878,8.5320546
15,Kasernenstrasse,8004,47.3741412,8.5319893
16,Müllerstrasse,8004,47.3742526,8.5312727
8,Werdstrasse,8004,47.3728705,8.5301005
6,Badenerstrasse,8004,47.3736197,8.5311316
25,Kasernenstrasse,8004,47.3744475,8.5321740
7,Hohlstrasse,8004,47.3768168,8.5282316
3,Stauffacherquai,8004,47.3731265,8.5315628
1,Kasernenstrasse,8004,47.3737357,8.5317410
10,Stauffacherstrasse,8004,47.3719996,8.5298015
19,Kasernenstrasse,8004,47.3743110,8.5321390
26,Stauffacherstrasse,8004,47.3731187,8.5292934
7,Kanonengasse,8004,47.3772170,8.5290066
10,Müllerstrasse,8004,47.3740948,8.5313555
36,Werdstrasse,8004,47.3727841,8.5296199
5,Müllerstrasse,8004,47.3739261,8.5314000
123,Ankerstrasse,8004,47.3766824,8.5284652
11,Kasernenstrasse,8004,47.3739605,8.5318960
9,Hohlstrasse,8004,47.3768381,8.5280996
21,Kasernenstrasse,8004,47.3743887,8.5321498
37,Schwamendingenstrasse,8050,47.4073905,8.5498029
47,Jupiterstrasse,8032,47.3656434,8.5651435
50,Schwamendingenstrasse,8050,47.4066908,8.5509100
67,Dörflistrasse,8050,47.4074876,8.5500692
41,Schwamendingenstrasse,8050,47.4072982,8.5502157
41,Schwamendingenstrasse,8050,47.4074775,8.5501737
298,Schaffhauserstrasse,8050,47.4062083,8.5485935
100,Universitätstrasse,8006,47.3836588,8.5484321
88,Universitätstrasse,8006,47.3832878,8.5483930
11,Oberdorfstrasse,8001,47.3687588,8.5453919
24,Oberdorfstrasse,8001,47.3689736,8.5452927
1,Münstergasse,8001,47.3708056,8.5443540
1,Grossmünsterplatz,8001,47.3703864,8.5435612
6a,Blaufahnenstrasse,8001,47.3708814,8.5451737
2,Münstergasse,8001,47.3707329,8.5444234
6,Blaufahnenstrasse,8001,47.3708232,8.5447754
4,Münstergasse,8001,47.3708997,8.5444337
116e,Neunbrunnenstrasse,8050,47.4165386,8.5334848
114,Neunbrunnenstrasse,8050,47.4171452,8.5339514
118,Neunbrunnenstrasse,8050,47.4168802,8.5333479
116b,Neunbrunnenstrasse,8050,47.4165771,8.5337985
116c,Neunbrunnenstrasse,8050,47.4165663,8.5336985
112,Neunbrunnenstrasse,8050,47.4169146,8.5340264
110,Neunbrunnenstrasse,8050,47.4166447,8.5340977
116f,Neunbrunnenstrasse,8050,47.4165311,8.5333997
116a,Neunbrunnenstrasse,8050,47.4165876,8.5338817
120,Neunbrunnenstrasse,8050,47.4170726,8.5333371
116d,Neunbrunnenstrasse,8050,47.4165502,8.5335790
409,Witikonerstrasse,8053,47.3602011,8.5947159
152,Limmatstrasse,8005,47.3855243,8.5312041
12,Püntstrasse,8047,47.3746447,8.4845452
40,Hirzenbachstrasse,8051,47.4034292,8.5891049
5,Dübendorfstrasse,8051,47.4041690,8.5745544
83,Talstrasse,8001,47.3721740,8.5340237
33,Neugasse,8005,47.3819687,8.5305300
39,Konradstrasse,8005,47.3808903,8.5352061
28,Josefstrasse,8005,47.3811064,8.5336844
36,Josefstrasse,8005,47.3813756,8.5333953
71,Rämistrasse,8006,47.3746371,8.5490938
12,Künstlergasse,8001,47.3746076,8.5481720
73,Toblerstrasse,8044,47.3793846,8.5594679
5,Maagplatz,8005,47.3860271,8.5170859
33,Bleicherweg,8002,47.3664794,8.5341661
239,Schaffhauserstrasse,8057,47.4030234,8.5468730
47,Berninastrasse,8057,47.4038591,8.5460149
43,Berninastrasse,8057,47.4034424,8.5471665
239,Schaffhauserstrasse,8057,47.4028716,8.5465484
101,Stauffacherstrasse,8004,47.3764802,8.5252621
10,Albertstrasse,8005,47.3865903,8.5257161
8,Albertstrasse,8005,47.3865141,8.5258836
6,Albertstrasse,8005,47.3864388,8.5260511
2,Albertstrasse,8005,47.3862959,8.5263696
4,Albertstrasse,8005,47.3863635,8.5262200
269,Schaffhauserstrasse,8057,47.4040846,8.5479210
192,Schaffhauserstrasse,8057,47.4003143,8.5440000
257,Schaffhauserstrasse,8057,47.4037131,8.5476528
17,Franklinstrasse,8050,47.4091404,8.5449113
199,Mühlackerstrasse,8046,47.4256283,8.4969763
10,Theaterstrasse,8001,47.3663927,8.5467443
9,Weinbergstrasse,8001,47.3778748,8.5441127
18,Brunngasse,8001,47.3733474,8.5450403
8,Friedheimstrasse,8057,47.4046030,8.5497982
64,Müllerstrasse,8004,47.3760618,8.5288696
4,Karl-Schmid-Strasse,8006,47.3753313,8.5479559
77,Schärenmoosstrasse,8052,47.4193147,8.5568084
3,Nansenstrasse,8050,47.4109887,8.5459625
200,Hofwiesenstrasse,8057,47.4026145,8.5360149
94,Wehntalerstrasse,8057,47.4023739,8.5359558
11,Nüschelerstrasse,8001,47.3714910,8.5368589
52,Kanzleistrasse,8004,47.3752543,8.5261232
3,Kalkbreitestrasse,8004,47.3741491,8.5212992
4,Nägelihof,8001,47.3707355,8.5436256
16,Badenerstrasse,8004,47.3737562,8.5307154
57-63,Neugasse,8005,47.3828111,8.5289861
2,Mühlebachstrasse,8008,47.3659676,8.5488592
2,Mühlebachstrasse,8008,47.3659867,8.5489827
44,Zähringerstrasse,8001,47.3761922,8.5446860
7,Gottfried-Keller-Strasse,8001,47.3663519,8.5474257
269,Heinrichstrasse,8005,47.3892619,8.5215125
57-63,Neugasse,8005,47.3826641,8.5293328
184,Scheuchzerstrasse,8057,47.3946450,8.5425889
29,Kanonengasse,8004,47.3779493,8.5298119
5,Schifflände,8001,47.3686275,8.5444063
57,Milchbuckstrasse,8057,47.3943532,8.5429100
271,Dübendorfstrasse,8051,47.4000320,8.5878428
53,Bahnhofstrasse,8001,47.3724799,8.5380804
37,Bahnhofstrasse,8001,47.3713882,8.5384585
11,Bahnhofquai,8001,47.3765511,8.5415014
64,Bahnhofstrasse,8001,47.3735725,8.5384642
33,Bahnhofstrasse,8001,47.3711931,8.5385234
39,Bahnhofstrasse,8001,47.3715921,8.5382283
54,Bahnhofstrasse,8001,47.3729288,8.5384758
40,Bahnhofstrasse,8001,47.3715315,8.5388391
45,Bahnhofstrasse,8001,47.3719416,8.5382214
47,Bahnhofstrasse,8001,47.3721606,8.5382263
67,Bahnhofstrasse,8001,47.3736573,8.5380616
36,Bahnhofstrasse,8001,47.3711844,8.5389625
1,Bahnhofplatz,8001,47.3768034,8.5413559
46,Bahnhofstrasse,8001,47.3721991,8.5385854
47,Bahnhofstrasse,8001,47.3720879,8.5381429
35,Bahnhofstrasse,8001,47.3712995,8.5384473
39,Bahnhofstrasse,8001,47.3715347,8.5383960
58,Bahnhofstrasse,8001,47.3733140,8.5384614
45,Bahnhofstrasse,8001,47.3719906,8.5382867
48,Bahnhofstrasse,8001,47.3724616,8.5384544
35,Bahnhofstrasse,8001,47.3712625,8.5385105
42,Bahnhofstrasse,8001,47.3717303,8.5386834
62,Bahnhofstrasse,8001,47.3734169,8.5384148
46,Bahnhofstrasse,8001,47.3720704,8.5386259
38,Bahnhofstrasse,8001,47.3713066,8.5389028
31,Bahnhofstrasse,8001,47.3709780,8.5385842
31,Bahnhofstrasse,8001,47.3708999,8.5386626
25,Bahnhofstrasse,8001,47.3701786,8.5389663
25,Bahnhofstrasse,8001,47.3705573,8.5387797
31,Bahnhofstrasse,8001,47.3707990,8.5386503
108,Birchstrasse,8050,47.4086140,8.5376025
80,Universitätstrasse,8006,47.3825439,8.5483081
187,Scheuchzerstrasse,8057,47.3947371,8.5420883
60,Bolleystrasse,8006,47.3787940,8.5515675
50,Zweierstrasse,8004,47.3726268,8.5244577
2-4,Winterthurerstrasse,8006,47.3859121,8.5488084
6,Theaterstrasse,8001,47.3656748,8.5475634
82,Universitätstrasse,8006,47.3826687,8.5483080
21,Breitensteinstrasse,8037,47.3931636,8.5210169
8,Rämistrasse,8001,47.3677218,8.5461444
249,Bellerivestrasse,8008,47.3502945,8.5611696
56,Thurgauerstrasse,8050,47.4161049,8.5528516
87,Zurlindenstrasse,8003,47.3704185,8.5192998
57a,Breitensteinstrasse,8037,47.3938108,8.5186001
90,Breitensteinstrasse,8037,47.3945388,8.5160181
140,Allmendstrasse,8027,47.3386785,8.5188054
11,Neue Hard,8005,47.3869411,8.5194424
11,Neue Hard,8005,47.3867873,8.5193299
3,Neue Hard,8005,47.3862525,8.5210128
9,Neue Hard,8005,47.3865270,8.5199754
7,Neue Hard,8005,47.3863779,8.5203230
227,Heinrichstrasse,8005,47.3882969,8.5236211
12,Sihlamtsstrasse,8001,47.3699780,8.5310016
18,Sihlamtsstrasse,8001,47.3695276,8.5302289
10,Sihlamtsstrasse,8001,47.3700726,8.5311859
14,Sihlamtsstrasse,8001,47.3698874,8.5308465
9,Sihlamtsstrasse,8001,47.3700958,8.5317120
16,Sihlamtsstrasse,8001,47.3697471,8.5304874
8,Sihlamtsstrasse,8001,47.3701562,8.5313292
36,Klosbachstrasse,8032,47.3659172,8.5566140
36a,Klosbachstrasse,8032,47.3659778,8.5567419
65,Minervastrasse,8032,47.3658059,8.5566793
63,Minervastrasse,8032,47.3657712,8.5564248
67,Minervastrasse,8032,47.3657733,8.5565119
70,Höschgasse,8008,47.3580519,8.5560580
156,Zentralstrasse,8003,47.3758613,8.5146898
357,Badenerstrasse,8003,47.3785429,8.5091646
25,Höschgasse,8008,47.3569533,8.5518506
21,Mittelbergsteig,8044,47.3808587,8.5613342
11,Freieckgasse,8001,47.3675612,8.5461189
1,Jupiterstrasse,8032,47.3630692,8.5607277
140,Feldstrasse,8004,47.3802923,8.5250464
118,Feldstrasse,8004,47.3794966,8.5241784
24,Magnusstrasse,8004,47.3801228,8.5253821
75,Dienerstrasse,8004,47.3792989,8.5252770
6,Magnusstrasse,8004,47.3793318,8.5247377
8,Magnusstrasse,8004,47.3794747,8.5245924
28,Magnusstrasse,8004,47.3803444,8.5255238
79,Dienerstrasse,8004,47.3794361,8.5250785
1,Schöneggplatz,8004,47.3803842,8.5253680
1,Magnusstrasse,8004,47.3793727,8.5242854
23,Magnusstrasse,8004,47.3801405,8.5250952
22a,Magnusstrasse,8004,47.3800182,8.5254119
10,Magnusstrasse,8004,47.3795385,8.5246574
8,Gamperstrasse,8004,47.3806658,8.5244213
3,Magnusstrasse,8004,47.3795173,8.5244322
75,Dienerstrasse,8004,47.3793386,8.5252608
20,Magnusstrasse,8004,47.3800205,8.5251640
81,Dienerstrasse,8004,47.3794906,8.5249767
27,Magnusstrasse,8004,47.3802973,8.5252716
138,Feldstrasse,8004,47.3801976,8.5249705
122,Feldstrasse,8004,47.3796345,8.5242500
21,Magnusstrasse,8004,47.3800321,8.5249656
77,Dienerstrasse,8004,47.3793962,8.5251530
4,Magnusstrasse,8004,47.3793914,8.5245075
5,Magnusstrasse,8004,47.3796099,8.5245259
144,Feldstrasse,8004,47.3804898,8.5251455
22,Magnusstrasse,8004,47.3800519,8.5251974
83,Dienerstrasse,8004,47.3795407,8.5248830
25,Magnusstrasse,8004,47.3802182,8.5251781
437,Badenerstrasse,8003,47.3802014,8.5050948
21,Dreikönigstrasse,8002,47.3668667,8.5364862
27,Rolandstrasse,8004,47.3795247,8.5254214
18,Nietengasse,8004,47.3797972,8.5257519
20,Nietengasse,8004,47.3798880,8.5258573
19,Schöneggstrasse,8004,47.3801480,8.5265416
30,Sihlhallenstrasse,8004,47.3802276,8.5261270
6,Schöneggstrasse,8004,47.3799443,8.5274659
9,Rolandstrasse,8004,47.3789478,8.5267505
6,Neufrankengasse,8004,47.3805696,8.5274564
25,Neufrankengasse,8004,47.3807272,8.5265575
70,Dienerstrasse,8004,47.3793794,8.5254311
9a,Sihlhallenstrasse,8004,47.3794198,8.5266133
62,Dienerstrasse,8004,47.3790627,8.5260337
6,Schöneggstrasse,8004,47.3799256,8.5274015
15,Rolandstrasse,8004,47.3791402,8.5263882
72,Dienerstrasse,8004,47.3794694,8.5253559
16,Rolandstrasse,8004,47.3793184,8.5263211
4,Neufrankengasse,8004,47.3804413,8.5278228
7,Sihlhallenstrasse,8004,47.3796887,8.5269025
18,Schöneggstrasse,8004,47.3802623,8.5268980
17,Rolandstrasse,8004,47.3792366,8.5262095
16,Schöneggstrasse,8004,47.3801606,8.5269022
4,Neufrankengasse,8004,47.3804469,8.5277840
23,Rolandstrasse,8004,47.3793424,8.5258836
7,Zinistrasse,8004,47.3795331,8.5261340
31,Schöneggstrasse,8004,47.3805362,8.5257909
14,Schöneggstrasse,8004,47.3802923,8.5270528
34,Schöneggstrasse,8004,47.3806856,8.5260703
30,Schöneggstrasse,8004,47.3806315,8.5261247
13,Schöneggstrasse,8004,47.3799592,8.5269736
68,Dienerstrasse,8004,47.3792676,8.5256372
27,Schöneggstrasse,8004,47.3804052,8.5260464
9,Sihlhallenstrasse,8004,47.3797340,8.5268153
11,Zinistrasse,8004,47.3797160,8.5262324
28,Sihlhallenstrasse,8004,47.3801327,8.5263098
10,Zinistrasse,8004,47.3795820,8.5264006
21,Schöneggstrasse,8004,47.3802122,8.5264179
21,Nietengasse,8004,47.3800111,8.5257107
133,Langstrasse,8004,47.3799147,8.5275852
31,Sihlhallenstrasse,8004,47.3801021,8.5258946
3,Rolandstrasse,8004,47.3788426,8.5269470
28,Neufrankengasse,8004,47.3808218,8.5266426
10,Schienengasse,8004,47.3804991,8.5264779
3,Sihlhallenstrasse,8004,47.3795091,8.5272476
29,Schöneggstrasse,8004,47.3804815,8.5258879
25,Rolandstrasse,8004,47.3795293,8.5256605
5,Sihlhallenstrasse,8004,47.3796188,8.5270370
23,Schöneggstrasse,8004,47.3802819,8.5262836
33,Sihlhallenstrasse,8004,47.3802554,8.5256925
8,Rolandstrasse,8004,47.3791127,8.5267056
16,Nietengasse,8004,47.3797415,8.5256865
25,Schöneggstrasse,8004,47.3803546,8.5261437
15,Nietengasse,8004,47.3798223,8.5255638
133,Langstrasse,8004,47.3798446,8.5276503
27,Neufrankengasse,8004,47.3807692,8.5264677
10,Schöneggstrasse,8004,47.3800473,8.5272671
64,Dienerstrasse,8004,47.3791061,8.5259519
6,Zinistrasse,8004,47.3794578,8.5262466
5,Schöneggstrasse,8004,47.3796919,8.5274584
19,Sihlhallenstrasse,8004,47.3799980,8.5262988
6,Rolandstrasse,8004,47.3790524,8.5268183
141,Feldstrasse,8004,47.3803678,8.5247028
22,Schöneggstrasse,8004,47.3802628,8.5267102
36,Rolandstrasse,8004,47.3799226,8.5252724
8,Zinistrasse,8004,47.3795162,8.5263193
15,Schöneggstrasse,8004,47.3799979,8.5267203
19,Rolandstrasse,8004,47.3792752,8.5261395
15,Neufrankengasse,8004,47.3804608,8.5269356
28,Schöneggstrasse,8004,47.3805143,8.5263677
17,Nietengasse,8004,47.3799020,8.5256555
29,Neufrankengasse,8004,47.3807970,8.5263052
24,Schöneggstrasse,8004,47.3803627,8.5266137
9,Zinistrasse,8004,47.3796055,8.5262222
24,Rolandstrasse,8004,47.3795524,8.5258843
12,Schöneggstrasse,8004,47.3801356,8.5270949
26,Rolandstrasse,8004,47.3796075,8.5257820
22,Rolandstrasse,8004,47.3795062,8.5259710
32,Sihlhallenstrasse,8004,47.3802917,8.5260035
10,Rolandstrasse,8004,47.3792349,8.5264773
134,Langstrasse,8004,47.3798300,8.5279034
38,Tellstrasse,8004,47.3793369,8.5295936
114,Militärstrasse,8004,47.3795487,8.5283359
84,Militärstrasse,8004,47.3787510,8.5296974
22,Neufrankengasse,8004,47.3807478,8.5268940
89,Lagerstrasse,8004,47.3791188,8.5302760
136,Langstrasse,8004,47.3799189,8.5279565
116,Militärstrasse,8004,47.3795239,8.5280923
85,Lagerstrasse,8004,47.3789185,8.5306792
81,Lagerstrasse,8004,47.3787179,8.5306726
93,Lagerstrasse,8004,47.3792873,8.5299337
101,Lagerstrasse,8004,47.3794361,8.5295215
14,Neufrankengasse,8004,47.3805385,8.5272490
132,Langstrasse,8004,47.3797435,8.5278516
91,Lagerstrasse,8004,47.3792160,8.5300802
90,Militärstrasse,8004,47.3789172,8.5293628
138,Langstrasse,8004,47.3799914,8.5279987
118,Militärstrasse,8004,47.3795821,8.5279747
36,Tellstrasse,8004,47.3792150,8.5297646
87,Lagerstrasse,8004,47.3790212,8.5304725
83,Lagerstrasse,8004,47.3787942,8.5307554
95,Lagerstrasse,8004,47.3793380,8.5298193
109,Militärstrasse,8004,47.3791536,8.5283971
105,Militärstrasse,8004,47.3789600,8.5289546
115,Militärstrasse,8004,47.3792896,8.5281625
122,Langstrasse,8004,47.3793145,8.5276715
109,Militärstrasse,8004,47.3792421,8.5283121
115,Militärstrasse,8004,47.3793715,8.5281061
117,Militärstrasse,8004,47.3793374,8.5279265
124,Langstrasse,8004,47.3794466,8.5276749
30,Zwinglistrasse,8004,47.3787471,8.5280973
32,Zwinglistrasse,8004,47.3788449,8.5280392
35,Zwinglistrasse,8004,47.3785401,8.5279170
24,Zwinglistrasse,8004,47.3785511,8.5284943
28,Zwinglistrasse,8004,47.3786848,8.5282245
107,Lagerstrasse,8004,47.3795822,8.5289799
19,Tellstrasse,8004,47.3786996,8.5287445
38,Zwinglistrasse,8004,47.3788799,8.5278260
34,Zwinglistrasse,8004,47.3788893,8.5282517
31,Zwinglistrasse,8004,47.3784282,8.5280764
40,Zwinglistrasse,8004,47.3790476,8.5277268
27,Zwinglistrasse,8004,47.3783638,8.5281987
36,Zwinglistrasse,8004,47.3790169,8.5279914
34a,Zwinglistrasse,8004,47.3789841,8.5280594
115,Langstrasse,8004,47.3792636,8.5270838
106,Langstrasse,8004,47.3786636,8.5275943
26,Zwinglistrasse,8004,47.3787970,8.5284666
37,Zwinglistrasse,8004,47.3787170,8.5278913
17,Tellstrasse,8004,47.3786262,8.5286647
117,Langstrasse,8004,47.3792222,8.5271581
33,Zwinglistrasse,8004,47.3784418,8.5281774
64,Rotwandstrasse,8004,47.3758379,8.5293720
19,Zwinglistrasse,8004,47.3779660,8.5289965
17,Zwinglistrasse,8004,47.3781011,8.5289989
10,Tellstrasse,8004,47.3782574,8.5285651
16,Dienerstrasse,8004,47.3777738,8.5287307
63,Kernstrasse,8004,47.3784091,8.5263737
25,Dienerstrasse,8004,47.3778976,8.5277843
15,Dienerstrasse,8004,47.3776955,8.5283992
9,Zwinglistrasse,8004,47.3779844,8.5293316
28,Dienerstrasse,8004,47.3782328,8.5278822
45,Brauerstrasse,8004,47.3780054,8.5265364
21,Dienerstrasse,8004,47.3778315,8.5279065
4,Tellstrasse,8004,47.3780681,8.5284371
38,Dienerstrasse,8004,47.3784879,8.5274648
15,Zwinglistrasse,8004,47.3780232,8.5291849
22,Dienerstrasse,8004,47.3779459,8.5285295
33,Dienerstrasse,8004,47.3781410,8.5274107
93,Langstrasse,8004,47.3781561,8.5267277
5,Zwinglistrasse,8004,47.3778068,8.5292882
40,Dienerstrasse,8004,47.3784278,8.5272218
48,Brauerstrasse,8004,47.3783100,8.5264494
32,Dienerstrasse,8004,47.3783173,8.5275497
45,Dienerstrasse,8004,47.3784531,8.5265914
3,Tellstrasse,8004,47.3781427,8.5281487
8,Dienerstrasse,8004,47.3776452,8.5289823
27,Dienerstrasse,8004,47.3779508,8.5276781
23,Zwinglistrasse,8004,47.3782298,8.5288734
28a,Dienerstrasse,8004,47.3784074,8.5277040
50,Dienerstrasse,8004,47.3787390,8.5267844
30,Dienerstrasse,8004,47.3782324,8.5276064
12,Dienerstrasse,8004,47.3778084,8.5288951
19,Dienerstrasse,8004,47.3777375,8.5281007
29,Dienerstrasse,8004,47.3780043,8.5275722
67,Kernstrasse,8004,47.3785370,8.5265179
56,Dienerstrasse,8004,47.3788223,8.5264737
4,Dienerstrasse,8004,47.3776815,8.5291376
3,Zwinglistrasse,8004,47.3777904,8.5296685
2,Tellstrasse,8004,47.3780139,8.5282757
36,Dienerstrasse,8004,47.3783780,8.5273184
21,Zwinglistrasse,8004,47.3779967,8.5287519
11,Zwinglistrasse,8004,47.3778482,8.5292030
2,Dienerstrasse,8004,47.3775354,8.5292460
14,Dienerstrasse,8004,47.3776502,8.5287521
3,Zwinglistrasse,8004,47.3778741,8.5295731
7,Dienerstrasse,8004,47.3774625,8.5288558
26,Dienerstrasse,8004,47.3781498,8.5279882
8,Tellstrasse,8004,47.3781426,8.5285169
32,Dienerstrasse,8004,47.3782876,8.5274972
18,Dienerstrasse,8004,47.3778523,8.5288055
10,Dienerstrasse,8004,47.3777164,8.5290658
25,Zwinglistrasse,8004,47.3782837,8.5287649
20,Dienerstrasse,8004,47.3777781,8.5284966
69,Kernstrasse,8004,47.3785612,8.5265457
43,Dienerstrasse,8004,47.3785174,8.5267946
58,Dienerstrasse,8004,47.3790279,8.5262938
6,Dienerstrasse,8004,47.3776000,8.5290717
127,Wasserwerkstrasse,8037,47.3889213,8.5304527
85,Stampfenbachstrasse,8006,47.3824140,8.5415663
12,Zwinglistrasse,8004,47.3782008,8.5292404
80,Zollstrasse,8005,47.3811645,8.5318876
1,Gutenbergstrasse,8002,47.3649692,8.5307268
1,Bahnhofbrücke,8001,47.3761715,8.5421767
315,Schaffhauserstrasse,8050,47.4071384,8.5473271
10,Schwamendingenstrasse,8050,47.4078934,8.5472977
230,Käferholzstrasse,8046,47.4095768,8.5251579
79,Oberwiesenstrasse,8050,47.4131471,8.5313391
77,Oberwiesenstrasse,8050,47.4129750,8.5313069
73b,Oberwiesenstrasse,8050,47.4120478,8.5307965
73c,Oberwiesenstrasse,8050,47.4122235,8.5307024
71,Albisstrasse,8038,47.3415808,8.5307493
24,Albulastrasse,8048,47.3878946,8.4948660
25,Mürtschenstrasse,8048,47.3872687,8.4960215
40,Pelikanstrasse,8001,47.3707781,8.5342686
21,Franklinstrasse,8050,47.4092263,8.5447071
41,Weststrasse,8003,47.3696787,8.5231852
36,Leonhardstrasse,8092,47.3759987,8.5466874
43,Berninastrasse,8057,47.4035790,8.5470482
45,Berninastrasse,8057,47.4036425,8.5465866
45,Berninastrasse,8057,47.4036995,8.5466054
7b,Hadlaubsteig,8006,47.3882654,8.5492092
251,Bellerivestrasse,8008,47.3499921,8.5614135
144,Bellerivestrasse,8008,47.3545576,8.5519589
6,Albisriederstrasse,8003,47.3782367,8.5093926
380,Badenerstrasse,8004,47.3794251,8.5081998
3-5,Gessnerallee,8001,47.3733055,8.5329349
40,Uraniastrasse,8001,47.3729114,8.5350120
3,Hortensienstrasse,8050,47.4058623,8.5523740
3,Albisriederplatz,8003,47.3780503,8.5098694
300,Zurlindenstrasse,8003,47.3778233,8.5100588
20,Theaterstrasse,8001,47.3670908,8.5457690
23,Josefstrasse,8005,47.3809489,8.5335910
72,Müllerstrasse,8004,47.3761788,8.5286665
227,Friesenbergstrasse,8055,47.3617065,8.5041023
6,Etzelstrasse,8038,47.3444645,8.5307182
6,Universitätstrasse,8092,47.3783456,8.5493791
79,Asylstrasse,8032,47.3668821,8.5615507
4,Füsslistrasse,8001,47.3732416,8.5376448
126,Hardturmstrasse,8005,47.3935812,8.5131320
1,Kreuzplatz,8032,47.3650881,8.5537692
4,Forchstrasse,8008,47.3643816,8.5549292
2,Zollstrasse,8005,47.3797298,8.5372003
7,Löwenstrasse,8001,47.3733547,8.5344801
122,Limmatquai,8001,47.3755782,8.5437767
47,Niederdorfstrasse,8001,47.3752069,8.5437776
6,Füsslistrasse,8001,47.3732227,8.5373598
54c,Hammerstrasse,8032,47.3601272,8.5623325
54b,Hammerstrasse,8032,47.3602469,8.5621652
5,Forchstrasse,8032,47.3646351,8.5552253
