House number,Street name,Postal code,Latitude,Longitude
1,Бранкова,11000,44.8141442,20.4569695
23,Миријевски венац,11160,44.7900777,20.5345856
17a,Кнеза Вишеслава,11030,44.7781160,20.4273080
2,Варешка,11090,44.7507417,20.4493253
35,Кнеза Михаила,11000,44.8179478,20.4564088
149,Булевар ослобођења,11000,44.7788681,20.4697143
27,Двадесет другог октобра,11080,44.8389848,20.4100090
102,Војислава Илића,11000,44.7825676,20.5014172
153a,Јурија Гагарина,11000,44.8022120,20.3855298
14,Цара Душана,11106,44.8247025,20.4572577
167,Димитрија Туцовића,11000,44.7994322,20.5032671
35,Рузвелтова,11000,44.8087925,20.4826019
4,Булевар Михајла Пупина,11070,44.8153950,20.4367073
1,Јеврејска,11158,44.8253835,20.4567748
17,Змај Јовина,11102,44.8178932,20.4586220
27,Кнеза Михаила,11000,44.8167940,20.4579489
48,Кнеза Михаила,11000,44.8190834,20.4550159
3,Студентски трг,11000,44.8188718,20.4570756
198,Булевар деспота Стефана,11000,44.8172754,20.4948216
12b,Ударних бригада,11250,44.7303907,20.3723820
60A,Гаврила Принципа,11000,44.8091698,20.4582135
76,Сарајевска,11000,44.8005967,20.4511919
12,Андрићев венац,11000,44.8092536,20.4643506
44,Булевар Зорана Ђинђића,11070,44.8138644,20.4283058
38,Горњоградска,11080,44.8441258,20.3947465
2,Дечанска,11000,44.8155050,20.4621741
17,Пчињска,11000,44.7899615,20.4744866
100,Димитрија Туцовића,11000,44.8012933,20.4928502
26,Скадарска,11108,44.8171880,20.4639092
Basement,Чавкетов пасаж,11000,44.8133821,20.4624061
28,Витезова Карађорђеве звезде,11000,44.7940665,20.5271116
23,Даничарева,11000,44.7973015,20.4806720
12,Дунавски кеј,11158,44.8287440,20.4626512
501,Булевар краља Александра,11050,44.7777223,20.5304094
24,Мике Аласа,11158,44.8274353,20.4613810
91,Трговачка,11000,44.7514601,20.4129881
3,Радничка,11030,44.7896080,20.4228056
151,Мајора Зорана Радосављевића,11000,44.8995114,20.2868955
6a,Петефијева,11030,44.7502363,20.4166532
56a,Космајска,11030,44.7497024,20.4166153
44,Булевар Зорана Ђинђића,11070,44.8142376,20.4275095
30а,Булевар Арсенија Чарнојевића,11070,44.8094987,20.4271545
24,Васе Чарапића,11000,44.8184841,20.4583735
64a,Булевар Зорана Ђинђића,11000,44.8172406,20.4212304
105,Гандијева,11070,44.7992416,20.3898505
16,Милоша Бандића,11000,44.8367402,20.4081349
3,Васе Чарапића,11000,44.8172513,20.4593660
10L,Џона Кенедија,11080,44.8341689,20.4152308
85,Пожешка,11000,44.7743793,20.4139821
98,Пожешка,11000,44.7777125,20.4143742
59a,Гундулићев венац,11000,44.8218739,20.4668583
23,Венизелосова,11000,44.8198628,20.4714664
15a,Венизелосова,11000,44.8200072,20.4706111
22,Илије Гарашанина,11000,44.8111089,20.4717830
66,Кнеза Вишеслава,11030,44.7716295,20.4245241
98a,Пожешка,11000,44.7774735,20.4141745
77,Гаврила Принципа,11000,44.8094354,20.4584648
19,Палмотићева,11000,44.8134447,20.4684743
88,Омладинских бригада,11000,44.8117536,20.3987208
3,Трг републике,11000,44.8161476,20.4598834
25b,Милутина Миланковића,11070,44.8167099,20.3987679
8,Шантићева,11000,44.8190714,20.4710295
63,Војвођанска,11073,44.8074618,20.3759910
68b,Нехруова,11070,44.8041086,20.3768133
17,Ауто-пут Беоаград-Загреб,11000,44.8309797,20.3694409
9,Двадесет седмог марта,11000,44.8127788,20.4728901
24,Дарвинова,11000,44.7728062,20.4861312
91,Кумодрашка,11000,44.7789528,20.4798357
35,Кумодрашка,11000,44.7829520,20.4772110
263,Војводе Степе,11000,44.7691417,20.4792757
275,Војводе Степе,11000,44.7688611,20.4794416
78a,Кумодрашка,11000,44.7792206,20.4794536
76V,Кумодрашка,11000,44.7792829,20.4793926
78a,Кумодрашка,11000,44.7790944,20.4795367
42,Витановачка,11000,44.7786057,20.4814552
37,Витановачка,11000,44.7786546,20.4807664
9,Војводе Скопљанца,11000,44.7838337,20.4792901
261,Војводе Степе,11000,44.7695807,20.4790293
282,Војводе Степе,11000,44.7673848,20.4800315
79,Устаничка,11000,44.7858582,20.4819929
85,Кумодрашка,11040,44.7793129,20.4797094
4,Криволачка,11000,44.7873015,20.4761199
110А,Браће Јерковић,11000,44.7631779,20.4950516
3,Радоја Дакића,11080,44.8388608,20.4081746
112,Браће Јерковић,11000,44.7633898,20.4986575
2,Булевар Пека Дапчевића,11000,44.7707563,20.4842192
181,Кумодрашка,11000,44.7708308,20.4842115
4,Љубићка,11000,44.7841999,20.4799725
3,Саве Машковића,11040,44.7613612,20.4821186
3,Саве Машковића,11000,44.7614550,20.4814177
76B,Кумодрашка,11040,44.7789215,20.4795888
10,Лоле Рибара,11250,44.7356955,20.3809918
7,Главна,11080,44.8430119,20.4123774
4,Пастерова,11000,44.7998780,20.4612871
57,Војводе Степе,11000,44.7849478,20.4690077
110,Војводе Степе,11000,44.7791124,20.4731765
107,Војводе Степе,11000,44.7796384,20.4734496
35,Војводе Степе,11000,44.7847519,20.4692138
94/Б,Војислава Илића,11000,44.7865199,20.4998489
125l,Устаничка,11000,44.7845906,20.4931686
58,Маријане Грегоран,11000,44.8128713,20.5134955
60,Маријане Грегоран,11000,44.8128535,20.5130082
14,Патријарха Гаврила,11000,44.8044724,20.4745216
199А,Булевар Михајла Пупина,11070,44.8335901,20.4091177
118,Угриновачка,11080,44.8494960,20.3785405
11,Милана Решетара,11080,44.8366427,20.3610476
21A,Бачванска,11050,44.7906628,20.4938868
24,Мирча Ацева,11000,44.7776848,20.4885964
125/1,Устаничка,11050,44.7848906,20.4896764
9,Краља Милана,11000,44.8085988,20.4635071
4,Кнеза Милоша,11000,44.8090662,20.4641069
4,Кнеза Милоша,11000,44.8091232,20.4641726
26b,Санска,11000,44.7763579,20.4794637
94,Кумодрашка,11000,44.7783098,20.4800701
48,Цара Душана,11000,44.8224704,20.4613849
25,Љубићка,11000,44.7831229,20.4776679
83,Кумодрашка,11000,44.7794011,20.4795844
11,Милована Шарановића,11000,44.7775197,20.4798596
78,Гостиварска,11000,44.7743209,20.4779971
23b,Добрачина,11158,44.8194128,20.4622895
1A,Венизелосова,11000,44.8202033,20.4670394
13,Главна,11080,44.8434259,20.4119644
61,Карађорђева,11000,44.8131351,20.4527670
10,Жоржа Клемансоа,11000,44.8213583,20.4687621
19,Жоржа Клемансоа,11000,44.8221950,20.4680558
8,Ускочка,11000,44.8178996,20.4548983
8a,Ратарски пут,11080,44.8493876,20.3711411
100,Булевар Арсенија Чарнојевића,11070,44.8154237,20.4161956
66,Устаничка,11000,44.7859114,20.4799773
10,Скадарска,11000,44.8163161,20.4633146
525,Војводе Степе,11000,44.7417793,20.5004847
69A,Кумодрашка,11000,44.7804606,20.4790399
21,Колубарска,11000,44.7861625,20.4786989
21,Колубарска,11000,44.7861816,20.4786573
8,Милорада Бонџулића,11000,44.7859166,20.4796552
12,Милорада Бонџулића,11000,44.7861073,20.4798107
286,Војводе Степе,11000,44.7673417,20.4806140
298,Војводе Степе,11000,44.7668294,20.4809580
32,Хиландарска,11000,44.8150885,20.4694194
4,Хиландарска,11000,44.8152644,20.4666306
101,Првомајска,11080,44.8424650,20.3806789
3,Ванђела Томе,11000,44.7769446,20.4879142
19,Станоја Главаша,11000,44.8120074,20.4763804
30-32,Теразије,11000,44.8118689,20.4613154
29,Теразије,11103,44.8126384,20.4616049
1D,Милутина Миланковића,11070,44.8054837,20.4221271
66,Димитрија Туцовића,11000,44.8031114,20.4882534
3,Краљице Марије,11000,44.8091022,20.4760658
110,Цвијићева,11000,44.8095550,20.4803039
16-18,Светог Саве,11000,44.8009662,20.4673353
12,Лијачка,11000,44.7802127,20.4820528
194,Устаничка,11000,44.7822014,20.5078381
23a,Захумска,11000,44.8042476,20.4819542
194,Устаничка,11000,44.7821000,20.5073411
68,Кумодрашка,11000,44.7808079,20.4787572
106,Кумодрашка,11000,44.7777952,20.4802752
13,Париске комуне,11000,44.8255450,20.4088293
13,Балканска,11000,44.8116182,20.4607022
49,Таковска,11000,44.8158244,20.4757725
2,Ђушина,11000,44.8120702,20.4733876
68,Булевар краља Александра,11000,44.8068000,20.4716973
32д,Панчевачки пут,11000,44.8412573,20.5037018
74,Трговачка,11000,44.7516682,20.4122758
17,Браће Југовића,11000,44.8175410,20.4616592
12,Кнеза Милоша,11000,44.8083394,20.4630743
122,Аутопут за Нови Сад,11080,44.8656544,20.3465193
11,Батајнички друм,11080,44.8683597,20.3557368
6,Радничка,11002,44.7845257,20.4128108
7,Милутина Миланковића,11070,44.8106089,20.4126419
28,Јурија Гагарина,11070,44.8038717,20.3886512
41,Његошева,11000,44.8030988,20.4700477
2,Кнегиње Зорке,11000,44.7999313,20.4662717
5,Палмира Тољатија,11070,44.8292695,20.4124711
83a,Пожешка,11000,44.7740434,20.4143106
160,Ратка Митровића,11000,44.7482894,20.4293803
27,Рајићева,11000,44.8190113,20.4532579
28,Ресавска,11000,44.8075701,20.4652112
3,Шпанских бораца,11070,44.8187957,20.4239858
2,Трнска,11000,44.8015424,20.4763195
2,Тршћанска,11000,44.7994266,20.4909512
74,Војводе Степе,11000,44.7814261,20.4715437
57,Војводе Шупљикца,11000,44.7977525,20.4872628
5A,Кумодрашка,11000,44.7845838,20.4752832
1,Боже Јанковића,11000,44.7839787,20.4703552
1,Шпанских бораца,11000,44.8185150,20.4246694
2,Балканска,11000,44.8127151,20.4600354
41,Булевар Арсенија Чарнојевића,11070,44.8085433,20.4269631
72,Пилота Михаила Петровића,11000,44.7432839,20.4262743
62,Булевар краља Александра,11000,44.8071318,20.4710514
5,Ватрослава Јагића,11000,44.8000034,20.4848369
74,Јове Илића,11000,44.7793035,20.4715997
175,Мајора Зорана Радосављевића,11273,44.8991015,20.2881413
21,Ауто-пут Ниш-Београд,11000,44.7650305,20.5270687
27,Двадесет другог октобра,11080,44.8389004,20.4102546
5,Ванђела Томе,11000,44.7768476,20.4875487
20,Вељка Дугошевића,11000,44.8054818,20.4944719
165,Јурија Гагарина,11070,44.8004882,20.3799885
165,Јурија Гагарина,11070,44.8005991,20.3797801
219b,Јурија Гагарина,11070,44.7998757,20.3774430
235,Јурија Гагарина,11070,44.7986056,20.3757211
221,Јурија Гагарина,11070,44.7973011,20.3772511
221,Јурија Гагарина,11070,44.7984333,20.3767856
221,Јурија Гагарина,11070,44.7976652,20.3771087
221,Јурија Гагарина,11070,44.7983502,20.3768506
221,Јурија Гагарина,11070,44.7981591,20.3768450
221,Јурија Гагарина,11070,44.7977826,20.3770413
221,Јурија Гагарина,11070,44.7978538,20.3771700
221,Јурија Гагарина,11070,44.7977012,20.3773086
221,Јурија Гагарина,11070,44.7975792,20.3771618
221,Јурија Гагарина,11070,44.7974825,20.3776334
275b,Јурија Гагарина,11070,44.7968832,20.3721602
131,Др Ивана Рибара,11070,44.7938010,20.3750169
18б,Миријевски булевар,11000,44.8107530,20.5224499
18,Салвадора Аљендеа,11000,44.8080290,20.5217566
197,Јурија Гагарина,11070,44.7994302,20.3785752
27V,Витановачка,11040,44.7784545,20.4787097
1,Ђакона Авакума,11000,44.7836167,20.4819532
1,Ђакона Авакума,11000,44.7836843,20.4820136
89,Максима Горког,11000,44.7922434,20.4788239
9,Краљевића Марка,11000,44.8135506,20.4532220
24,Кнеза Михаила,11000,44.8169908,20.4581649
49,Косовска,11000,44.8115788,20.4675718
27v,Витановачка,11000,44.7784437,20.4786323
2,Генерала Анрија,11000,44.7806099,20.4687666
55,Кумодрашка,11000,44.7819317,20.4783532
4,Наде Димић,11080,44.8503115,20.4046524
4,Наде Димић,11080,44.8499749,20.4044056
16,Капетан Мишина,11000,44.8212269,20.4612424
7-9,Црнотравска,11000,44.7603984,20.4769213
50,Кнеза Михаила,11000,44.8191829,20.4549411
11,Змај Јовина,11000,44.8170813,20.4574389
2,Војводе Степе,11000,44.7861647,20.4672105
91,Јове Илића,11000,44.7790939,20.4726449
91,Јове Илића,11000,44.7790025,20.4726208
25,Светог Саве,11000,44.8008110,20.4677276
23,Јове Илића,11000,44.7843905,20.4682177
6,Стојана Новаковића,11000,44.8161128,20.4796125
34-36,Момчила Радивојевића,11080,44.8574168,20.3699950
44,Облаковска,11000,44.7935361,20.4619051
47,Страхињића Бана,11000,44.8214728,20.4618986
2,Михаила Булгакова,11000,44.7858004,20.5368883
7б,Милентија Поповића,11070,44.8117806,20.4325236
1,Марка Орешковића,11120,44.8015895,20.4859165
3,Марка Орешковића,11120,44.8016536,20.4859840
27,Марка Орешковића,11120,44.8033558,20.4876125
19,Марка Орешковића,11120,44.8028836,20.4871813
21,Марка Орешковића,11120,44.8029770,20.4872712
23,Марка Орешковића,11120,44.8031353,20.4874318
25,Марка Орешковића,11120,44.8032168,20.4875059
8,Милана Ракића,11000,44.7988984,20.4928555
29,Димитрија Туцовића,11000,44.8055715,20.4844950
77,Војводе Степе,11000,44.7814348,20.4722064
140,Војводе Степе,11010,44.7771503,20.4742818
1a,Црнотравска,11040,44.7608002,20.4796462
1b,Црнотравска,11040,44.7607441,20.4792522
1v,Црнотравска,11040,44.7607425,20.4788938
1g,Црнотравска,11040,44.7607408,20.4785063
1d,Црнотравска,11040,44.7608836,20.4782110
19,Обалских радника,11030,44.7776727,20.4045672
21,Обалских радника,11030,44.7775601,20.4044034
23,Обалских радника,11030,44.7773074,20.4043434
25,Обалских радника,11030,44.7771561,20.4045498
18,Младена Митрића,11030,44.7772187,20.4051427
68,Опленачка,11000,44.7243683,20.4216238
49,Санџачка,11030,44.7504459,20.4224850
71А,Крајишка,11080,44.8401668,20.3691981
71,Крајишка,11080,44.8400964,20.3689074
4,Теразије,11000,44.8144990,20.4598993
2,Зелени венац,11000,44.8142623,20.4583848
2a,Драгослава Срејовића,11000,44.8158506,20.4889319
17,Лазаревачки друм,11000,44.7743348,20.4087667
64,Миријевски булевар,11000,44.8039412,20.5252765
54,Његошева,11000,44.8016688,20.4717586
166,Тошин бунар,11070,44.8286949,20.3976042
136a,Милутина Миланковића,11070,44.8179610,20.3993216
136b,Милутина Миланковића,11070,44.8181365,20.3989396
134d,Милутина Миланковића,11070,44.8176694,20.3997287
134g,Милутина Миланковића,11070,44.8176014,20.3998775
134v,Милутина Миланковића,11070,44.8175300,20.4000336
134b,Милутина Миланковића,11070,44.8174570,20.4001932
134a,Милутина Миланковића,11070,44.8173870,20.4003461
25v,Милутина Миланковића,11070,44.8166765,20.3983035
25a,Милутина Миланковића,11070,44.8168976,20.3985309
115a,Булевар Михајла Пупина,11070,44.8173705,20.4270547
115b,Булевар Михајла Пупина,11070,44.8174953,20.4267486
115g,Булевар Михајла Пупина,11070,44.8172042,20.4264718
115v,Булевар Михајла Пупина,11070,44.8173613,20.4266151
262,Цара Душана,11000,44.8588319,20.3797349
34,Прашка,11000,44.7735626,20.4171022
3,Булевар деспота Стефана,11000,44.8166584,20.4638721
129,Нехруова,11197,44.7989469,20.3862773
35,Кнеза Михаила,11000,44.8177377,20.4567567
68b,Нехруова,11070,44.8042253,20.3770687
68b,Нехруова,11070,44.8042032,20.3770273
68b,Нехруова,11070,44.8042588,20.3771554
4,Пилота Михаила Петровића,11090,44.7455063,20.4366466
457,Булевар краља Александра,11000,44.7816872,20.5231571
526,Булевар краља Александра,11000,44.7823529,20.5219435
58,Добановачки пут,11080,44.8473174,20.3599653
27,Милешевска,11000,44.8000596,20.4797220
31,Прешевска,11000,44.7997024,20.4961011
87,Сутјеска 8,11000,44.8527838,20.4740982
75,Пилота Михаила Петровића,11090,44.7422907,20.4176318
123,Ратка Митровића,11030,44.7533796,20.4250648
1a,Стругарска,11030,44.7771406,20.4065804
15g,Борска,11090,44.7485240,20.4531727
321,Булевар ослобођења,11010,44.7617406,20.4802689
35,Петра Мартиновића,11030,44.7735750,20.4194718
90g,Омладинских бригада,11000,44.8129735,20.3952153
10,Војводе Вука,11000,44.8105591,20.4833617
10ž,Булевар Михајла Пупина,11070,44.8232455,20.4210157
22,Хаџи-Ђерина,11000,44.8038259,20.4770083
5,Голсвордијева,11000,44.8026655,20.4758325
640,Булевар Краља Александра,11000,44.7763766,20.5392345
9a,Доситејева,11000,44.8178620,20.4617018
2,Краља Милана,11000,44.8110078,20.4617915
227b,Угриновачка,11080,44.8480613,20.3736392
229,Јурија Гагарина,11070,44.7982320,20.3737695
4a,Генерала Михајла Недељковића,11000,44.8152812,20.3857271
95a,Булевар Арсенија Чарнојевића,11070,44.8120865,20.4200236
55,Цара Душана,11000,44.8214277,20.4639928
13,Капетан Мишина,11000,44.8210792,20.4608385
10,Земунски пут,11000,44.8119741,20.4396104
10d,Булевар Михајла Пупина,11070,44.8223024,20.4200249
47,Славка Миљковића,11231,44.7143136,20.4591804
20,Рузвелтова,11000,44.8069445,20.4805778
15,Цетињска,11000,44.8174800,20.4654212
146,Војводе Степе,11010,44.7765581,20.4746636
1d,Церски венац,11136,44.7426344,20.4178047
3,Северни булевар,11000,44.8118854,20.4934806
173,Булевар краља Александра,11000,44.7989148,20.4920609
9,Јове Илића,11000,44.7854765,20.4676698
51,Вишњичка,11000,44.8178456,20.5115106
74c,Дунавска,11000,44.8211723,20.4772058
1,Краља Милутина,11000,44.8059100,20.4686957
20,Милорада Драшковића,11090,44.7204481,20.4237266
41a,Гочка,11090,44.7240141,20.4198816
22,Војислава Илића,11000,44.7938862,20.4934975
195/3,Булевар Зорана Ђинђића,11070,44.8240314,20.4014910
2a,Владимира Гаћиновића,11040,44.7763962,20.4582593
91v,Др Ивана Рибара,11073,44.8011864,20.3706719
91b,Др Ивана Рибара,11073,44.8012338,20.3711403
7,Његошева,11080,44.8465391,20.4096460
46,Бежанијска,11080,44.8434195,20.4068272
35c,Вртларска,11080,44.8406491,20.4066416
7,Карађорђев трг,11080,44.8382016,20.4168591
1,Двадесет другог октобра,11080,44.8377339,20.4158570
16,Студентски трг,11000,44.8195098,20.4592254
16A,Миријевски венац,11000,44.7892972,20.5317731
68a,Металска,11060,44.8202759,20.5360750
13,Булевар Михајла Пупина,11070,44.8147887,20.4329281
5,Двадесет седмог марта,11000,44.8130992,20.4726360
30 a,Добрачина,11158,44.8193330,20.4625183
33,Косовска,11000,44.8126032,20.4659438
6,Господар Јевремова,11000,44.8222378,20.4563363
54a,Bulevar Arsenija Carnojevica,11000,44.8120362,20.4238618
31,Македонска,11000,44.8156207,20.4648849
27,Палмотићева,11000,44.8144728,20.4693055
21,Светогорска,11000,44.8137010,20.4686695
20a,Краља Петра,11000,44.8194627,20.4548005
11,Невесињска,11000,44.7996777,20.4732495
7,Бокељска,11000,44.7920114,20.4682619
73,Краља Петра,11000,44.8216181,20.4572980
66a,Страхињића Бана,11000,44.8204986,20.4630277
63,Тадеуша Кошћушка,11000,44.8305465,20.4561558
16,Павла Вујевића,11090,44.7248158,20.4307082
23,Господар Јевремова,11000,44.8209258,20.4592651
1,Јунска,11000,44.7483331,20.5016646
59B,Добрачина,11000,44.8232884,20.4676641
15,Цетињска,11000,44.8173642,20.4659687
34,Веспучијева,11000,44.8117443,20.3695242
19,Краљевића Марка,11000,44.8139346,20.4545036
8,Милића Ракића,11050,44.7801479,20.5089780
23/1,Милутина Миланковића,11070,44.8164697,20.3998923
23/2,Милутина Миланковића,11070,44.8166745,20.3994248
25,Милутина Миланковића,11070,44.8170210,20.3986315
19b,Милутина Миланковића,11070,44.8154982,20.4022113
153a,Јурија Гагарина,11070,44.8014344,20.3859116
3,Николе Рибарића,11186,44.8576947,20.3702824
2х,Милице Шуваковић,11186,44.8587429,20.3734261
5,Николе Спасића,11000,44.8181036,20.4540954
117,Булевар Михајла Пупина,11070,44.8200439,20.4216407
50,Кнез Милетина,11000,44.8190480,20.4736938
20,Љутице Богдана,11000,44.7839163,20.4625002
1,Чика Љубина,11000,44.8179191,20.4572783
30,Цетињска,11000,44.8181834,20.4664767
4,Кнеза Данила,11000,44.8125580,20.4758130
41,Небојшина,11000,44.7945094,20.4670862
165e,Булевар Михајла Пупина,11070,44.8224614,20.4153378
4,Македонска,11103,44.8153292,20.4612469
12,Генерала Штефаника,11221,44.7590494,20.4905534
60/2,Звечанска,11040,44.7931011,20.4590021
3b,Милутина Миланковића,11070,44.8072520,20.4200042
10,Васе Чарапића,11000,44.8171977,20.4599341
7,Краљевића Марка,11000,44.8135390,20.4530643
68,Војвођанска,11070,44.8076121,20.3749497
63a,Нехруова,11070,44.8055630,20.3789475
1,Саше Симеуновића,11000,44.7598800,20.4752351
68a,Булевар деспота Стефана,11000,44.8163610,20.4760365
2,Рајачићева,11080,44.8450803,20.4101359
3,Спасеновићева,11000,44.7578853,20.4147903
10,Милоша Поцерца,11000,44.8038114,20.4547567
3,Браће Југовића,11000,44.8186443,20.4601073
1g,Милутина Миланковића,11070,44.8055559,20.4219525
1d,Милутина Миланковића,11070,44.8053960,20.4223199
1ž,Милутина Миланковића,11070,44.8066107,20.4222724
82a,Нехруова,11070,44.8042920,20.3756621
2,Хајдук Вељков венац,11000,44.8069080,20.4574725
8,Вишеградска,11000,44.8019093,20.4535631
18,Вишеградска,11000,44.8013110,20.4544580
18a,Вишеградска,11000,44.8010224,20.4549901
81/II-4,Булевар Зорана Ђинђића,11070,44.8165217,20.4184741
43,Светог Саве,11111,44.7991609,20.4686183
21,Невесињска,11000,44.8000219,20.4739315
9,Кнеза Милоша,11000,44.8094714,20.4651303
77,Цара Николаја II,11000,44.7981667,20.4825802
13,Боре Марковића,11000,44.7817871,20.4203534
17,Устаничка,11000,44.7897857,20.4710737
37,Капетан Мишина,11000,44.8231985,20.4631707
3,Радничка,11000,44.7886045,20.4230783
15a,Краља Милутина,11000,44.8050330,20.4681576
11,Дечанска,11000,44.8143689,20.4630552
35,Теразије,11000,44.8117405,20.4619726
38,Светогорска,11000,44.8131552,20.4692168
632,Булевар краља Александра,11000,44.7747740,20.5359698
40,Чаробне фруле,11160,44.7932104,20.5361160
126,Булевар краља Александра,11000,44.8036504,20.4791656
21,Краља Петра,11000,44.8190866,20.4539692
32,Немањина,11000,44.8031307,20.4640933
58,Рајка Ружића,11147,44.7564367,20.4128715
58a,Рајка Ружића,11147,44.7564371,20.4129895
31,Зорина,11147,44.7568806,20.4124181
31a,Зорина,11147,44.7568062,20.4124238
29,Зорина,11147,44.7570285,20.4123940
29a,Зорина,11147,44.7569694,20.4123970
32a,Насеље Земун поље Мала пруга,11283,44.8612199,20.3507594
100,Булевар краља Александра,11000,44.8047299,20.4765837
106,Булевар краља Александра,11000,44.8045495,20.4770107
92,Булевар краља Александра,11000,44.8051693,20.4755082
88,Булевар краља Александра,11000,44.8050991,20.4750621
170,Устаничка,11050,44.7831652,20.5009824
34b,Косте Нађа,11160,44.7916934,20.5401447
450,Булевар краља Александра,11000,44.7889329,20.5159518
154,Димитрија Туцовића,11050,44.7996167,20.5001809
40I,Ресавска,11000,44.8057745,20.4625471
326,Булевар краља Александра,11000,44.7938315,20.5018130
31,Краља Милутина,11000,44.8041412,20.4665794
154a,Димитрија Туцовића,11000,44.7995175,20.5005619
85,Булевар Зорана Ђинђића,11070,44.8161020,20.4185232
171,Булевар краља Александра,11000,44.7989501,20.4914348
179,Булевар краља Александра,11000,44.7985456,20.4924006
33,Прешевска,11000,44.7993719,20.4978078
165а,Булевар Михајла Пупина,11070,44.8221595,20.4153678
181,Булевар Михајла Пупина,11070,44.8311014,20.4102396
181,Булевар Михајла Пупина,11070,44.8313884,20.4101873
304,Булевар краља Александра,11000,44.7952094,20.4988716
13,Пожаревачка,11000,44.8017071,20.4799114
108,Димитрија Туцовића,11000,44.8010509,20.4936569
144,Димитрија Туцовића,11000,44.8001295,20.4978936
39a,Булевар маршала Толбухина,11070,44.8299081,20.4077450
155,Димитрија Туцовића,11000,44.8006779,20.4965307
3,Шпанских бораца,11070,44.8183028,20.4236710
170,Устаничка,11000,44.7830731,20.5010534
170,Устаничка,11000,44.7832431,20.5008570
170e,Устаничка,11000,44.7830948,20.5017680
314,Булевар краља Александра,11000,44.7946453,20.5002049
328,Булевар краља Александра,11000,44.7938637,20.5019677
176,Господара Вучића,11000,44.7908589,20.4932750
119b,Димитрија Туцовића,11000,44.8014303,20.4936668
32,Димитрија Туцовића,11000,44.8043361,20.4859155
1,Станислава Сремчевића,11000,44.7950295,20.4984953
33,Милана Ракића,11000,44.7984819,20.4978885
38,Народних хероја,11070,44.8218221,20.4046765
12v,Петра Коњовића,11000,44.7520838,20.4485523
187,Булевар краља Александра,11000,44.7981904,20.4932222
52,Прешевска,11000,44.7993286,20.4957796
242,Булевар краља Александра,11000,44.7983982,20.4917788
2,Рузвелтова,11000,44.8060116,20.4791904
132,Булевар краља Александра,11000,44.8033909,20.4798222
29,Балканска,11000,44.8103653,20.4596601
154,Димитрија Туцовића,11000,44.7995401,20.5000554
32,Булевар Пека Дапчевића,11000,44.7645206,20.4874612
7,Милутина Миланковића,11070,44.8109019,20.4127030
54,Милешевска,11000,44.7983025,20.4834382
5b,Милентија Поповића,11070,44.8115935,20.4354440
24,Кнез Милетина,11000,44.8186128,20.4711023
58a,Вајара Живојина Лукића,11070,44.8206932,20.3933375
2,Љубостињска,11000,44.8019660,20.4802218
4a,Палацкова,11040,44.7730297,20.4639502
4b,Палацкова,11040,44.7730567,20.4640035
2,Андре Николића,11000,44.7885870,20.4405916
2б,Андре Николића,11000,44.7886407,20.4402498
2v,Андре Николића,11000,44.7886401,20.4400992
24,Николаја Гогоља,11030,44.7802280,20.4149926
64,Панчевачки пут,11000,44.8501847,20.5305182
1,Учитеља Милоша Јанковића,11000,44.7976141,20.5029136
32д,Милентија Поповића,11070,44.8103877,20.4287386
32б,Милентија Поповића,11070,44.8105512,20.4283853
32г,Милентија Поповића,11070,44.8110460,20.4283611
32г,Милентија Поповића,11070,44.8104539,20.4283222
31,Дубљанска,11000,44.7958645,20.4723814
2,Катанићева,11000,44.7997166,20.4709955
15,Царице Милице,11000,44.8159651,20.4556163
2,Зетска,11000,44.8170531,20.4640800
96,Медаковићева,11040,44.7752610,20.4975649
98,Булевар краља Александра,11000,44.8048833,20.4761988
28,Булевар краља Александра,11000,44.8091080,20.4678531
4,Тршћанска,11000,44.7996539,20.4909439
8,Ћирила и Методија,11000,44.8045251,20.4826780
170,Устаничка,11000,44.7832367,20.4999879
253,Булевар краља Александра,11000,44.7945454,20.5017891
239,Булевар краља Александра,11000,44.7953523,20.5002660
357a,Војводе Степе,11000,44.7389930,20.5052562
100,Булевар краља Александра,11000,44.8047719,20.4764649
10,Краља Милана,11000,44.8103019,20.4620598
138,Димитрија Туцовића,11000,44.8003958,20.4966776
3,Синђелићева,11000,44.8027523,20.4794103
73,Булевар краља Александра,11000,44.8057154,20.4762358
54,Сарајевска,11000,44.8018064,20.4526330
10,Булевар хероја са Кошара,11000,44.8115020,20.4052114
343,Булевар ослобођења,11000,44.7605058,20.4811847
39,Светог Николе,11000,44.8037164,20.4951542
39,Светог Николе,11000,44.8040133,20.4945614
61a,Облаковска,11000,44.7946862,20.4592734
154а,Димитрија Туцовића,11000,44.7995596,20.5004744
84,Панчевачки пут,11000,44.8512693,20.5306548
165,Тошин бунар,11000,44.8145203,20.3941057
18a,Олге Јовановић,11000,44.7916265,20.5052827
80,Паунова,11042,44.7510977,20.4807418
235,Кумодрашка,11000,44.7686820,20.4856092
321ж,Булевар краља Александра,11000,44.7926644,20.5090526
5a,Мис Ирбијеве,11000,44.7882829,20.5077155
1а,Јована Рајића,11000,44.7972465,20.4875726
79,Булевар краља Александра,11000,44.8031693,20.4814392
20,Војислава Илића,11000,44.7939668,20.4932691
42,Војислава Илића,11000,44.7926996,20.4959439
41,Пожешка,11000,44.7821514,20.4194455
170,Устаничка,11000,44.7832346,20.5004087
112,Војводе Степе,11000,44.7790281,20.4730213
2,Кумановска,11000,44.8056337,20.4740619
4,Народних хероја,11070,44.8253161,20.4077884
2b,Булевар ЈНА,11042,44.7511704,20.4800349
239,Булевар краља Александра,11000,44.7951749,20.5003183
261,Булевар краља Александра,11000,44.7942769,20.5028081
265,Булевар краља Александра,11000,44.7942669,20.5032334
211,Булевар краља Александра,11000,44.7963584,20.4974503
23,Жичка,11000,44.7960774,20.4897709
27,Теразије,11000,44.8129948,20.4614176
1,Станислава Сремчевића,11000,44.7949685,20.4983995
193,Булевар краља Александра,11000,44.7979643,20.4938130
251,Булевар краља Александра,11000,44.7946464,20.5015783
257,Булевар краља Александра,11000,44.7943742,20.5022261
17,Станислава Сремчевића,11000,44.7933900,20.4966706
330,Булевар краља Александра,11000,44.7937633,20.5022743
7,Радоја Дакића,11080,44.8385675,20.4087031
272,Булевар краља Александра,11000,44.7973653,20.4939539
272,Булевар краља Александра,11000,44.7974091,20.4938359
152,Булевар Зорана Ђинђића,11070,44.8263386,20.4019091
152,Булевар Зорана Ђинђића,11070,44.8265460,20.4018635
152a,Булевар Зорана Ђинђића,11070,44.8264128,20.4009783
152a,Булевар Зорана Ђинђића,11070,44.8262340,20.4012573
125b,Устаничка,11050,44.7843309,20.4916846
15,Велисава Вуловића,11040,44.7674117,20.4557132
167,Булевар Михајла Пупина,11070,44.8232461,20.4137676
112,Јужни булевар,11000,44.7933827,20.4824901
4,Милоша Савковића,11000,44.7988111,20.5006820
6,Милоша Савковића,11000,44.7986188,20.5011203
1а,Чингријина,11000,44.7992601,20.5046002
43,Светог Николе,11000,44.8014538,20.4993404
6,Његошева,11000,44.8050510,20.4663451
274,Булевар краља Александра,11000,44.7971062,20.4937186
124a,Прешевска,11000,44.7976533,20.5060938
80,Милана Ракића,11000,44.7960263,20.5063674
132,Булевар краља Александра,11000,44.8034209,20.4797475
391,Булевар краља Александра,11000,44.7893265,20.5163793
391,Булевар краља Александра,11000,44.7892095,20.5162791
16а,Булевар уметности,11070,44.8177478,20.4124074
3,Шпанских бораца,11070,44.8187143,20.4241313
92,Булевар краља Александра,11000,44.8051349,20.4756019
94,Булевар краља Александра,11000,44.8049769,20.4759962
94,Булевар краља Александра,11000,44.8050414,20.4758319
90,Булевар краља Александра,11000,44.8052179,20.4753800
310,Булевар краља Александра,11000,44.7949524,20.4994944
391,Булевар краља Александра,11000,44.7893217,20.5161673
308,Булевар краља Александра,11000,44.7950938,20.4991891
318,Булевар краља Александра,11000,44.7944762,20.5006737
316,Булевар краља Александра,11000,44.7945710,20.5004477
312,Булевар краља Александра,11000,44.7947528,20.4999877
31,Слободанке Данке Савић,11000,44.7943197,20.4998274
332,Булевар краља Александра,11000,44.7937214,20.5023887
334,Булевар краља Александра,11000,44.7936005,20.5026650
336,Булевар краља Александра,11000,44.7935082,20.5028930
336,Булевар краља Александра,11000,44.7934407,20.5030499
324,Булевар краља Александра,11000,44.7939241,20.5018698
9,Мишка Јовановића,11000,44.7845013,20.4824571
115,Булевар Михајла Пупина,11070,44.8170897,20.4283427
14,Херцеговачка,11040,44.8090443,20.4493199
21,Балканска,11000,44.8112257,20.4603469
11,Гвоздићева,11000,44.7963803,20.4929541
85,Булевар краља Александра,11000,44.8027857,20.4823379
160,Булевар краља Александра,11000,44.8016305,20.4839633
74,Прешевска,11000,44.7981285,20.5005020
154,Булевар краља Александра,11000,44.8019855,20.4830809
133,Булевар краља Александра,11000,44.8004036,20.4879412
8,Тршћанска,11000,44.8003472,20.4910378
259,Булевар краља Александра,11000,44.7943002,20.5025359
13,Велимира Бате Живојиновића,11000,44.7974366,20.4848822
18,Београдска,11000,44.8039653,20.4679833
15,Браће Недића,11000,44.8053449,20.4724356
71a,Краља Петра,11000,44.8215849,20.4571225
191,Булевар краља Александра,11000,44.7979972,20.4937240
1,Милана Ракића,11000,44.7993439,20.4913413
1,Милана Ракића,11000,44.7993780,20.4911579
1,Милана Ракића,11000,44.7993633,20.4912337
1,Милана Ракића,11000,44.7993723,20.4911968
104,Булевар краља Александра,11000,44.8046964,20.4766755
46,Булевар краља Александра,11000,44.8084001,20.4690232
87/9,Булевар краља Александра,11000,44.8027205,20.4825308
321,Булевар краља Александра,11000,44.7926795,20.5086528
40,Немањина,11000,44.8025357,20.4650321
40,Немањина,11000,44.8024902,20.4651200
80,Булевар краља Александра,11000,44.8061000,20.4733508
1,Рузвелтова,11000,44.8054753,20.4778234
1,Рузвелтова,11000,44.8053117,20.4775686
1,Рузвелтова,11000,44.8056485,20.4780943
193,Булевар краља Александра,11000,44.7978736,20.4939653
193,Булевар краља Александра,11000,44.7978894,20.4939302
189,Булевар краља Александра,11000,44.7981335,20.4933687
160,Булевар краља Александра,11000,44.8016513,20.4839114
41/12,Београдска,11000,44.8059895,20.4699810
36,Булевар краља Александра,11000,44.8088296,20.4682731
30-32,Булевар краља Александра,11000,44.8090840,20.4678932
30-32,Булевар краља Александра,11000,44.8090562,20.4679376
38,Булевар краља Александра,11000,44.8087997,20.4683351
14,Жоржа Клемансоа,11000,44.8216016,20.4692430
15,Чика Љубина,11000,44.8173268,20.4584199
7,Грачаничка,11000,44.8180645,20.4539841
119b,Димитрија Туцовића,11000,44.8013958,20.4934484
5,Иван-бегова,11000,44.8175954,20.4534671
23,Топличин венац,11000,44.8165931,20.4540806
33,Краљице Наталије,11000,44.8095775,20.4608807
21,Студентски трг,11000,44.8203757,20.4572216
8,Светог Саве,11000,44.8014881,20.4670268
25,Краља Милана,11000,44.8067719,20.4646045
2,Војводе Довезенског,11000,44.7939745,20.5038467
42,Кајмакчаланска,11000,44.7980067,20.4900540
23,Кнеза Милоша,11000,44.8080389,20.4634553
8,Кајмакчаланска,11000,44.7988796,20.4865667
41,Курсулина,11000,44.8015588,20.4750376
58,Булевар краља Александра,11000,44.8074113,20.4705120
48,Баба-Вишњина,11000,44.8017079,20.4748766
41,Курсулина,11000,44.8014718,20.4751568
4,Македонска,11000,44.8156799,20.4611730
17,Браће Радовановића,11000,44.7934353,20.4810230
77,Војводе Степе,11000,44.7813453,20.4722456
69,Булевар краља Александра,11000,44.8064220,20.4738540
38,Војводе Степе,11000,44.7839478,20.4695935
86,Булевар краља Александра,11000,44.8054360,20.4748512
1,Голсвордијева,11000,44.8025365,20.4756314
81,Војводе Степе,11000,44.7812443,20.4723334
71,Војводе Степе,11000,44.7816446,20.4720553
1,Патријарха Варнаве,11000,44.7969055,20.4746595
62,Крунска,11000,44.8040144,20.4713950
38,Крунска,11000,44.8063198,20.4684722
87-89,Краља Петра,11000,44.8230214,20.4591245
3,Миленка Веснића,11040,44.7839424,20.4502235
175,Булевар краља Александра,11000,44.7987530,20.4919273
35,Краља Милана,11000,44.8045755,20.4657793
297,Булевар краља Александра,11000,44.7936220,20.5044824
297,Булевар краља Александра,11000,44.7932391,20.5054376
49,Светозара Марковића,11000,44.8041719,20.4646947
42,Бирчанинова,11000,44.8015757,20.4640638
221,Јурија Гагарина,11070,44.7974899,20.3772402
19,Бранкова,11000,44.8147104,20.4546661
136,Булевар краља Александра,11000,44.8030781,20.4800819
5,Милешевска,11000,44.8013357,20.4767532
14,Дечанска,11000,44.8132202,20.4626291
67,Војислава Илића,11000,44.7929905,20.4964023
187,Булевар краља Александра,11000,44.7981693,20.4932796
189,Булевар краља Александра,11000,44.7981021,20.4934987
181,Булевар краља Александра,11000,44.7983912,20.4927381
63,Ломина,11000,44.8103729,20.4589255
53,Београдска,11000,44.8066066,20.4707733
19,Жоржа Клемансоа,11000,44.8219067,20.4687393
62-64,Цара Душана,11000,44.8214099,20.4626274
38,Војислава Илића,11000,44.7928410,20.4954317
44,Војислава Илића,11000,44.7925479,20.4961036
158,Булевар краља Александра,11000,44.8017136,20.4837695
9,Обилићев венац,11000,44.8164775,20.4567940
28,Двадесет седмог марта,11000,44.8112876,20.4735606
130,Устаничка,11000,44.7836683,20.4942268
130,Устаничка,11000,44.7838521,20.4948193
6a,Шумадијски трг,11000,44.7821122,20.4156291
77,Булевар краља Александра,11000,44.8035270,20.4815513
288,Булевар краља Александра,11000,44.7964678,20.4963255
26,Димитрија Туцовића,11000,44.8052015,20.4844985
4,Тршћанска,11000,44.7997356,20.4909584
19,Старца Вујадина,11000,44.7992499,20.4861483
4,Тршћанска,11000,44.7997124,20.4909473
74,Прешевска,11000,44.7981586,20.5003699
214,Булевар краља Александра,11000,44.7993898,20.4892903
143,Булевар краља Александра,11000,44.8000388,20.4888504
132,Булевар краља Александра,11000,44.8034490,20.4796732
2,Николе Чупића,11050,44.7913442,20.4996134
15,Максима Горког,11000,44.7996522,20.4764537
3,Обреновачки друм,11030,44.7834470,20.4087363
8/2,Теразије,11000,44.8142487,20.4601312
1,Милана Ракића,11000,44.7993988,20.4910775
173,Булевар краља Александра,11000,44.7987822,20.4918344
73a,Војислава Илића,11000,44.7918014,20.4975259
82,Булевар краља Александра,11000,44.8058863,20.4738585
115,Димитрија Туцовића,11000,44.8015647,20.4929918
8,Врањска,11000,44.7964368,20.4940529
8,Врањска,11000,44.7964683,20.4939939
6,Врањска,11000,44.7965454,20.4937620
33,Војводе Шупљикца,11000,44.7990188,20.4857358
1,Станислава Сремчевића,11000,44.7947911,20.4982656
5,Станислава Сремчевића,11000,44.7946955,20.4981838
170v,Устаничка,11000,44.7832888,20.5001291
170a,Устаничка,11000,44.7828386,20.5010409
7,Радивоја Кораћа,11000,44.7988970,20.4842526
74,Булевар краља Александра,11000,44.8064296,20.4725188
10z,Булевар Михајла Пупина,11070,44.8234884,20.4202823
20,Војводе Шупљикца,11000,44.8013776,20.4827596
22,Војводе Шупљикца,11000,44.8013272,20.4828066
44,Нишка,11000,44.8011390,20.4826262
5a,Средачка,11000,44.8018623,20.4812284
2,Љубостињска,11000,44.8021677,20.4803624
23,Милана Ракића,11000,44.7986950,20.4941572
23,Бана Иваниша,11000,44.7983435,20.5073624
34,Захумска,11000,44.8032028,20.4831696
174,Булевар краља Александра,11000,44.8009305,20.4854642
4,Масарикова,11000,44.8065212,20.4639173
3,Катарине Амброзић,11000,44.8036911,20.4908000
18,Брегалничка,11000,44.7963712,20.4909613
9a,Брегалничка,11000,44.7965073,20.4912328
20,Поп Стојанова,11000,44.7967097,20.4897562
24,Поп Стојанова,11000,44.7964893,20.4897938
7,Поп Стојанова,11000,44.7972808,20.4903129
177,Булевар краља Александра,11000,44.7985825,20.4923160
177,Булевар краља Александра,11000,44.7986158,20.4922436
40,Владимира Поповића,11073,44.8041929,20.4281659
48,Баба-Вишњина,11000,44.8017463,20.4748378
126,Прешевска,11000,44.7976546,20.5064326
16,Чингријина,11000,44.7983034,20.5056164
18,Чингријина,11000,44.7982692,20.5058631
12,Војислава Илића,11000,44.7942806,20.4923617
13,Милентија Поповића,11070,44.8060363,20.4287403
3,Уралска,11000,44.8171650,20.5131525
3,Трг републике,11001,44.8162606,20.4597016
35,Јапанска,11073,44.8013705,20.3710782
14/d,Јурија Гагарина,11070,44.8055890,20.4097307
48,Сретена Младеновића Мике,11090,44.7339903,20.4228003
29,Топличин венац,11000,44.8164952,20.4531280
40,Светогорска,11000,44.8130810,20.4692917
14a,Пастерова,11000,44.7981023,20.4641500
171,Булевар краља Александра,11000,44.7989024,20.4915561
7a,Војводе Довезенског,11000,44.7943675,20.5039770
55,Видиковачки венац,11090,44.7410048,20.4246146
8,Др Суботића старијег,11000,44.7973434,20.4611161
5,Др Суботића старијег,11000,44.7969417,20.4631519
12,Булевар ослобођења,11000,44.7964644,20.4647477
14,Булевар ослобођења,11000,44.7965015,20.4643065
114,Војводе Степе,11010,44.7785420,20.4733587
116,Војводе Степе,11010,44.7784061,20.4734485
118,Војводе Степе,11010,44.7778434,20.4732624
120,Војводе Степе,11010,44.7776377,20.4734100
85,Јове Илића,11000,44.7794262,20.4720936
87,Јове Илића,11000,44.7792530,20.4722036
89,Јове Илића,11000,44.7791045,20.4723028
93,Јове Илића,11000,44.7788589,20.4728018
95,Јове Илића,11000,44.7786285,20.4727910
97,Јове Илића,11000,44.7785561,20.4724718
106,Војводе Степе,11000,44.7796138,20.4728178
108,Војводе Степе,11010,44.7794890,20.4729131
110,Војводе Степе,11000,44.7792444,20.4730685
112,Војводе Степе,11000,44.7791959,20.4730941
15,Др Суботића старијег,11000,44.7965649,20.4606870
121,Кумодрашка,11000,44.7743793,20.4820119
104,Војводе Степе,11010,44.7796625,20.4725056
26,Војводе Степе,11000,44.7847452,20.4687697
26a,Војводе Степе,11000,44.7846272,20.4689213
30,Војводе Степе,11000,44.7845363,20.4690747
32,Војводе Степе,11000,44.7843987,20.4692256
2a,Радничка,11000,44.7861400,20.4150628
119,Димитрија Туцовића,11000,44.8014299,20.4933738
1,Раде Кончара,11000,44.7899993,20.4795000
50,Ђорђа Кратовца,11000,44.7865815,20.4842357
38,Делиградска,11000,44.7981480,20.4602720
2,Пастерова,11000,44.7993367,20.4609948
38b,Витановачка,11000,44.7785128,20.4806112
98,Кумодрашка,11000,44.7781890,20.4801002
1,Једренска,11000,44.8005138,20.4876299
8,Милана Ракића,11000,44.7987551,20.4924589
89,Булевар краља Александра,11000,44.8025827,20.4828043
4,Земунска,11070,44.8109675,20.3849373
4,Гвоздићева,11000,44.7973184,20.4930598
24,Скерлићева,11000,44.7967502,20.4684776
43K,Војводе Влаховића,11000,44.7603141,20.5061896
5v,Милентија Поповића,11070,44.8108047,20.4343382
20,Кајмакчаланска,11000,44.7985994,20.4876030
9,Бранка Крсмановића,11000,44.7987562,20.4879320
133,Булевар краља Александра,11000,44.8004460,20.4878536
140,Булевар краља Александра,11000,44.8030698,20.4805072
136,Булевар краља Александра,11000,44.8032417,20.4801464
76,Сарајевска,11000,44.8005685,20.4511943
15-23,Теразије,11000,44.8134772,20.4611917
15-23,Теразије,11000,44.8137843,20.4610295
27,Кнеза Михаила,11000,44.8167562,20.4579933
28,Змај Јовина,11000,44.8173244,20.4576686
33,Кнеза Михаила,11000,44.8176257,20.4569432
28,Кнеза Михаила,11000,44.8173741,20.4576003
35,Кнеза Михаила,11000,44.8178550,20.4565851
220,Господара Вучића,11000,44.7921920,20.5021701
49V,Војводе Влаховића,11010,44.7602076,20.5065274
259,Булевар краља Александра,11000,44.7943834,20.5025526
21,Радослава Грујића,11000,44.8002907,20.4801275
226,Господара Вучића,11000,44.7925603,20.5036955
194,Устаничка,11000,44.7822660,20.5074660
70,Проте Матеје,11000,44.8064005,20.4720746
48,Милана Ракића,11000,44.7971276,20.5008175
48,Милана Ракића,11000,44.7972823,20.5005431
228b,Мајора Зорана Радосављевића,11273,44.8959211,20.2935016
35,Краља Милутина,11000,44.8044044,20.4658680
10,Славка Ћурувије,11000,44.7616543,20.4547522
123,Булевар ослобођења,11000,44.7802305,20.4684259
31,Краља Милана,11000,44.8063035,20.4647770
67,Господар Јованова,11000,44.8200283,20.4626779
117,Димитрија Туцовића,11000,44.8016418,20.4927420
115,Димитрија Туцовића,11000,44.8016636,20.4926696
13-21,Голсвордијева,11000,44.8029730,20.4762383
458,Војводе Степе,11000,44.7459314,20.4968173
3,Краљице Наталије,11000,44.8138097,20.4579990
27,Теразије,11000,44.8130701,20.4614512
53,Макензијева,11000,44.8003166,20.4711537
86,Живка Давидовића,11000,44.7862061,20.5143215
96,Кумодрашка,11000,44.7782481,20.4801069
94,Кумодрашка,11000,44.7783519,20.4800640
22a,Милована Шарановића,11000,44.7768704,20.4799495
22,Милована Шарановића,11000,44.7769136,20.4799303
1F,Прве пруге,11070,44.8346133,20.4154836
10j,Џона Кенедија,11080,44.8341830,20.4153980
38d,Витановачка,11000,44.7786974,20.4816793
25,Јове Илића,11000,44.7843055,20.4682786
44,Војводе Шупљикца,11000,44.7982222,20.4863740
153,Кумодрашка,11010,44.7721638,20.4825912
27,Светог Николе,11000,44.8044163,20.4939975
70ž,Гостиварска,11000,44.7754341,20.4761070
70e,Гостиварска,11000,44.7755502,20.4764208
70đ,Гостиварска,11000,44.7751827,20.4762948
70d,Гостиварска,11000,44.7753160,20.4766381
70b,Гостиварска,11000,44.7751884,20.4769814
39,Зрењанински пут,11210,44.8466998,20.4877305
98,Аутопут за Нови Сад,11000,44.8624243,20.3524278
36,Кнегиње Зорке,11000,44.8012800,20.4703046
225,Јурија Гагарина,11070,44.7994218,20.3763918
8,Принцезе Оливере,11080,44.8440201,20.4145785
10,Масариков трг,11080,44.8449111,20.4157058
4,Словенска,11080,44.8378975,20.3741780
6,Словенска,11080,44.8379035,20.3741323
33,Данијелова,11000,44.7820045,20.4797038
40,Цвијићева,11000,44.8158339,20.4767956
6,Милана Ракића,11000,44.7989724,20.4926158
125,Булевар краља Александра,11000,44.8010733,20.4863919
121a,Булевар краља Александра,11000,44.8012408,20.4859735
99,Булевар краља Александра,11000,44.8021533,20.4837388
54,Београдска,11000,44.8060446,20.4705134
1-3,Јована Рајића,11000,44.7971665,20.4872093
88,Булевар Зорана Ђинђића,11070,44.8188572,20.4174716
1,Жичка,11000,44.7976056,20.4875385
39,Војислава Илића,11000,44.7940654,20.4937867
21,Војислава Илића,11000,44.7947511,20.4920231
21,Војислава Илића,11000,44.7947842,20.4919448
31,Војислава Илића,11000,44.7943961,20.4929941
22v,Јурија Гагарина,11070,44.8050329,20.4003643
22e,Јурија Гагарина,11070,44.8050335,20.3998451
20d,Јурија Гагарина,11070,44.8050574,20.4019721
22g,Јурија Гагарина,11070,44.8050327,20.4002375
22d,Јурија Гагарина,11070,44.8051244,20.3999805
22e,Јурија Гагарина,11070,44.8051240,20.3999112
22k,Јурија Гагарина,11070,44.8053977,20.3995720
20a,Јурија Гагарина,11070,44.8053990,20.4020262
20ć,Јурија Гагарина,11070,44.8053409,20.4008896
20s,Јурија Гагарина,11070,44.8051072,20.4009018
22i,Јурија Гагарина,11070,44.8052723,20.3995710
22nj,Јурија Гагарина,11070,44.8053833,20.4003625
19,Уроша Мартиновића,11070,44.8057943,20.4001987
4,Uroša Martinovića,11000,44.8065258,20.4015611
7e,Борска,11090,44.7471381,20.4477804
19,Јурија Гагарина,11070,44.8033761,20.4105008
19b,Јурија Гагарина,11070,44.8033330,20.4098014
19v,Јурија Гагарина,11070,44.8034401,20.4092497
141b,Војислава Илића,11050,44.7859856,20.5006653
167,Булевар Михајла Пупина,11000,44.8229094,20.4133401
42,Македонска,11000,44.8151988,20.4647145
77,Његошева,11000,44.8005189,20.4745419
23,Батајнички друм,11000,44.8698395,20.3436208
182,Устаничка,11050,44.7823919,20.5067230
154,Димитрија Туцовића,11000,44.7995948,20.5000706
10,Пилота Михаила Петровића,11090,44.7456322,20.4363459
102a,Димитрија Туцовића,11000,44.8011769,20.4932409
115,Димитрија Туцовића,11000,44.8016937,20.4925856
119,Димитрија Туцовића,11000,44.8014734,20.4932467
121,Димитрија Туцовића,11000,44.8013278,20.4936920
119b,Димитрија Туцовића,11000,44.8013729,20.4935351
16,Војислава Илића,11000,44.7941019,20.4929658
24,Бранка Крсмановића,11000,44.8010400,20.4898407
35,Кајмакчаланска,11000,44.7985579,20.4885117
1,Стара,11221,44.7444512,20.5009475
60,Прешевска,11000,44.7990734,20.4965675
46,Прешевска,11000,44.7994528,20.4952195
22e,Јурија Гагарина,11070,44.8050277,20.3997762
22b,Јурија Гагарина,11070,44.8050947,20.4004015
22a,Јурија Гагарина,11070,44.8051609,20.4004019
22z,Јурија Гагарина,11070,44.8051253,20.3995535
22j,Јурија Гагарина,11070,44.8053601,20.3995550
22l,Јурија Гагарина,11070,44.8053827,20.3998381
22lj,Јурија Гагарина,11070,44.8054411,20.3998773
22m,Јурија Гагарина,11070,44.8053792,20.4001022
22o,Јурија Гагарина,11070,44.8053012,20.4004028
22n,Јурија Гагарина,11070,44.8054397,20.4002372
27,Марка Орешковића,11120,44.8034502,20.4876674
13/23,Марка Орешковића,11120,44.8022873,20.4865808
127,Димитрија Туцовића,11160,44.8011710,20.4941595
332,Булевар краља Александра,11000,44.7936634,20.5025356
9,Брегалничка,11000,44.7966153,20.4912846
7,Брегалничка,11000,44.7967989,20.4914080
9,Силвија Крањчевића,11000,44.7970871,20.4922131
348,Булевар краља Александра,11000,44.7930178,20.5039073
74,Димитрија Туцовића,11000,44.8026751,20.4893063
177,Булевар краља Александра,11000,44.7987275,20.4921808
6,Милана Ракића,11000,44.7989731,20.4925643
8,Милана Ракића,11000,44.7988541,20.4929305
6,Милана Ракића,11000,44.7988051,20.4926877
1,Грчића Миленка,11000,44.7949634,20.4906974
15,Војислава Илића,11000,44.7951157,20.4911401
6,Дечанска,11000,44.8151010,20.4621641
46,Краља Петра,11000,44.8206497,20.4564285
44,Мике Аласа,11000,44.8264561,20.4643212
11a,Бранка Крсмановића,11000,44.7990851,20.4882024
265,Булевар краља Александра,11000,44.7941819,20.5034466
1,Тиршова,11000,44.8012097,20.4620405
88,Војислава Илића,11000,44.7883686,20.4977578
88,Војислава Илића,11000,44.7882810,20.4973581
28,Хаџи-Ђерина,11000,44.8033915,20.4777956
90,Булевар краља Александра,11000,44.8052468,20.4752540
7,Кумановска,11000,44.8050489,20.4736285
22,Македонска,11000,44.8153224,20.4628468
76,Цара Николаја II,11000,44.7980307,20.4826221
37,Косовска,11000,44.8124511,20.4662081
3,Светогорска,11000,44.8149137,20.4663758
136,Пожешка,11000,44.7754910,20.4133876
19,Краља Милана,11000,44.8075114,20.4641068
20,Жичка,11000,44.7968515,20.4884618
139a,Булевар краља Александра,11000,44.8002029,20.4883354
141,Булевар краља Александра,11000,44.8001103,20.4885749
143,Булевар краља Александра,11000,44.8000882,20.4886991
97,Булевар краља Александра,11000,44.8022501,20.4835221
95,Булевар краља Александра,11000,44.8023701,20.4832508
95,Булевар краља Александра,11000,44.8023163,20.4833744
173,Булевар краља Александра,11000,44.7984963,20.4925231
160,Булевар краља Александра,11000,44.8016664,20.4838693
174,Булевар краља Александра,11000,44.8010132,20.4855135
174,Булевар краља Александра,11000,44.8010807,20.4853513
3,Бранка Крсмановића,11050,44.7981057,20.4875759
230,Булевар краља Александра,11000,44.7989205,20.4905218
237,Булевар краља Александра,11000,44.7952635,20.5000957
44,Војислава Илића,11000,44.7925691,20.4959690
69,Војислава Илића,11000,44.7925972,20.4966838
366,Булевар краља Александра,11000,44.7925443,20.5077156
14 Đ,Jurija Gagarina,11000,44.8052314,20.4092251
86,Булевар краља Александра,11000,44.8053847,20.4748561
2a,Браће Југовића,11000,44.8188628,20.4594480
10k,Тадије Сондермајера,11073,44.8151987,20.3963952
16,Суботичка,11000,44.7931321,20.4991543
23,Суботичка,11000,44.7924353,20.5008928
6,Патријарха Гаврила,11000,44.8048066,20.4750820
45,Скадарска,11000,44.8189186,20.4662007
388,Булевар краља Александра,11000,44.7922912,20.5096902
2,Љубостињска,11000,44.8020701,20.4803227
73a,Војислава Илића,11000,44.7919699,20.4973618
207,Господара Вучића,11000,44.7915045,20.4978313
14,Синђелићева,11000,44.8024292,20.4787788
4,Синђелићева,11000,44.8030591,20.4795017
8,Хиландарска,11000,44.8152460,20.4668221
19,Јапанска,11078,44.8040471,20.3767722
8,Бежанијских илегалаца,11070,44.8124911,20.3770914
73,Милешевска,11000,44.7980391,20.4857534
134,Булевар краља Александра,11000,44.8032957,20.4800077
121,Булевар краља Александра,11000,44.8014364,20.4859339
183,Булевар краља Александра,11000,44.7983504,20.4928766
183,Булевар краља Александра,11000,44.7983257,20.4929450
242,Булевар краља Александра,11000,44.7984560,20.4916380
242,Булевар краља Александра,11000,44.7984740,20.4915893
6,Милана Ракића,11000,44.7990239,20.4924077
177,Булевар краља Александра,11000,44.7987003,20.4921469
5,Васе Чарапића,11000,44.8174312,20.4591808
11,Кумановска,11000,44.8045187,20.4733389
114,Булевар краља Александра,11000,44.8042871,20.4776152
112,Булевар краља Александра,11000,44.8044185,20.4773121
114,Булевар краља Александра,11000,44.8043414,20.4775240
114,Булевар краља Александра,11000,44.8042700,20.4776782
12,Светог Саве,11000,44.8012631,20.4671767
26,Петра Кочића,11080,44.8366239,20.4040579
28,Петра Кочића,11080,44.8364588,20.4039067
30,Петра Кочића,11080,44.8362224,20.4036902
32,Петра Кочића,11080,44.8360806,20.4035603
17v,Северни булевар,11000,44.8072014,20.4940646
53-55,Војводе Шупљикца,11000,44.7978959,20.4870759
16,Бранка Крсмановића,11000,44.7992162,20.4884946
28,Војислава Илића,11000,44.7935436,20.4943322
27,Војислава Илића,11000,44.7946400,20.4923554
4,Војислава Илића,11000,44.7946224,20.4916218
2,Војислава Илића,11000,44.7946890,20.4914434
13,Војислава Илића,11000,44.7951449,20.4910639
36,Голсвордијева,11000,44.8035609,20.4772934
23,Хаџи-Ђерина,11000,44.8039196,20.4771392
33,Голсвордијева,11000,44.8038530,20.4774141
28,Хаџи-Ђерина,11000,44.8034310,20.4777373
15,Кичевска,11000,44.8024747,20.4753287
13,Кичевска,11000,44.8027078,20.4751785
87,Крунска,11000,44.8025111,20.4742793
10,Средачка,11000,44.8016930,20.4807019
8,Пожаревачка,11000,44.8015099,20.4799268
8,Пожаревачка,11000,44.8015869,20.4797243
12,Гвоздићева,11000,44.7969470,20.4929930
4,Гвоздићева,11000,44.7974292,20.4930944
5e,Јована Рајића,11000,44.7957314,20.4880659
6,Тодора од Сталаћа,11000,44.7958380,20.4892192
5e,Јована Рајића,11000,44.7957362,20.4880604
9,Петроградска,11000,44.7998500,20.4775146
259,Булевар краља Александра,11000,44.7945300,20.5024929
36a,Милана Ракића,11000,44.7980439,20.4965896
36,Голсвордијева,11000,44.8035534,20.4774931
5,Македонска,11000,44.8163880,20.4616920
16,Браће Југовића,11000,44.8162134,20.4621460
16,Браће Југовића,11000,44.8161753,20.4621393
9a,Савски насип,11070,44.8020313,20.4172308
124,Димитрија Туцовића,11000,44.8005933,20.4954510
7,Дескашева,11050,44.7929500,20.5108760
6,Чика Љубина,11000,44.8169496,20.4591767
86,Милана Ракића,11000,44.7947605,20.5112620
18г,Војводе Бране,11000,44.8047911,20.4834178
56,Булевар деспота Стефана,11108,44.8165445,20.4717658
8,Мите Ружића,11000,44.7912396,20.5148841
19,Господар Јевремова,11000,44.8212614,20.4586174
44,Капетана Милоша Жуњића,11160,44.7945478,20.5419303
170,Устаничка,11000,44.7830357,20.5010597
2a,Ћирила и Методија,11000,44.8038847,20.4812320
3,Уралска,11000,44.8168063,20.5115271
63,Тадеуша Кошћушка,11158,44.8305161,20.4556073
163,Булевар краља Александра,11000,44.7994343,20.4902705
167a,Булевар краља Александра,11000,44.7989942,20.4913389
154,Булевар краља Александра,11000,44.8019575,20.4831608
230,Булевар краља Александра,11000,44.7989527,20.4904366
24,Патријарха Димитрија,11090,44.7355506,20.4464511
2,Рузвелтова,11000,44.8059494,20.4790849
117,Булевар Михајла Пупина,11070,44.8198896,20.4219099
60A,Гаврила Принципа,11000,44.8092796,20.4583039
23a,Милана Узелца,11080,44.8405113,20.3909361
446,Булевар краља Александра,11050,44.7890789,20.5158073
242,Устаничка,11000,44.7821718,20.5129196
9e,Милутина Миланковића,11070,44.8122787,20.4098870
18j,Главна,11080,44.8441488,20.4126033
3j,Магистратски трг,11080,44.8442517,20.4127924
11,Магистратски трг,11080,44.8450216,20.4128895
18g,Главна,11080,44.8439598,20.4126594
18v,Главна,11080,44.8439071,20.4126219
18b,Главна,11080,44.8438859,20.4125623
18a,Главна,11080,44.8438948,20.4124815
21f,Господска,11080,44.8454652,20.4130754
4,Велики трг,11080,44.8460700,20.4133848
26,Змај Јовина,11080,44.8465297,20.4141121
22,Змај Јовина,11080,44.8461892,20.4133825
24,Господска,11080,44.8457975,20.4145160
25,Господска,11080,44.8459819,20.4145538
23,Господска,11080,44.8457404,20.4140505
21,Господска,11080,44.8453067,20.4130365
24,Краља Милана,11000,44.8087503,20.4630383
243,Булевар краља Александра,11000,44.7951459,20.5007678
102a,Угриновачка,11080,44.8485761,20.3938255
2,Црногорска,11000,44.8143941,20.4528685
58,Маријане Грегоран,11000,44.8128747,20.5129324
58,Маријане Грегоран,11000,44.8126790,20.5129338
324,Булевар краља Александра,11000,44.7940659,20.5015446
20,Војводе Мицка Крстића,11000,44.8149757,20.5055990
20,Војводе Мицка Крстића,11000,44.8149830,20.5054662
5,Патриса Лумумбе,11000,44.8153241,20.5063270
14,Војводе Мицка Крстића,11000,44.8162078,20.5037421
18A,Војводе Мицка Крстића,11000,44.8159743,20.5041031
13,Диљска,11060,44.8130374,20.5109892
20,Троношка,11185,44.8764057,20.3147306
5,Вишњићева,11000,44.8206236,20.4586276
84,Вишњичка,11000,44.8168882,20.5130847
3,Уралска,11060,44.8168200,20.5129260
3,Уралска,11000,44.8168179,20.5126228
3,Уралска,11000,44.8168129,20.5123643
84,Вишњичка,11000,44.8168129,20.5121558
84,Вишњичка,11060,44.8168090,20.5118659
84,Вишњичка,11000,44.8168048,20.5112926
84,Вишњичка,11000,44.8168025,20.5110027
84,Вишњичка,11000,44.8168046,20.5109066
3,Уралска,11000,44.8168037,20.5107928
84,Вишњичка,11060,44.8168126,20.5120137
84,Вишњичка,11000,44.8172113,20.5132975
220a,Устаничка,11000,44.7820655,20.5108561
191b,Устаничка,11000,44.7822259,20.5118119
12a,Михаила Тодоровића,11000,44.7799177,20.5103762
1,Војводе Мицка Крстића,11000,44.8163697,20.5040992
44v,Милана Вукоса,11000,44.8044061,20.4895663
7,Велимира Бате Живојиновића,11000,44.7979689,20.4854965
153а,Јурија Гагарина,11197,44.8016689,20.3859471
124,Булевар Пека Дапчевића,11000,44.7494637,20.4993965
31,Краља Милутина,11000,44.8041546,20.4666181
83,Цара Николаја II,11000,44.7981851,20.4832725
104,Далматинска,11000,44.8059254,20.4829544
17,Генерала Штефаника,11000,44.7598750,20.4892778
17,Генерала Штефаника,11000,44.7598903,20.4891889
34,Делиградска,11000,44.7991123,20.4612627
26,Доктора Косте Тодоровића,11000,44.7974747,20.4559851
14b,Пастерова,11000,44.7979242,20.4644985
14A,Пастерова,11000,44.7981429,20.4641727
26b,Суседградска,11090,44.7400728,20.4270732
17,Бранка Крсмановића,11000,44.7993487,20.4883970
5,Студентски трг,11000,44.8193647,20.4565110
2,Мајке Јевросиме,11000,44.8120054,20.4693395
56,Маријане Грегоран,11060,44.8129151,20.5121099
2B,Хозе Мартиа,11000,44.8087203,20.5211671
50,Маријане Грегоран,11060,44.8128718,20.5110016
11A,Дантеова,11060,44.8117881,20.5127685
50,Патриса Лумумбе,11060,44.8148330,20.5117978
8,Главна,11080,44.8426840,20.4131158
106,Вишњичка,11060,44.8173040,20.5190561
49B,Патриса Лумумбе,11060,44.8149175,20.5141775
51A,Патриса Лумумбе,11060,44.8148897,20.5143741
204B,Булевар деспота Стефана,11060,44.8174959,20.4948343
204,Булевар деспота Стефана,11060,44.8174994,20.4952424
204C,Булевар деспота Стефана,11060,44.8175143,20.4954294
204Z,Булевар деспота Стефана,11060,44.8175172,20.4955938
25,Цара Душана,11000,44.8234738,20.4602389
66,Цара Николаја II,11000,44.7979492,20.4814129
24b,Војводе Мицка Крстића,11060,44.8146645,20.5061098
10,Патриса Лумумбе,11060,44.8150282,20.5060890
37B,Маријане Грегоран,11060,44.8131706,20.5113834
14,Стевана Дукића,11060,44.8136369,20.5168194
1,Студентска,11070,44.8276266,20.4045821
57,Париске комуне,11070,44.8284635,20.4011379
46,Булевар маршала Толбухина,11070,44.8296388,20.4015235
45B,Вишњичка,11000,44.8178133,20.5081432
45V,Вишњичка,11000,44.8177958,20.5077407
45A,Маријане Грегоран,11060,44.8131213,20.5126619
43A,Маријане Грегоран,11060,44.8131342,20.5123711
9A,Уралска,11060,44.8158010,20.5184294
18,Диљска,11060,44.8132807,20.5098130
18,Диљска,11060,44.8132792,20.5099411
34a,Булевар маршала Толбухина,11070,44.8304914,20.4088174
44,Булевар маршала Толбухина,11070,44.8298305,20.4020497
1,Сремских одреда,11070,44.8298679,20.4016593
6,Цетињска,11103,44.8158857,20.4658732
58,Вишњичка,11060,44.8176310,20.5002356
72,Вишњичка,11060,44.8174037,20.5037704
45B,Вишњичка,11060,44.8178213,20.5083812
59,Кајмакчаланска,11000,44.7979549,20.4912801
64,Кајмакчаланска,11000,44.7975292,20.4922968
37,Кајмакчаланска,11000,44.7985269,20.4886482
31,Кајмакчаланска,11000,44.7986667,20.4881176
19,Кајмакчаланска,11000,44.7989299,20.4871632
12,Кајмакчаланска,11000,44.7987970,20.4868646
19,Кајмакчаланска,11000,44.7989538,20.4871151
9,Кајмакчаланска,11000,44.7991335,20.4863199
4-6,Милоша Савковића,11000,44.7987626,20.5010803
21-23,Војислава Илића,11000,44.7948167,20.4918701
11a,Горњоградска,11080,44.8445907,20.3940743
87,Димитрија Туцовића,11000,44.8029177,20.4895769
24,Крфска,11000,44.8035370,20.4920481
108,Димитрија Туцовића,11000,44.8010248,20.4937477
2,Милана Ракића,11000,44.7989688,20.4919733
76ž,Јурија Гагарина,11073,44.8024599,20.3815314
76p,Јурија Гагарина,11073,44.8021321,20.3811249
76b,Јурија Гагарина,11073,44.8026233,20.3816208
28,Луја Адамича,11070,44.8352324,20.4053277
7a,Крфска,11000,44.8032755,20.4909744
40,Сарајевска,11000,44.8026703,20.4536348
48,Господара Вучића,11000,44.7912582,20.4780675
21,Поп Стојанова,11000,44.7965363,20.4900413
61b,Др Ивана Рибара,11073,44.8023698,20.3711629
91a,Др Ивана Рибара,11073,44.8017354,20.3710942
91,Др Ивана Рибара,11073,44.8015400,20.3704052
91a,Др Ивана Рибара,11073,44.8016142,20.3711388
12a,Устаничка,11000,44.7877937,20.4741785
56,Кнеза Михаила,11000,44.8200486,20.4534762
12,Краља Петра,11000,44.8184087,20.4538350
18,Вука Караџића,11000,44.8169727,20.4544472
24-26,Кнеза Милоша,11000,44.8055795,20.4597278
43,Булевар војводе Мишића,11000,44.7945719,20.4362718
2,Драгослава Срејовића,11000,44.8166395,20.4867830
2,Драгослава Срејовића,11000,44.8167068,20.4865542
6,Милана Ракића,11000,44.7990129,20.4924711
2a,Вучићев пролаз,11000,44.7925523,20.5039047
22b,Самјуела Бекета,11000,44.7890206,20.5427814
3,Озренска,11000,44.7848461,20.4824715
5a,Мишка Јовановића,11000,44.7847256,20.4817926
5,Мишка Јовановића,11000,44.7847719,20.4817470
24,Видска,11000,44.7846964,20.4829225
69,Миријевски венац,11050,44.7924174,20.5253483
16,Велимира Бате Живојиновића,11000,44.7969772,20.4832516
72-74,Булевар краља Александра,11000,44.8062196,20.4730086
80,Булевар Зорана Ђинђића,11070,44.8182595,20.4182128
1б,Драгослава Срејовића,11060,44.8132234,20.5013301
100,Кумодрашка,11040,44.7780891,20.4801922
173,Булевар краља Александра,11000,44.7988088,20.4917707
1,Тршћанска,11000,44.7996139,20.4906296
87,Булевар краља Александра,11000,44.8027131,20.4824871
128,Булевар краља Александра,11000,44.8035741,20.4793702
11a,Јурија Гагарина,11070,44.8030709,20.4196935
58,Боже Јанковића,11000,44.7822547,20.4759620
58,Боже Јанковића,11000,44.7822198,20.4760482
20,Венизелосова,11000,44.8201353,20.4680223
1,Јабланичка,11030,44.7489952,20.4125195
27b,Жоржа Клемансоа,11000,44.8244193,20.4712301
70,Сарајевска,11000,44.8008183,20.4514496
68,Светозара Марковића,11000,44.8013300,20.4609123
14,Краљице Наталије,11000,44.8125781,20.4583599
39e,Алексиначких рудара,11070,44.8248305,20.4173036
39g,Алексиначких рудара,11070,44.8253051,20.4168198
195,Булевар Михајла Пупина,11070,44.8327877,20.4092469
83a,Пожешка,11030,44.7742187,20.4148389
23,Вишеградска,11000,44.8008254,20.4556988
33,Прешевска,11000,44.7995457,20.4953798
14b,Милошев кладенац,11050,44.7663654,20.5213478
276,Vojvode Stepe,11000,44.7678106,20.4797420
12,Светозара Милетића,11108,44.8212563,20.4721373
12,Светозара Милетића,11108,44.8213483,20.4721485
56,Njegoševa,11000,44.8014122,20.4721378
85,Војислава Илића,11000,44.7907686,20.4983631
133,Јурија Гагарина,11070,44.8021685,20.3895088
13е,Двадесет деветог новембра,11050,44.7755826,20.5442851
39,Светог Николе,11000,44.8039378,20.4946141
12,Ђорђа Станојевића,11070,44.8093548,20.4033824
40a,Аласка,11080,44.8505927,20.3872742
182,Кумодрашка,11000,44.7719558,20.4821514
1A,Јована Мариновића,11000,44.7763876,20.4565010
76h,Јурија Гагарина,11073,44.8023319,20.3809041
76i,Јурија Гагарина,11073,44.8024037,20.3811305
76s,Јурија Гагарина,11073,44.8023412,20.3812392
76c,Јурија Гагарина,11073,44.8024886,20.3808237
76č,Јурија Гагарина,11073,44.8025525,20.3809787
76u,Јурија Гагарина,11073,44.8023515,20.3811731
76n,Јурија Гагарина,11073,44.8021748,20.3813014
76t,Јурија Гагарина,11073,44.8023960,20.3813741
76ć,Јурија Гагарина,11073,44.8024405,20.3814837
76e,Јурија Гагарина,11073,44.8025054,20.3814946
76đ,Јурија Гагарина,11073,44.8029021,20.3818456
76e,Јурија Гагарина,11073,44.8027821,20.3815543
76v,Јурија Гагарина,11073,44.8026584,20.3817059
76g,Јурија Гагарина,11073,44.8027254,20.3818688
76d,Јурија Гагарина,11073,44.8027111,20.3819969
76đ,Јурија Гагарина,11073,44.8028058,20.3822101
76,Јурија Гагарина,11073,44.8025926,20.3823846
76a,Јурија Гагарина,11073,44.8024750,20.3823786
137,Угриновачка,11000,44.8497073,20.3886465
450,Војводе Степе,11221,44.7472471,20.4946922
306,Булевар краља Александра,11000,44.7950827,20.4989403
1,Генерала Жданова,11070,44.8300511,20.4041667
22,Војислава Илића,11000,44.7937745,20.4936272
38A,Витановачка,11040,44.7782963,20.4795935
38A,Витановачка,11040,44.7783268,20.4797062
41,Витановачка,11040,44.7787152,20.4812095
44,Кумодрашка,11040,44.7821697,20.4775872
8a,Владимира Поповића,11070,44.8102364,20.4357465
19a,Јурија Гагарина,11070,44.8033274,20.4099258
129,Булевар краља Александра,11000,44.8006619,20.4873606
21,Прешевска,11000,44.8001769,20.4929724
9,Ендија Ворхола,11030,44.7683753,20.4119729
8,Шумадијски трг,11000,44.7819277,20.4161360
5,Шчербинова,11000,44.7813380,20.4170283
41,Пожешка,11000,44.7822204,20.4195139
46,Пожешка,11030,44.7815727,20.4174936
10L,Булевар Михајла Пупина,11000,44.8238189,20.4160513
13,Чингријина,11000,44.7984418,20.5060930
4,Булевар Михајла Пупина,11070,44.8150790,20.4377375
12,Булевар Вудроа Вилсона,11000,44.8026090,20.4447136
67,Пожешка,11000,44.7777934,20.4149026
86,Живка Давидовића,11000,44.7862185,20.5146781
10,Цариградска,11000,44.8177192,20.4724072
61,Рузвелтова,11000,44.8102728,20.4848933
149a,Јурија Гагарина,11070,44.8017774,20.3872031
6a,Нова 114,11000,44.8273809,20.5508156
42,Цвијићева,11000,44.8157231,20.4769027
181,Тошин бунар,11070,44.8127548,20.3912981
185v,Водоводска,11000,44.7383614,20.3867267
57,Кнеза Вишеслава,11000,44.7471351,20.4300079
1a,Илирска,11000,44.8170208,20.4812934
8b,Булевар Михајла Пупина,11000,44.8208710,20.4216354
76k,Јурија Гагарина,11073,44.8023638,20.3817604
76l,Јурија Гагарина,11073,44.8023132,20.3816375
76m,Јурија Гагарина,11073,44.8022386,20.3814566
76f,Јурија Гагарина,11073,44.8022387,20.3809804
17,Милоша Савковића,11000,44.7989020,20.5016864
42,Добрачина,11000,44.8233040,20.4666815
10,Тршћанска,11000,44.8007435,20.4909231
25,Војводе Саватија,11000,44.8019915,20.4895085
78,Димитрија Туцовића,11000,44.8024214,20.4899011
74,Димитрија Туцовића,11000,44.8027256,20.4892079
15a,Краљевачка,11000,44.7798210,20.4796489
15,Краљевачка,11000,44.7798712,20.4796326
3,Генерала Рашића,11000,44.7658742,20.4805299
3,Генерала Рашића,11000,44.7658338,20.4804015
2,Љутице Богдана,11000,44.7868219,20.4624224
44,Светозара Марковића,11000,44.8032034,20.4631613
1/6,Баштованска,11040,44.7566211,20.4753318
22nj,Јурија Гагарина,11070,44.8054393,20.4003440
22m,Јурија Гагарина,11070,44.8054403,20.4000758
22L,Јурија Гагарина,11070,44.8054416,20.3997311
22K,Јурија Гагарина,11070,44.8054421,20.3995929
22I,Јурија Гагарина,11070,44.8052463,20.3995543
22ž,Јурија Гагарина,11070,44.8050281,20.3996412
22đ,Јурија Гагарина,11070,44.8050272,20.3999148
22d,Јурија Гагарина,11070,44.8050268,20.4000570
22g,Јурија Гагарина,11070,44.8050264,20.4001897
22v,Јурија Гагарина,11070,44.8050259,20.4003265
33,Савска,11000,44.8023995,20.4518104
29,Данијелова,11000,44.7827903,20.4791010
53a,Вишњичка,11000,44.8177360,20.5131000
26v,Николе Груловића,11050,44.7607583,20.5271911
101,Обреновачки друм,11030,44.7530028,20.3434165
10a,Булевар Михајла Пупина,11070,44.8215513,20.4201658
39,Озренска,11000,44.7833294,20.4859268
2,Савска,11250,44.7313490,20.3662853
250,Војводе Степе,11000,44.7695713,20.4785303
80g,Шесте личке дивизије,11000,44.7543412,20.4570640
129,Булевар краља Александра,11000,44.8005937,20.4875168
221,Јурија Гагарина,11070,44.7976733,20.3773321
7,Синђелићева,11000,44.8023981,20.4790481
253,Војводе Степе,11000,44.7704548,20.4788026
173,Булевар краља Александра,11000,44.7987973,20.4918010
6,Маршала Бирјузова,11000,44.8145963,20.4587021
379,Војни пут 1,1080,44.8437895,20.3706491
3,Шпанских бораца,11070,44.8183598,20.4235504
31,Јеврејска,11000,44.8284915,20.4571774
34a,Булевар деспота Стефана,11000,44.8165337,20.4666682
87,Стефана Првовенчаног,11010,44.7836617,20.4837594
63a,Радничка,11030,44.7778152,20.4084907
6V,Смедеревски пут,11309,44.7768377,20.5454879
33,Савска,11000,44.8024339,20.4518447
20,Марка Орешковића,11120,44.8025495,20.4871385
3,Марка Орешковића,11120,44.8017038,20.4860002
30,Димитрија Туцовића,11000,44.8045240,20.4855308
45,Димитрија Туцовића,11000,44.8048447,20.4857226
43,Димитрија Туцовића,11000,44.8049275,20.4855938
47,Димитрија Туцовића,11000,44.8047210,20.4859412
6,Стјепана Љубише,11000,44.8080722,20.4832425
3,Димитрија Туцовића,11000,44.8076555,20.4827223
5,Масарикова,11000,44.8069683,20.4637183
5,Масарикова,11000,44.8070824,20.4636298
320-322,Булевар краља Александра,11000,44.7943010,20.5010617
75,Булевар краља Александра,11000,44.8041798,20.4798200
129,Булевар краља Александра,11000,44.8006225,20.4874489
4,Филипа Вишњића,11080,44.8536400,20.3868221
26,Филипа Вишњића,11080,44.8523597,20.3862984
83,Аутопут за Нови Сад,11080,44.8581613,20.3577868
85,Аутопут за Нови Сад,11080,44.8583085,20.3577027
10,Титова,11250,44.7293726,20.3711298
12,Вујанска,11050,44.7736516,20.5430490
3,Студентски трг,11000,44.8186968,20.4567642
12/13,Albanske Spomenice,11120,44.8102003,20.4810545
33,Карађорђева,11000,44.8160151,20.4508994
25,Савска,11000,44.8032534,20.4525653
64,Димитрија Туцовића,11000,44.8030606,20.4885359
64,Милана Ракића,11000,44.7968359,20.5031984
17,Јове Илића,11042,44.7848864,20.4680590
26,Стевана Дукића,11000,44.8130916,20.5167798
68,Маријане Грегоран,11000,44.8128231,20.5173600
11,Шатор планине,11210,44.8487036,20.4723586
3,Спасовданска,11030,44.7595944,20.4178237
18,Марка Челебоновића,11070,44.8203899,20.3796651
18,Марка Челебоновића,11070,44.8205294,20.3796902
14,Марка Челебоновића,11070,44.8200063,20.3818149
18,Марка Челебоновића,11070,44.8205104,20.3798046
9b,Милутина Миланковића,11070,44.8119855,20.4105352
165d,Булевар Михајла Пупина,11070,44.8228178,20.4156507
11g,Bulevar Milutina Milankovića,11070,44.8128427,20.4065023
21,Шилерова,11080,44.8436872,20.3880420
10,Краља Милана,11000,44.8103010,20.4618900
26,Обилићев венац,11000,44.8151872,20.4585887
14,Херцеговачка,11000,44.8086911,20.4492171
4,Немањина,11000,44.8069711,20.4577182
67,Париске комуне,11070,44.8278472,20.4006018
16,Змаја од Ноћаја,11000,44.8205002,20.4571282
25,Интернационалних бригада,11000,44.7950427,20.4695372
2,Јована Бранковића,11080,44.9060907,20.2752672
3r,Магистратски трг,11080,44.8443238,20.4129079
15,Др Теодора Бороцког,11070,44.8188264,20.3922053
14,Кнеза Михаила,11000,44.8162701,20.4590019
72,Вишњичка,11060,44.8174381,20.5035676
30,Мајска,11221,44.7439700,20.5011803
571,Војводе Степе,11000,44.7390761,20.5070432
18č,Главна,11080,44.8440007,20.4124907
1,Дубровачка,11080,44.8439092,20.4113810
10,Змај Јовина,11080,44.8453920,20.4115070
2,Лагумска,11080,44.8452986,20.4121564
24,Главна,11080,44.8445401,20.4113533
43,Студентска,11070,44.8254185,20.4025380
10g,Булевар Михајла Пупина,11070,44.8219719,20.4209343
59,Булевар Зорана Ђинђића,11070,44.8143608,20.4242357
8,Пјарона де Мондезира,11000,44.8216827,20.4549578
36,Светозара Марковића,11000,44.8060655,20.4666142
37,Кнеза Михаила,11000,44.8180716,20.4561952
26,Кнегиње Љубице,11000,44.8205282,20.4626916
25,Кнеза Михаила,11000,44.8165551,20.4578573
2a,Једренска,11000,44.8006100,20.4880448
25,Макензијева,11000,44.8015140,20.4690435
31,Макензијева,11000,44.8014311,20.4692571
23,Макензијева,11000,44.8018693,20.4684702
25,Макензијева,11000,44.8016432,20.4688485
47,Макензијева,11000,44.8006460,20.4704802
35,Макензијева,11000,44.8012782,20.4694763
5,Цетињска,11000,44.8161759,20.4657775
32b,Господар Јованова,11000,44.8207747,20.4610374
32a,Господар Јованова,11000,44.8208394,20.4609248
59,Београдска,11000,44.8069683,20.4711085
14,Париска,11000,44.8194355,20.4527729
38,Ресавска,11000,44.8058821,20.4632487
36,Ресавска,11000,44.8060353,20.4634389
91,Јове Илића,11000,44.7791748,20.4725777
21,Новобеоградских градитеља,11070,44.7997066,20.3444385
40,Ресавска,11000,44.8057080,20.4630421
40a,Ресавска,11000,44.8055441,20.4628477
77,Булевар Зорана Ђинђића,11070,44.8166184,20.4191170
374a,Мајора Зорана Радосављевића,11000,44.8847434,20.3148419
24,Јасеновачка,11283,44.8435251,20.3603735
23,Батајнички друм,11080,44.8693242,20.3438513
3c,Магистратски трг,11080,44.8442852,20.4130158
38,Немањина,11000,44.8026376,20.4649573
57,Краља Милутина,11000,44.8020401,20.4639665
46,Бирчанинова,11000,44.8014216,20.4643442
16,Делиградска,11000,44.8012533,20.4643547
3,Косовска,11080,44.8428298,20.4140962
1,Београдска,11080,44.8428994,20.4146866
5,Београдска,11080,44.8431750,20.4147618
3,Београдска,11080,44.8430056,20.4147640
22,Брзакова,11040,44.7902483,20.4365968
37,Првомајска,11080,44.8412645,20.3892562
49b,Карађорђева,11000,44.8141333,20.4517136
30,Крунска,11000,44.8069922,20.4675956
1/1b,Карађорђев трг,11080,44.8386515,20.4163485
2,Голсвордијева,11000,44.8022613,20.4755492
15a,Кичевска,11000,44.8021291,20.4755016
47,Крунска,11000,44.8054486,20.4701906
115,Војводе Степе,11000,44.7790719,20.4737488
3,Двадесет седмог марта,11120,44.8132404,20.4724652
56/3,Господар Јованова,11000,44.8191116,20.4634121
29,Сарајевска,11000,44.8039712,20.4555626
113,Живка Давидовића,11000,44.7853351,20.5160063
141g,Војислава Илића,11000,44.7859294,20.5006304
11g,Milutina Milankovica,11070,44.8128014,20.4065142
4,Здравка Челара,11120,44.8116369,20.4800798
101,Цвијићева,11120,44.8101102,20.4805669
49b,Небојшина,11000,44.7930715,20.4687997
21,Бистричка,11120,44.8109570,20.4822908
7,Савски насип,11070,44.8024546,20.4196200
6,Слободанке Данке Савић,11000,44.7931358,20.5028773
6a,Слободанке Данке Савић,11000,44.7930928,20.5029507
28a,Димитрија Туцовића,11000,44.8048351,20.4850079
5,Паунова,11040,44.7600529,20.4764690
42,Курсулина,11000,44.8011644,20.4750302
38,Курсулина,11000,44.8008981,20.4747500
38,Кумодрашка,11000,44.7828995,20.4768993
36,Кумодрашка,11000,44.7829461,20.4768530
35,Борисављевићева,11000,44.7844835,20.4726059
33,Борисављевићева,11000,44.7845341,20.4724700
52,Борисављевићева,11000,44.7838135,20.4738244
13,Лимска,11000,44.7837120,20.4737329
53,Борисављевићева,11000,44.7838931,20.4740260
14,Гершићева,11000,44.7954054,20.5026492
20,Станислава Сремчевића,11000,44.7933118,20.4963138
20a,Станислава Сремчевића,11000,44.7933451,20.4961943
15,Радојке Лакић,11050,44.7932845,20.4995721
46,Санска,11000,44.7747605,20.4807649
46a,Санска,11000,44.7746953,20.4807987
26a,Санска,11000,44.7763534,20.4794323
26b,Санска,11000,44.7764372,20.4794349
19,Санска,11000,44.7772328,20.4792145
14,Наде Наумовић,11000,44.7777167,20.4848477
16,Наде Наумовић,11000,44.7776415,20.4848505
20a,Витановачка,11000,44.7780552,20.4771025
20,Витановачка,11000,44.7780474,20.4770434
3,Војводе Ђуровића,11000,44.7808492,20.4770989
3a,Војводе Ђуровића,11000,44.7808781,20.4771774
2,Ђушина,11000,44.8123728,20.4734024
24,Данијелова,11000,44.7832262,20.4781736
40b,Јурија Гагарина,11073,44.8026682,20.3828237
29,Раваничка,11000,44.7922413,20.4995412
28,Кнегиње Зорке,11000,44.8007691,20.4693930
21,Кнеза Михаила,11000,44.8164741,20.4577271
15,Херцега Стјепана,11108,44.8219304,20.4705485
7,Двадесет седмог марта,11120,44.8129411,20.4727544
49b,Небојшина,11000,44.7931324,20.4685437
9a,Букурешка,11000,44.7946925,20.5034751
4,Живка Давидовића,11000,44.7925384,20.5055031
5,Дубљанска,11000,44.7960999,20.4697733
47,Кумодрашка,11000,44.7823700,20.4778952
49,Кумодрашка,11000,44.7822361,20.4779674
69a,Кумодрашка,11000,44.7804781,20.4790474
2,Емануила Јанковића,11040,44.7856210,20.4724475
143,Булевар краља Александра,11000,44.8000745,20.4887466
15,Др Драгослава Поповића,11000,44.8127677,20.4754484
13,Чингријина,11000,44.7984884,20.5063511
2,Ђуке Динић,11000,44.8016261,20.4852514
6,Бранислава Борозана,11210,44.8518047,20.4751197
6a,Бранислава Борозана,11210,44.8517643,20.4752106
16,Владетина,136210,44.8089036,20.4786061
50,Владимира Поповића,11070,44.8048728,20.4269060
10b,Булевар Михајла Пупина,11070,44.8220910,20.4196791
118,Цара Душана,11000,44.8518562,20.3957768
1,Dušana Mađarčića Korčagina,11000,44.8716783,20.3239998
5,Гандијева,11000,44.8100910,20.3833877
"227, Lokal 31 i 32",Jurija Gagarina,11000,44.7986440,20.3746838
4,Zorana Radmilovića,11000,44.7907491,20.5391079
148,Гандијева,11000,44.8011056,20.3881632
30,Paunova,11000,44.7561383,20.4763874
1r,Višnjički Venac,11000,44.8160628,20.5323231
69,Dimitrija Tucovića,11000,44.8037411,20.4877769
63,Kneza Višeslava,11000,44.7448009,20.4271115
13-15,Bore Markovića,11000,44.7817090,20.4198439
2,Prvomajska,11000,44.8412251,20.3969690
72,Јове Илића,11040,44.7793895,20.4715370
2,Светозара Марковића,11000,44.8081764,20.4691862
17,Кнеза Милоша,11000,44.8087426,20.4641432
10k,Тадије Сондермајера,11073,44.8151995,20.3964417
72,Кнеза Вишеслава,11000,44.7667027,20.4269380
45ž,Борска,11090,44.7574814,20.4600560
18G,Bulevar Maršala Tolbuhina,11000,44.8309621,20.4133187
47,Sarajevska,11000,44.8025669,20.4539030
76a,Gandijeva,11000,44.8071003,20.3826026
87,Radnih Akcija,11000,44.7267796,20.3723465
20v,Канарево брдо,11000,44.7528257,20.4531131
79,Makenzijeva,11000,44.7986532,20.4734376
34g,Mirijevski Venac,11000,44.7916328,20.5273193
1,Kaplara Momčila Gavrića,11000,44.7612512,20.4877534
52g,Jedanaeste Krajiške Divizije,11000,44.7267061,20.4267156
11,Čelebićka,11000,44.7483889,20.4507972
85,Karađorđeva,11000,44.8099211,20.4560223
10,Obilićev Venac,11000,44.8161714,20.4569168
28,Trgovačka,11000,44.7597209,20.4145160
516,Vojvode Stepe,11000,44.7392744,20.5036906
5,Makedonska,11000,44.8156531,20.4618035
36,Cvijićeva,11000,44.8161686,20.4767878
15,Mitropolita Petra,11000,44.8165555,20.4837223
1,Brankova,11000,44.8141961,20.4569531
66a,Cara Dušana,11000,44.8215097,20.4631555
182,Господара Вучића,11050,44.7908143,20.4947344
77,Медаковићева,11000,44.7768799,20.4947108
20,Растка Петровића,11000,44.7769989,20.4916481
1,Растка Петровића,11000,44.7777180,20.4900541
11,Растка Петровића,11000,44.7774975,20.4908798
15,Растка Петровића,11000,44.7774536,20.4912935
17,Растка Петровића,11000,44.7773171,20.4914368
17a,Растка Петровића,11000,44.7772949,20.4915088
20,Др Драгослава Поповића,11000,44.8124576,20.4753541
68,Булевар деспота Стефана,11000,44.8169904,20.4760396
11g,Milutina Milankovica,11070,44.8128542,20.4068130
3,Паунова,11040,44.7601323,20.4764585
19,Жоржа Клемансоа,11000,44.8220954,20.4688465
3,Дурмиторска,11000,44.8017077,20.4518892
3a,Дурмиторска,11000,44.8019258,20.4521530
52,Балканска,11000,44.8074925,20.4580158
23a,Добрачина,11158,44.8193480,20.4622869
2đ,Дунавска,11158,44.8284015,20.4534419
14,Змаја од Ноћаја,11000,44.8207668,20.4567765
5,Пилота Михаила Петровића,11090,44.7451790,20.4378899
49,Кнеза Михаила,11000,44.8193391,20.4542171
28,Љубићка,11000,44.7832326,20.4770769
198,Војводе Степе,11010,44.7730255,20.4762589
4,Скерлићева,11000,44.7967341,20.4668186
1,Слободана Бајића,11185,44.8695588,20.3288388
24,Terazije,11000,44.8126177,20.4608181
47,Вилине воде,11000,44.8197948,20.4861788
127a,Устаничка,11050,44.7844772,20.4943785
10ž,Bulevar Mihajla Pupina,11070,44.8224888,20.4212733
3,Мирча Ацева,11040,44.7783419,20.4859630
19,Мирча Ацева,11000,44.7781083,20.4869518
8,Краља Милана,11000,44.8105816,20.4620874
7,Витановачка,11000,44.7782121,20.4767899
7a,Витановачка,11000,44.7782219,20.4768899
73,Краља Владимира,11000,44.7781008,20.4759175
86a,Булевар ЈНА,11222,44.7406065,20.4854998
11,Др Ненада Паренте,11222,44.7416080,20.4825120
1a,Стевана Јаковљевића,11000,44.7798323,20.4781416
16,Санска,11000,44.7770322,20.4790906
43a,Борска,11090,44.7554303,20.4575622
53,Патријарха Димитрија,11090,44.7421733,20.4412626
80,Видиковачки венац,11090,44.7422255,20.4234228
51,Борска,11000,44.7527115,20.4547134
32,Кумодрашка,11000,44.7830690,20.4765477
32a,Кумодрашка,11000,44.7831067,20.4766207
54,Džordža Vašingtona,11000,44.8138671,20.4714658
31г,Џона Кенедија,11070,44.8329238,20.4118938
9а,Џона Кенедија,11070,44.8337356,20.4154276
3,Синђелићева,11000,44.8027226,20.4794819
229,Jurija Gagarina,11179,44.7985849,20.3747179
119,Димитрија Туцовића,11000,44.8014781,20.4931811
39,Светог Николе,11000,44.8036358,20.4952256
17,Косовска,11000,44.8136825,20.4643822
9,Војводе Добрњца,11000,44.8178713,20.4743356
3,Цара Душана,11000,44.8255024,20.4565327
20d,Самјуела Бекета,11000,44.7891628,20.5424387
51a,Нехруова,11197,44.8008195,20.3824209
47,Кнеза Михаила,11000,44.8190318,20.4547380
65,Мутапова,11000,44.7997452,20.4746853
30,Крунска,11000,44.8069457,20.4676130
26,Крунска,11000,44.8072284,20.4672062
67,Макензијева,11000,44.7993478,20.4722239
3,Милована Миловановића,11000,44.8091811,20.4579960
6,Кичевска,11000,44.8041130,20.4737425
5,Давидовићева,11080,44.8426918,20.4140414
92b,Живка Давидовића,11050,44.7852066,20.5143486
92a,Живка Давидовића,11050,44.7853313,20.5149467
92,Живка Давидовића,11050,44.7854151,20.5151010
26,Цара Уроша,11000,44.8221986,20.4569777
2ž,Дунавска,11158,44.8285074,20.4526780
8,Паунова,11000,44.7592114,20.4759173
66,Макензијева,11000,44.7988917,20.4725140
40,Булевар ослобођења,11000,44.7870721,20.4652973
72,Краљице Наталије,11102,44.8087890,20.4612532
9,Дурмиторска,11000,44.8010701,20.4526776
44,Теодора Драјзера,11000,44.7785637,20.4562578
4,Др Зоре Илић-Обрадовић,11000,44.7811869,20.5030731
5,Љубице Луковић,11050,44.8098086,20.4969405
43,Гаврила Принципа,11000,44.8115909,20.4565984
30,Николаја Гогоља,11000,44.7793349,20.4143867
32,Кнеза Михаила,11000,44.8175954,20.4573188
32,Кнеза Михаила,11000,44.8176790,20.4573503
9,Чика Љубина,11000,44.8169155,20.4586954
21,Краљевића Марка,11000,44.8140259,20.4550758
93,Булевар краља Александра,11050,44.8024355,20.4830436
252,Мајора Зорана Радосављевића,11273,44.8952442,20.2954573
6,Mirka Milojkovića,11060,44.8129296,20.5386547
8,Mirka Milojkovića,11060,44.8130150,20.5384567
10,Mirka Milojkovica,11060,44.8130783,20.5383014
12,Mirka Milojkovića,11060,44.8131573,20.5381281
3,Булевар Николе Тесле,11080,44.8296197,20.4203013
53,Устаничка,11000,44.7878963,20.4769876
127,Устаничка,11050,44.7846392,20.4939502
38,Јужни булевар,11118,44.7928547,20.4766572
27v,Жоржа Клемансоа,11158,44.8249161,20.4706306
1a,Трг републике,11000,44.8167890,20.4596465
32,Милутина Миланковића,11070,44.8066470,20.4247696
34,Милутина Миланковића,11070,44.8071133,20.4246503
6,Браће Крсмановић,11000,44.8142191,20.4502748
8,Браће Крсмановић,11000,44.8139300,20.4502227
15,Немањина,11000,44.8053089,20.4620169
2,Градски парк,11080,44.8405305,20.4108111
62,Краљице Наталије,11000,44.8097406,20.4600625
6,Булевар Михајла Пупина,11070,44.8163397,20.4370444
32,Данијелова,11000,44.7821591,20.4788398
5,Масарикова,11000,44.8072159,20.4636725
64,Устаничка,11000,44.7858511,20.4805646
65,Устаничка,11000,44.7869198,20.4797451
63,Устаничка,11000,44.7871997,20.4790145
22,Хумска,11000,44.7901401,20.4589423
10,Ушће,11070,44.8195936,20.4424020
8,Булевар Михајла Пупина,11070,44.8201997,20.4273219
4a,Грамшијева,11000,44.8303171,20.4148221
26,Др Косте Тодоровића,11000,44.7974358,20.4584786
8,Др Суботића старијег,11000,44.7974146,20.4611143
101,Кнеза Милоша,11000,44.7998371,20.4537850
2,Булевар маршала Толбухина,11000,44.8316142,20.4183459
18,Вука Караџића,11000,44.8170976,20.4544296
4,Булевар Михајла Пупина,11070,44.8155395,20.4372386
19,Маршала Бирјузова,11000,44.8148925,20.4571439
12,Теразије,11000,44.8138933,20.4600994
43,Маршала Бирјузова,11000,44.8155802,20.4548328
29,Косанчићев венац,11000,44.8179494,20.4507943
10,Париска,11000,44.8188509,20.4520839
56,Краља Петра,11000,44.8211371,20.4572044
58,Краља Петра,11000,44.8213107,20.4572809
82,Пожешка,11000,44.7785230,20.4146685
10i,Булевар Михајла Пупина,11070,44.8235756,20.4194120
10z,Булевар Михајла Пупина,11070,44.8231828,20.4203810
10ž,Булевар Михајла Пупина,11070,44.8227441,20.4212195
10e,Булевар Михајла Пупина,11070,44.8230652,20.4189667
10g,Булевар Михајла Пупина,11070,44.8222310,20.4207713
11,Булевар Михајла Пупина,11070,44.8150614,20.4320193
7,Булевар Михајла Пупина,11070,44.8146928,20.4328581
5,Булевар Михајла Пупина,11070,44.8138407,20.4332218
9,Булевар Михајла Пупина,11070,44.8142129,20.4324024
13,Булевар Михајла Пупина,11070,44.8146108,20.4316022
8a,Булевар Зорана Ђинђића,11070,44.8124524,20.4303641
2a,Булевар Зорана Ђинђића,11070,44.8120303,20.4314232
45,Булевар Михајла Пупина,11070,44.8143702,20.4305580
115,Булевар Михајла Пупина,11070,44.8169492,20.4281716
113,Булевар Михајла Пупина,11070,44.8166928,20.4287295
111,Булевар Михајла Пупина,11070,44.8162480,20.4295246
85b,Булевар Михајла Пупина,11070,44.8160737,20.4303570
85a,Булевар Михајла Пупина,11070,44.8158589,20.4308954
9,Ендија Ворхола,11030,44.7685236,20.4121001
15,Цетињска,11000,44.8180496,20.4655376
2a,Максима Горког,11000,44.8001411,20.4754121
31,Јапанска,11073,44.8016506,20.3705883
29,Јапанска,11073,44.8017758,20.3712688
50,Краља Милана,11000,44.8056340,20.4642785
2,Ада Циганлија,11030,44.7907812,20.4014772
161,Димитрија Туцовића,11000,44.8006055,20.5007684
205,Булевар Михајла Пупина,11070,44.8355080,20.4087989
201,Булевар Михајла Пупина,11070,44.8347174,20.4086435
207,Булевар Михајла Пупина,11070,44.8352559,20.4081973
1,Др Суботића старијег,11000,44.7970351,20.4644787
450,Војводе Степе,11221,44.7473055,20.4944458
458,Војводе Степе,11152,44.7457162,20.4958587
444a,Војводе Степе,11000,44.7485609,20.4936588
69a,Саве Јовановића,11222,44.7457362,20.4868428
21,Господар Јевремова,11000,44.8210384,20.4588046
10b,Булевар Михајла Пупина,11070,44.8222423,20.4195122
62,Дунавска,11000,44.8258302,20.4653652
2,Високог Стевана,11000,44.8261783,20.4561684
7,Кларе Цеткин,11080,44.8300522,20.4168787
117,Миријевски булевар,11060,44.8039572,20.5254445
5,Милутина Миланковића,11070,44.8102713,20.4134111
12b,Јурија Гагарина,11070,44.8046870,20.4110386
22a,Миријевски венац,11160,44.7896937,20.5279244
17,Џорџа Вашингтона,11000,44.8165264,20.4696936
297,Булевар краља Александра,11000,44.7937432,20.5050436
80a,Милана Ракића,11000,44.7959503,20.5065143
8,Вјекослава Ковача,11000,44.7935739,20.5067089
76,Милана Ракића,11000,44.7963576,20.5053525
78,Милана Ракића,11000,44.7962535,20.5057695
143,Булевар Арсенија Чарнојевића,11070,44.8179753,20.4054637
19a,Народних хероја,11070,44.8219422,20.4062666
1,Панчина,11000,44.8049632,20.4979816
71,Булевар краља Александра,11000,44.8061459,20.4747046
125a,Устаничка,11050,44.7846956,20.4903632
22,Хиландарска,11000,44.8150453,20.4683529
20,Панчићева,11000,44.8260167,20.4623339
16,Панчићева,11000,44.8258652,20.4628755
14,Панчићева,11000,44.8257857,20.4631622
12,Панчићева,11000,44.8257248,20.4635155
10,Панчићева,11000,44.8255233,20.4635193
8,Панчићева,11000,44.8253046,20.4634943
18,Панчићева,11000,44.8259168,20.4626155
2,Канарево брдо,11000,44.7533847,20.4498771
39,Чарлија Чаплина,11000,44.8155322,20.4850407
6,Михаила Мике Јанковића,11000,44.7867557,20.4516266
58,Булевар Арсенија Чарнојевића,11000,44.8141331,20.4213876
60,Краља Петра,11000,44.8213873,20.4574202
54,Краља Петра,11000,44.8210389,20.4571009
19,Господар Јевремова,11000,44.8213139,20.4585983
62,Маријане Грегоран,11000,44.8123654,20.5158452
2,Стевана Опачића,11090,44.7442465,20.4542673
34,Стевана Опачића,11090,44.7462390,20.4557566
38,Стевана Опачића,11090,44.7467465,20.4548519
46,Стевана Опачића,11090,44.7473118,20.4552882
44,Стевана Опачића,11090,44.7466800,20.4559834
12,Стевана Опачића,11090,44.7447332,20.4555307
50,Стевана Опачића,11090,44.7471520,20.4560326
14,Стевана Опачића,11090,44.7450017,20.4556500
16,Стевана Опачића,11090,44.7451021,20.4549076
20,Стевана Опачића,11090,44.7456454,20.4549979
8,Стевана Опачића,11090,44.7442697,20.4551144
18,Стевана Опачића,11090,44.7453785,20.4549806
42,Стевана Опачића,11090,44.7467886,20.4556141
28,Стевана Опачића,11090,44.7459459,20.4568085
4,Стевана Опачића,11090,44.7444578,20.4545112
22,Стевана Опачића,11090,44.7454230,20.4559236
26,Стевана Опачића,11090,44.7457967,20.4564986
6,Стевана Опачића,11090,44.7446898,20.4546915
24,Стевана Опачића,11090,44.7456266,20.4561766
20а,Стевана Опачића,11090,44.7457990,20.4554925
30,Стевана Опачића,11090,44.7460983,20.4549855
36,Стевана Опачића,11090,44.7462164,20.4561622
40,Стевана Опачића,11090,44.7467917,20.4552439
48,Стевана Опачића,11090,44.7472575,20.4556766
32,Стевана Опачића,11090,44.7462072,20.4553395
32,Господар Јованова,11000,44.8209460,20.4606144
12a,Љермонтова,11050,44.7826656,20.4906122
195,Јурија Гагарина,11070,44.7983137,20.3802011
127a,Устаничка,11050,44.7845976,20.4942932
125i,Устаничка,11050,44.7845025,20.4930840
56b,Нехруова,11070,44.8045092,20.3779761
19,Јапанска,11070,44.8040000,20.3771044
33,Јапанска,11073,44.8013236,20.3707234
1,Сајмиште,11000,44.8120200,20.4421381
12,Булевар деспота Стефана,11000,44.8163622,20.4630176
153,Тошин бунар,11070,44.8239218,20.3982161
157a,Тошин бунар,11070,44.8232218,20.4010449
157,Тошин бунар,11070,44.8234434,20.4001710
155,Тошин бунар,11070,44.8237079,20.3991410
219,Булевар Зорана Ђинђића,11070,44.8248133,20.4006260
179,Булевар Зорана Ђинђића,11070,44.8245347,20.3999733
2a,Партизанске авијације,11000,44.8247987,20.3882185
23,Даничарева,11000,44.7973434,20.4806409
71,Грчића Миленка,11000,44.7877584,20.4893510
15,Љермонтова,11000,44.7832793,20.4932424
13,Љермонтова,11000,44.7832623,20.4925012
130,Устаничка,11000,44.7836834,20.4945587
5a,Илије Гарашанина,11000,44.8116013,20.4721406
3,Милутина Миланковића,11070,44.8070668,20.4212187
249,Јурија Гагарина,11070,44.7966307,20.3757075
271,Јурија Гагарина,11070,44.7966344,20.3732334
265,Јурија Гагарина,11070,44.7965114,20.3738022
1,Северни булевар,11000,44.8137408,20.4928831
3,Северни булевар,11000,44.8120367,20.4934800
1b,Драгослава Срејовића,11060,44.8132239,20.5012055
2,Неродимска,11000,44.8092197,20.4980865
7c,Љубице Луковић,11050,44.8093071,20.4963582
12,Љубице Луковић,11050,44.8092032,20.4963571
28,Вељка Дугошевића,11000,44.8057053,20.4956239
18a,Вељка Дугошевића,11000,44.8049522,20.4944452
8,Мике Аласа,11158,44.8279014,20.4576636
14,Мике Аласа,11000,44.8276131,20.4584476
20a,Браће Барух,11158,44.8272788,20.4587836
20b,Браће Барух,11158,44.8272318,20.4590125
19,Солунска,11158,44.8269617,20.4598594
63,Цара Уроша,11158,44.8274164,20.4600642
18,Мике Аласа,11158,44.8278256,20.4592387
7,Волгина,11060,44.8028851,20.5125447
17,Булевар краља Александра,11000,44.8099353,20.4675936
1a,Антифашистичке борбе,11070,44.8156141,20.4282814
32g,Милентија Поповића,11070,44.8109823,20.4283911
32a,Милентија Поповића,11070,44.8103671,20.4280985
32v,Милентија Поповића,11070,44.8107242,20.4281520
32b,Милентија Поповића,11070,44.8107419,20.4286682
30,Милентија Поповића,11070,44.8099576,20.4289237
37a,Антифашистичке борбе,11070,44.8120319,20.4248051
45ž,Булевар Зорана Ђинђића,11070,44.8122226,20.4270170
51,Булевар Зорана Ђинђића,11070,44.8116519,20.4280482
47,Булевар Зорана Ђинђића,11070,44.8120356,20.4276214
46,Булевар Арсенија Чарнојевића,11070,44.8105242,20.4275416
42,Булевар Арсенија Чарнојевића,11070,44.8109120,20.4269040
49,Булевар Зорана Ђинђића,11070,44.8117319,20.4276280
40,Булевар Арсенија Чарнојевића,11070,44.8108036,20.4265304
53,Булевар Зорана Ђинђића,11070,44.8114953,20.4283989
110,Булевар Зорана Ђинђића,11000,44.8229391,20.4093961
106,Булевар Зорана Ђинђића,11000,44.8224376,20.4089444
108,Булевар Зорана Ђинђића,11000,44.8226880,20.4091697
2,Омладинских бригада,11000,44.8241046,20.4122843
35,Ђорђа Станојевића,11073,44.8096762,20.3968523
39,Мајке Кујунџић,11000,44.7907618,20.5060765
145,Булевар Михајла Пупина,11070,44.8212511,20.4184745
117,Булевар Михајла Пупина,11070,44.8197225,20.4219811
141,Булевар Михајла Пупина,11070,44.8209191,20.4192070
143,Булевар Михајла Пупина,11070,44.8208312,20.4186961
117a,Булевар Михајла Пупина,11070,44.8200431,20.4212993
129,Булевар Михајла Пупина,11070,44.8195954,20.4211602
161,Булевар Михајла Пупина,11070,44.8203579,20.4177336
157,Булевар Михајла Пупина,11070,44.8201222,20.4182583
153,Булевар Михајла Пупина,11070,44.8198864,20.4187703
149,Булевар Михајла Пупина,11070,44.8196551,20.4192910
147,Булевар Михајла Пупина,11070,44.8196642,20.4197099
163,Булевар Михајла Пупина,11070,44.8206079,20.4176240
155,Булевар Михајла Пупина,11070,44.8201364,20.4186606
151,Булевар Михајла Пупина,11070,44.8199051,20.4191814
159,Булевар Михајла Пупина,11070,44.8203723,20.4181486
2,Пастерова,11000,44.7980576,20.4588244
122,Милутина Миланковића,11070,44.8130493,20.4106798
124,Милутина Миланковића,11070,44.8135192,20.4100797
120v,Милутина Миланковића,11070,44.8132508,20.4118885
120e,Милутина Миланковића,11070,44.8125163,20.4123668
120,Милутина Миланковића,11070,44.8127998,20.4126881
120g,Милутина Миланковића,11070,44.8129101,20.4115852
120d,Милутина Миланковића,11070,44.8125514,20.4118667
120b,Милутина Миланковића,11070,44.8132022,20.4124443
91,Булевар Арсенија Чарнојевића,11070,44.8115749,20.4178510
66,Милутина Миланковића,11070,44.8098090,20.4190095
76,Милутина Миланковића,11070,44.8104108,20.4190068
86a,Милутина Миланковића,11070,44.8099713,20.4176873
1,Милентија Поповића,11070,44.8132822,20.4361165
9,Љермонтова,11050,44.7833806,20.4882098
2,Јована Суботића,11000,44.7853353,20.4817382
68a,Милутина Миланковића,11070,44.8102373,20.4191869
19a,Милутина Миланковића,11070,44.8155041,20.4020022
19,Милутина Миланковића,11070,44.8152130,20.4024338
165v,Булевар Михајла Пупина,11070,44.8221719,20.4163290
9,Париске комуне,11000,44.8247014,20.4101480
11,Париске комуне,11000,44.8244397,20.4099119
7,Париске комуне,11000,44.8249544,20.4103770
165,Булевар Михајла Пупина,11070,44.8218325,20.4144946
165b,Булевар Михајла Пупина,11070,44.8216327,20.4149294
165a,Булевар Михајла Пупина,11070,44.8221396,20.4149472
20,Париске комуне,11000,44.8276496,20.4063519
65,Париске комуне,11070,44.8280604,20.4006925
39,Студентска,11070,44.8259209,20.4029276
1,Студентска,11070,44.8275570,20.4044541
112,Булевар Зорана Ђинђића,11000,44.8228441,20.4080693
25,Студентска,11070,44.8262556,20.4031505
19,Отона Жупанчича,11000,44.8289187,20.4066362
22,Народних хероја,11070,44.8242074,20.4066783
165g,Булевар Михајла Пупина,11070,44.8224239,20.4158917
7,Студентска,11070,44.8268664,20.4037035
12,Народних хероја,11070,44.8256753,20.4059829
18,Булевар уметности,11000,44.8172960,20.4117069
155a,Булевар Зорана Ђинђића,11070,44.8230872,20.4051949
194,Милутина Миланковића,11070,44.8203836,20.3968604
196,Милутина Миланковића,11070,44.8205340,20.3969967
192,Милутина Миланковића,11070,44.8202303,20.3967263
169,Булевар Михајла Пупина,11070,44.8257686,20.4119500
179,Булевар Михајла Пупина,11070,44.8296510,20.4105650
173,Булевар Михајла Пупина,11070,44.8281643,20.4108472
171,Булевар Михајла Пупина,11070,44.8264610,20.4116300
32a,Отона Жупанчича,11070,44.8323242,20.4084028
203,Булевар Михајла Пупина,11070,44.8348901,20.4081331
177,Булевар Михајла Пупина,11070,44.8289145,20.4107226
181,Булевар Михајла Пупина,11070,44.8311524,20.4100886
2,Генерала Жданова,11070,44.8301916,20.4049946
175,Булевар Михајла Пупина,11070,44.8285644,20.4107634
4,Луја Адамича,11000,44.8309121,20.4062858
17,Милутина Миланковића,11070,44.8148219,20.4027035
21,Милутина Миланковића,11070,44.8157066,20.4010568
19g,Милутина Миланковића,11070,44.8151445,20.4016309
23,Милутина Миланковића,11070,44.8164515,20.3995492
1v,Милутина Миланковића,11070,44.8051834,20.4227690
3,Живка Карабиберовића,11000,44.8013306,20.4872463
90v,Омладинских бригада,11000,44.8119784,20.3956340
19,Љермонтова,11000,44.7833897,20.4938491
2,Умчарска,11000,44.7857898,20.4979265
4,Цара Јустинијана првог,11000,44.7857172,20.4954707
86,Струмичка,11000,44.7862674,20.4949845
6,Цара Јустинијана првог,11000,44.7854716,20.4949650
80,Струмичка,11000,44.7863493,20.4934421
74,Струмичка,11000,44.7864069,20.4918791
78,Струмичка,11000,44.7863573,20.4929055
76,Струмичка,11000,44.7864089,20.4923952
84,Струмичка,11000,44.7863022,20.4944716
3,Римска,11000,44.7849275,20.4966390
5,Римска,11000,44.7852224,20.4972355
1,Римска,11000,44.7846364,20.4960371
88,Струмичка,11000,44.7862561,20.4954993
82,Струмичка,11000,44.7863102,20.4939396
2,Цара Јустинијана првог,11000,44.7859818,20.4959923
16,Требевићка,11000,44.7662150,20.4171134
190,Др Ивана Рибара,11073,44.7937498,20.3735919
192,Др Ивана Рибара,11073,44.7935308,20.3735462
177a,Др Ивана Рибара,11070,44.7928588,20.3755629
96,Др Ивана Рибара,11070,44.7988500,20.3690630
28,Др Ивана Рибара,11073,44.8020705,20.3664900
166a,Јурија Гагарина,11070,44.8000658,20.3745767
130,Др Ивана Рибара,11070,44.7968440,20.3708446
28,Јапанска,11073,44.8023711,20.3710429
46,Јапанска,11070,44.8013360,20.3699758
1đ,Милутина Миланковића,11070,44.8062651,20.4205579
1e,Милутина Миланковића,11070,44.8065189,20.4200473
1c,Милутина Миланковића,11070,44.8058169,20.4214103
56,Милутина Миланковића,11070,44.8084705,20.4215719
62,Милутина Миланковића,11070,44.8087597,20.4209555
46,Милутина Миланковића,11070,44.8079601,20.4226728
40,Милутина Миланковића,11070,44.8076403,20.4233573
54,Милутина Миланковића,11070,44.8083625,20.4218098
52,Милутина Миланковића,11070,44.8082584,20.4220346
42,Милутина Миланковића,11070,44.8077401,20.4231377
60,Милутина Миланковића,11070,44.8086730,20.4211443
50,Милутина Миланковића,11070,44.8081567,20.4222453
44,Милутина Миланковића,11070,44.8078509,20.4229064
48,Милутина Миланковића,11070,44.8080597,20.4224561
58,Милутина Миланковића,11070,44.8085791,20.4213445
38,Милутина Миланковића,11070,44.8075481,20.4235500
7a,Стражиловска,11040,44.7627757,20.4812846
92,Булевар кнеза Александра Карађорђевића,11040,44.7725940,20.4529910
71,Дунавска,11000,44.8234983,20.4869132
59,Дунавска,11000,44.8218462,20.4858455
7v,Милутина Миланковића,11070,44.8109410,20.4119442
7,Радоја Дакића,11080,44.8383326,20.4089610
7g,Милутина Миланковића,11070,44.8104663,20.4116557
9g,Милутина Миланковића,11070,44.8108749,20.4107403
21,Омладинских бригада,11070,44.8091460,20.4045289
10l,Џона Кенедија,11080,44.8342523,20.4152115
10j,Џона Кенедија,11080,44.8342746,20.4153789
2d,Џона Кенедија,11080,44.8342771,20.4155441
6a,Љермонтова,11050,44.7830077,20.4893253
7d,Милутина Миланковића,11070,44.8106448,20.4112638
9,Милутина Миланковића,11070,44.8117216,20.4108708
2,Каменичка,11000,44.8129930,20.4562514
6,Каменичка,11000,44.8119075,20.4549090
129,Јурија Гагарина,11073,44.8014980,20.3906175
38,Делиградска,11000,44.7982534,20.4602142
36,Делиградска,11000,44.7985393,20.4606494
34,Делиградска,11000,44.7990648,20.4613941
29,Делиградска,11000,44.7988730,20.4621875
168,Јурија Гагарина,11073,44.7997748,20.3737752
11b,Милутина Миланковића,11070,44.8134189,20.4068879
28,Булевар Црвене армије,11070,44.8075440,20.4026471
20,Ибарски пут,11000,44.7269053,20.4171537
11m,Зрењанински пут,11000,44.8425672,20.4873670
120,Аутопут за Нови Сад,11080,44.8660024,20.3493430
34b,Крајишка,11080,44.8401321,20.3725748
46,Раде Кончара,11080,44.8456429,20.3868565
8,Принцезе Оливере,11080,44.8439276,20.4146630
1,Охридска,11080,44.8455101,20.3960680
3,Охридска,11080,44.8453284,20.3969098
5,Охридска,11080,44.8451489,20.3977512
7,Охридска,11080,44.8449686,20.3986074
9,Охридска,11080,44.8447949,20.3994599
4,Словенска,11080,44.8380145,20.3747714
2a,Словенска,11080,44.8380794,20.3746499
2,Баланичка,11000,44.8299832,20.3596205
63,Душана Вукасовића,11073,44.8054440,20.3743443
65,Душана Вукасовића,11073,44.8052588,20.3744979
67,Душана Вукасовића,11073,44.8050982,20.3746855
47,Душана Вукасовића,11073,44.8059261,20.3738267
37,Душана Вукасовића,11073,44.8053833,20.3723082
41,Душана Вукасовића,11073,44.8054192,20.3729207
43,Душана Вукасовића,11073,44.8056167,20.3728796
69,Душана Вукасовића,11073,44.8048972,20.3747879
73,Душана Вукасовића,11073,44.8045523,20.3751312
45,Душана Вукасовића,11073,44.8057214,20.3733032
71,Душана Вукасовића,11073,44.8045092,20.3745837
61,Војвођанска,11073,44.8076835,20.3774806
2,Петра Чајковског,11000,44.7876274,20.4406233
19,Жоржа Клемансоа,11000,44.8227930,20.4682319
99,Кумодрашка,11000,44.7778900,20.4808134
153,Кумодрашка,11010,44.7722546,20.4826732
68,Краљевачка,11000,44.7773026,20.4820987
74,Краљевачка,11000,44.7765897,20.4823741
76,Краљевачка,11000,44.7762541,20.4824104
78,Краљевачка,11000,44.7759162,20.4824442
182,Кумодрашка,11000,44.7719873,20.4820975
42,Кумодрашка,11000,44.7822120,20.4774374
84,Краљевачка,11000,44.7751926,20.4825101
86,Краљевачка,11000,44.7748540,20.4825341
88,Краљевачка,11000,44.7745184,20.4825745
102,Кумодрашка,11000,44.7779614,20.4800441
252,Кумодрашка,11000,44.7622416,20.4900427
106,Кумодрашка,11000,44.7777572,20.4801025
98,Кумодрашка,11000,44.7781666,20.4800117
253,Војводе Степе,11000,44.7707192,20.4786985
259,Војводе Степе,11000,44.7701389,20.4788919
261,Војводе Степе,11000,44.7696658,20.4791005
263,Војводе Степе,11000,44.7692148,20.4793447
275,Војводе Степе,11000,44.7689005,20.4794671
275b,Војводе Степе,11000,44.7687469,20.4796100
78a,Кумодрашка,11000,44.7791353,20.4794428
44,Браће Јерковић,11000,44.7784040,20.4838520
46,Браће Јерковић,11040,44.7780949,20.4836684
48,Браће Јерковић,11000,44.7778021,20.4838941
50,Браће Јерковић,11000,44.7775072,20.4836937
52,Браће Јерковић,11000,44.7772030,20.4840106
54,Браће Јерковић,11000,44.7768644,20.4839319
56,Браће Јерковић,11040,44.7766683,20.4843151
58,Браће Јерковић,11000,44.7763389,20.4843018
60,Браће Јерковић,11000,44.7761153,20.4846931
62,Браће Јерковић,11000,44.7757856,20.4846961
64,Браће Јерковић,11000,44.7755956,20.4850676
74,Браће Јерковић,11000,44.7742372,20.4857631
72,Браће Јерковић,11000,44.7745350,20.4857888
70,Браће Јерковић,11000,44.7747622,20.4854541
68,Браће Јерковић,11000,44.7750704,20.4854546
66,Браће Јерковић,11000,44.7752438,20.4850402
65,Браће Јерковић,11000,44.7762098,20.4852747
69,Браће Јерковић,11000,44.7754710,20.4858180
57,Санска,11000,44.7745977,20.4810919
1,Љуба Вучковића,11000,44.7716116,20.4827420
3,Љуба Вучковића,11000,44.7714422,20.4825409
78,Устаничка,11000,44.7851401,20.4826840
16,Устаничка,11000,44.7872360,20.4760097
1,Стефана Првовенчаног,11000,44.7883188,20.4732615
1,Стефана Првовенчаног,11000,44.7885093,20.4727109
38g,Витановачка,11000,44.7785450,20.4809581
1,Богдана Поповића,11000,44.7806448,20.4762345
53,Кумодрашка,11000,44.7820576,20.4783143
86,Борисављевићева,11000,44.7823286,20.4773440
44,Кумодрашка,11000,44.7821239,20.4775578
50,Кумодрашка,11000,44.7819209,20.4779370
52,Кумодрашка,11000,44.7817964,20.4779798
56,Кумодрашка,11000,44.7816244,20.4781740
54,Кумодрашка,11000,44.7817367,20.4781299
58,Кумодрашка,11000,44.7815387,20.4783079
60,Кумодрашка,11000,44.7814479,20.4784025
62,Кумодрашка,11000,44.7813062,20.4785206
38đ,Витановачка,11000,44.7786281,20.4814937
41,Витановачка,11000,44.7787552,20.4812435
38e,Витановачка,11000,44.7786852,20.4818761
5,Бакарска,11000,44.7806728,20.4811279
17,Краљевачка,11000,44.7797292,20.4798151
23,Љубићка,11000,44.7831764,20.4778015
3,Рудо,11000,44.7844138,20.5118187
1,Рудо,11000,44.7840030,20.5129307
2,Рудо,11000,44.7848860,20.5128689
55,Кумодрашка,11000,44.7819228,20.4784324
61,Кумодрашка,11000,44.7815110,20.4788529
57,Кумодрашка,11000,44.7817997,20.4785638
59a,Кумодрашка,11000,44.7815934,20.4786697
45a,Кнеза Милоша,11000,44.8039759,20.4588997
46,Ресавска,11000,44.8032616,20.4597109
35,Кумодрашка,11000,44.7829935,20.4771985
27,Љубићка,11000,44.7830316,20.4772800
29,Краљевачка,11000,44.7789774,20.4805019
51,Браће Јерковић,11000,44.7783110,20.4844301
22,Наде Наумовић,11000,44.7771707,20.4849249
18,Динка Туцаковића,11000,44.7697997,20.4821084
64a,Милешевска,11000,44.7970378,20.4859324
27,Ивана Мичурина,11000,44.7510476,20.4571928
6,Српских ударних бригада,11000,44.7545942,20.4548361
38a,Ивана Мичурина,11000,44.7504350,20.4567258
21а,Вукасовићева,11000,44.7538013,20.4547166
49,Пера Ћетковића,11000,44.8056965,20.5243248
47,Пера Ћетковића,11000,44.8058300,20.5240350
43,Пера Ћетковића,11000,44.8061893,20.5233517
41,Пера Ћетковића,11000,44.8063718,20.5230148
39,Пера Ћетковића,11000,44.8065797,20.5227975
32,Браће Грим,11000,44.8147739,20.4816130
11,Вјекослава Ковача,11160,44.7943187,20.5095693
8,Мите Ружића,11000,44.7906296,20.5155316
77a,Булевар краља Александра,11000,44.8037621,20.4812638
60a,Маријане Грегоран,11000,44.8124372,20.5145837
5,Патриса Лумумбе,11060,44.8155513,20.5063653
38,Милана Ракића,11000,44.7976598,20.4976518
79,Костолачка,11000,44.7695721,20.4801559
78,Костолачка,11000,44.7701603,20.4795211
80,Костолачка,11000,44.7698239,20.4796159
82,Костолачка,11000,44.7694859,20.4797152
4b,Милана Распоповића,11000,44.7688170,20.4808525
4a,Милана Распоповића,11000,44.7691367,20.4806780
81b,Костолачка,11000,44.7687804,20.4805003
81v,Костолачка,11000,44.7690378,20.4804239
81a,Костолачка,11000,44.7687251,20.4803072
4,Милана Распоповића,11000,44.7693840,20.4805717
2,Милана Распоповића,11000,44.7693034,20.4802671
266,Војводе Степе,11000,44.7685414,20.4789514
144,Војводе Степе,11000,44.7766808,20.4745031
1,Витановачка,11000,44.7778840,20.4748602
148,Војводе Степе,11000,44.7763513,20.4746488
152,Војводе Степе,11000,44.7760074,20.4747849
80,Кумодрашка,11010,44.7787306,20.4797077
61,Париске комуне,11070,44.8291554,20.4000078
144,Јужни булевар,11000,44.7925321,20.4868873
119,Сазонова,11000,44.7939937,20.4896645
67,Устаничка,11000,44.7866417,20.4804568
81,Устаничка,11000,44.7856592,20.4825631
83,Устаничка,11000,44.7855731,20.4827696
85,Устаничка,11000,44.7854790,20.4829963
78,Јурија Гагарина,11070,44.8019240,20.3791224
2,Булевар Пека Дапчевића,11000,44.7705610,20.4840965
