House number,Street name,Postal code,Latitude,Longitude
지하 1415,낙동남로,49311,35.1062348,128.9667606
지하 405,낙동대로,49411,35.1034754,128.9738261
지하 221,낙동대로,49381,35.0999307,128.9928620
지하 141,낙동대로,49348,35.1031541,128.9999412
지하 1,대영로,49228,35.1108608,129.0120406
지하 290,구덕로,49218,35.1103454,129.0177611
지하 170,구덕로,49241,35.1007615,129.0197777
지하 80,구덕로,48981,35.0973457,129.0267678
지하 12,구덕로,48954,35.0979243,129.0349473
지하 83,중앙대로,48929,35.1038491,129.0364087
85,재반로,48055,35.1863045,129.1253349
21,중앙대로702번길,47292,35.1555602,129.0603760
21,반송로,47520,35.1875943,129.0832466
21,반송로,47520,35.1876357,129.0832927
153,재반로,48051,35.1917582,129.1279732
92,재반로118번길,48053,35.1910422,129.1307118
139,월드컵대로,47540,35.1857710,129.0807890
83,충무대로,49265,35.0798910,129.0210069
68-1,자갈치로,48984,35.0973737,129.0317015
23,중구로29번길,48978,35.1003684,129.0265433
61,보수대로140번길,48959,35.1062208,129.0246707
14-1,대청로99번길,48933,35.1042410,129.0310848
10,중앙대로41번길,48956,35.1012583,129.0353484
5,본산남길,49126,35.0678344,129.0806545
65,영선대로,49056,35.0870087,129.0413426
317,하나길,49078,35.0833863,129.0451553
36,수영성로,48229,35.1704783,129.1160282
16,구덕로148번길,49246,35.0980202,129.0216152
32,초장로27번길,49248,35.0959687,129.0202651
4,중앙대로2097번길,46219,35.2716019,129.0922518
1,남항로9번길,49045,35.0899640,129.0376328
17,광일로14번길,48248,35.1629019,129.1124126
12,수영로,48456,35.1359792,129.0687828
44-1,중리로,49115,35.0748982,129.0683762
394,태종로,49016,35.0919002,129.0657393
39,상리로,49089,35.0846470,129.0686725
5,대교로6번길,49005,35.0935736,129.0443386
9,가야대로454번길,47323,35.1527129,129.0219370
103,망미번영로38번길,48242,35.1679180,129.1135995
107,기찰로,46266,35.2405111,129.0938280
29,동부곡로6번길,46305,35.2244427,129.0921239
16,아랫반송로,48018,35.2251841,129.1479112
50,삼어로133번길,48044,35.2092694,129.1171571
13,범전로5번길,47253,35.1635313,129.0630203
92,대영로73번길,49212,35.1144083,129.0172628
49,동광길,48927,35.1050017,129.0345275
9,자갈치해안로 29,48982,35.0965062,129.0283425
13,두구죽전1길,46208,35.2982508,129.1133468
23,시랑로118번길,46644,35.1949539,129.0087721
지하200,중앙대로,48760,35.1157262,129.0399028
84,화지로,47533,35.1824471,129.0656496
43,재송2로175번길,48053,35.1896724,129.1321040
256,재송2로,48052,35.1912007,129.1317326
31,재송2로74번길,48052,35.1908122,129.1326834
317,해운대해변로,48095,35.1615714,129.1645470
145,금곡대로616번길,46505,35.2671400,129.0175784
59,부전로,47281,35.1553348,129.0547788
1000,중앙대로 (Jungang-daero),1001,35.1800394,129.0750447
708,중앙대로,47291,35.1559564,129.0594888
75,낙동대로1762번길,46583,35.2064794,129.0011165
23,낙동북로681번길,46634,35.2016126,128.9993814
35,만덕대로,46548,35.2111705,129.0087903
118,덕천로,46589,35.2099500,129.0174695
10,만덕2로44번길,46566,35.2101651,129.0372419
1,복천로,47748,35.2057857,129.0861725
48,온천천로339번길,47886,35.1960519,129.0910529
127,금강로,47703,35.2200147,129.0801852
28,충렬대로107번길,47732,35.2079616,129.0730524
21,아시아드대로231번길,47850,35.2049192,129.0663531
25,청룡로,46218,35.2752389,129.0898665
274,금곡대로,46533,35.2327532,129.0137950
58,양달로,46516,35.2434970,129.0198674
85,화명신도시로,46527,35.2318777,129.0100534
554,절영로,49109,35.0756830,129.0726468
61,거제천로230번길,47519,35.1892443,129.0828030
2102,중앙대로,462214,35.2719718,129.0929157
47,신산북로,49418,35.0912334,128.9695318
51,신산북로,49418,35.0911862,128.9700824
258,장평로,49443,35.0892119,128.9732454
30-5,낙동대로171번길,49351,35.1003384,128.9980610
2101,중앙대로,46219,35.2718769,129.0923575
2096,중앙대로,46214,35.2713692,129.0929272
26-10,남항로,49055,35.0888881,129.0392355
10,용호로216번길,48568,35.1132267,129.1103868
277,다대로 (Dadaero),49511,35.0766009,128.9788371
26-62,두송로,49509,35.0766462,128.9803504
271-25,다대로 (Dadaero),49509,35.0777569,128.9788489
84,대동로 (Daedongno),84,35.1368122,128.9777630
84,대동로 (Daedongno),84,35.1365034,128.9779956
84,대동로 (Daedongno),84,35.1372118,128.9782011
84,대동로,84,35.1375689,128.9771054
72,충무대로 (Chungmu-daero),49269,35.0786289,129.0203903
2,재반로125번길,48054,35.1897113,129.1265327
21,재반로165번길,48051,35.1928241,129.1274294
12,금사로85번길,46264,35.2202807,129.1111145
346-1 지층,구덕로,49211,35.1146206,129.0155089
6,삼성2길,46044,35.2651608,129.2339057
65,금샘로 485,46234,35.2673235,129.0778159
65,금샘로 485,46234,35.2663858,129.0805313
65,금샘로 485,46234,35.2664195,129.0805477
132,쌍미천로 (Ssangmicheonno),47579,35.1843466,129.0874189
99,모라로110번길,46934,35.1846388,128.9960740
38,동평로406번길,47207,35.1721245,129.0686844
150,재반로,48053,35.1915184,129.1281881
71,재반로118번길,48053,35.1914503,129.1292174
6-1,낙민로,47879,35.1998048,129.0904929
857-7,금샘로 485,46234,35.2684150,129.0791293
12,남포길,48953,35.0988751,129.0302722
114,미음산단3로,46744,35.1549431,128.8595286
201호,유통단지1로 57번길,46721,35.1667288,128.9550933
29-70,재반로256번길,48025,35.2010819,129.1334830
1942,중앙대로,46249,35.2577258,129.0916169
31,금강공원로26번길,47709,35.2204763,129.0808948
170,하신중앙로,49419,35.0936542,128.9635932
96,절영로,49047,35.0861474,129.0397741
102,중앙대로,48938,35.1069283,129.0364437
26,전포대로209번길,47293,35.1562646,129.0627272
69,서전로10번길,47295,35.1548479,129.0600315
287,해운대해변로,334,35.1604069,129.1616883
13,수영로334번길,48509,35.1378284,129.1026704
1637,중앙대로,46279,35.2312370,129.0908260
1927-1,중앙대로,46230,35.2570300,129.0913933
2019-1,중앙대로,46224,35.2654258,129.0925658
311,충렬대로,47755,35.1998246,129.0931398
12,덕천로14번길,46595,35.2071147,129.0071168
454-18,신선로,48518,35.1253213,129.1013789
2,망양로795번길,48706,35.1338546,129.0424287
120,수영강변대로,48058,35.1712188,129.1266587
지하 230,다대로,49464,35.0818645,128.9773830
지하 168,신산로,49443,35.0897702,128.9732678
620,해운대로,48904,35.1629764,129.1584423
지하 692,다대로,49506,35.0481953,128.9660188
140,하신번영로,49429,35.0952151,128.9606813
20,비프광장로,48981,35.0986596,129.0276141
20-2,중구로30번길,48947,35.1005937,129.0300829
427,장산로,48066,35.1817359,129.1768241
1147,해운대로,48068,35.1877248,129.2020644
13,남포길,48953,35.0989676,129.0301310
지하 310,다대로,49511,35.0745502,128.9768092
지하 422,다대로,49518,35.0652983,128.9797330
지하 548,다대로,49524,35.0577578,128.9713277
166,금곡대로,46539,35.2222607,129.0105144
102,중앙대로,48938,35.1068184,129.0364440
5,광안해변로255번길,48284,35.1553495,129.1217070
9,재반로211번길,48029,35.1959006,129.1301826
17,중구로40번길,48947,35.1014728,129.0295393
5,월드컵대로252번길,47509,35.1909536,129.0694651
1191,공항로,46703,35.2073831,128.9792910
46,남포길,48953,35.0984128,129.0309147
367,해양로,49111,35.0773827,129.0769792
367,해양로,49111,35.0767678,129.0767124
367,해양로,49111,35.0779319,129.0774018
279,수영로,48443,35.1362360,129.0971377
33,과정로251번길,47557,35.1871317,129.1009838
27,신호산단4로,46760,35.0866605,128.8751857
29,재송1로60번길,48055,35.1910616,129.1280886
20,구남로,48094,35.1626222,129.1595239
6,성지로94번길,47116,35.1788723,129.0535813
193 1층,절영로,49078,35.0800981,129.0436690
19,온천천로431번길,47901,35.1927552,129.0998319
64,서전로46번길,47294,35.1548790,129.0645329
12-15,온천천로431번길,47901,35.1923083,129.1009569
14-1,까치고개로,49347,35.1034328,129.0040121
21,반송로,47520,35.1874311,129.0830912
813-31,태종로,49127,35.0636177,129.0824627
57,우동1로,48088,35.1665628,129.1575058
9,쇠미로235번길,47718,35.2107207,129.0654222
205,중앙대로,601010,35.1157078,129.0395835
97번길 14,광복로,48955,35.0998954,129.0352739
702-1,모라동,46920,35.1863338,128.9871399
935-11,부산 북구 구포동,46649,35.1992493,128.9966658
53,해맞이로,47535,35.1792071,129.0677597
180,거제대로,47543,35.1842914,129.0711743
19,아시아드대로22번길,47526,35.1877574,129.0703072
88,법원북로,47511,35.1918574,129.0756065
88,개금본동로,47173,35.1557583,129.0219285
1171,제도로,46706,35.2145482,128.9352717
14,옥천로93번길,49365,35.0945065,129.0094134
2,감천로117길,49374,35.0880270,129.0046632
20,새벽시장로56번길,46989,35.1542877,128.9794320
32-1,석포로,48541,35.1225251,129.0845394
71-7,우암로,48556,35.1168448,129.0806375
14,가야공원로40번길,47382,35.1497454,129.0290185
22,가야대로572번길,47329,35.1532502,129.0342911
1476,가락대로,46707,35.1964196,128.9017975
10,동선길,46769,35.0566335,128.8317387
34,좌동순환로433번길,48114,35.1619847,129.1792872
20,중동1로37번길,48095,35.1625333,129.1642257
65,좌동순환로,48084,35.1722561,129.1666185
302,좌동순환로,48110,35.1691126,129.1826048
23,재반로63번길,48056,35.1846274,129.1251629
104,해운대해변로,48092,35.1597309,129.1433033
7,해운대로383번가길,48062,35.1711890,129.1399377
612,해운대로,48094,35.1628685,129.1581133
20,송정중앙로21번길,48070,35.1836811,129.2036809
85,선수촌로,48038,35.2011523,129.1189315
173,신반송로,48009,35.2288275,129.1604296
10,대영로224번길,48922,35.1111072,129.0350160
78,청학서로,49024,35.0968925,129.0584059
25,꿈나무길,49060,35.0902467,129.0447426
1-8,태종로165번길,49006,35.0942121,129.0461497
38,과정로164번길,47569,35.1859172,129.1093426
2,쌍미천로52번길,47589,35.1775021,129.0896454
15,거제천로124번길,47539,35.1844888,129.0760667
42,쌍미천로151번길,47550,35.1862895,129.0849319
29-6,금정로,46297,35.2274754,129.0855263
9,서곡로33번길,46317,35.2172296,129.1039567
33,서동중심로,46327,35.2128702,129.1045006
17,서부로69번길,46318,35.2183271,129.0991442
37,부곡로18번안길,46310,35.2198891,129.0885821
7,부곡로156번길,46271,35.2298391,129.0927136
30-1,공항로811번가길,46720,35.1785754,128.9564997
345,수영로,48432,35.1399716,129.1038716
24,유엔평화로,48504,35.1328703,129.0917712
380,낙동대로,49329,35.1029240,128.9766966
40,백양순환로,47147,35.1682459,129.0334180
13,가야대로703번길,47262,35.1578823,129.0478881
49-6,동평로44번길,47177,35.1644448,129.0356839
30,다대로429번길,49519,35.0634516,128.9822245
7,다대로530번길,49493,35.0591147,128.9714322
32,가락대로900번가길,46727,35.1535150,128.8838121
13,남천동로,48307,35.1426840,129.1103454
87,천마로,49262,35.0844976,129.0205745
5-26,충무대로255번길,49256,35.0927398,129.0232995
23,낙동북로663번길,46585,35.2026837,128.9979721
4,연수로218번길,47614,35.1733548,129.0942273
39,중앙대로1038번길,47599,35.1799620,129.0793034
66,연동로8번길,47552,35.1900076,129.0904346
20,광안해변로295번길,48290,35.1572347,129.1254264
40,구락로81번길,48216,35.1752816,129.1152462
17,해돋이로269번길,49240,35.1002107,129.0153930
58,꽃마을로,49203,35.1192394,129.0117807
27,대신로,49209,35.1134656,129.0119341
49,구덕로315번길,49227,35.1110865,129.0144333
22-11,임시수도기념로,49236,35.1038170,129.0184769
9,보동길275번길,49215,35.1129725,129.0232246
32,구덕로280번길,49221,35.1096422,129.0202365
131,장평로,49482,35.0779127,128.9726312
2,장림로161번길,49473,35.0830357,128.9668896
185,하신중앙로,49432,35.0949676,128.9615408
173,신산로,49442,35.0900384,128.9743593
11,학감대로147번길,47023,35.1441066,128.9873327
10,냉정로,47015,35.1473530,129.0014152
15,주례로10번길,47007,35.1500859,129.0105069
15,엄궁북로,47039,35.1286957,128.9721754
19,낙동대로1310번길,46911,35.1769569,128.9777539
93,모라로,46929,35.1870634,128.9899656
17,사상로333번길,46946,35.1744628,128.9830032
12,사상로292번길,46954,35.1703612,128.9832590
284,새싹로,47124,35.1814534,129.0473602
34,동성로118번길,47237,35.1617010,129.0662280
75,서전로68번길,47305,35.1543695,129.0673920
30,국악로,47130,35.1727752,129.0528545
26,양정로15번길,47220,35.1728816,129.0757379
13,부전로20번길,47288,35.1526048,129.0567980
25,백양순환로110번길,47143,35.1690132,129.0396629
41,신천대로241번길,47187,35.1633023,129.0485872
48,신암로,47370,35.1465101,129.0562320
21,범일로192번길,47354,35.1470135,129.0610255
103,명안로18번길,47793,35.1977028,129.1101054
9,안연로110번길,47889,35.1971253,129.0985905
79,아시아드대로154번길,47841,35.1994522,129.0694609
22,사직북로63번길,47861,35.1992012,129.0575088
19,석사로,47856,35.1989575,129.0619630
168,명서로,47764,35.2079432,129.1024219
26,명륜로207번길,47742,35.2124931,129.0815563
75,초량로,48806,35.1200390,129.0345155
112,초량상로,48797,35.1213424,129.0397798
30,중앙대로209번길,48816,35.1165506,129.0384979
33,중앙대로179번길,48820,35.1139578,129.0369639
23,수정중로11번길,48782,35.1299727,129.0426479
71,홍곡로,48785,35.1254068,129.0422759
13,성남로47번길,48757,35.1305035,129.0538188
58,범일로,48747,35.1350935,129.0598010
190-15,우암로,48474,35.1250015,129.0758661
33,동명로145번길,48579,35.1210217,129.1128237
41,용호로197번길,48587,35.1148343,129.1134427
140,용호로42번길,48525,35.1207921,129.1090576
349-4,신선로,48548,35.1176545,129.0950685
7-18,고동골로4번길,48419,35.1381491,129.0717025
13,못골로,48454,35.1373252,129.0831679
7,진남로46번길,48437,35.1384575,129.0901743
96,석포로91번길,48485,35.1298089,129.0914044
485,철마로,46049,35.2752963,129.1497548
5,좌방길,46033,35.3138608,129.2440409
77-7,일광로,46044,35.2639640,129.2322575
48,서포로,49459,35.0819178,128.9878130
115,두실로7번길,46230,35.2551938,129.0906033
123,수림로72번길,46242,35.2451031,129.0868986
9,낙동대로309번길,49401,35.0991434,128.9831775
3,낙동대로250번안길,49341,35.0996689,128.9893555
6,광장로97번길,46967,35.1637651,128.9871951
34,호암로9번길,48261,35.1550529,129.1114069
19,좌천남로,48773,35.1313893,129.0491703
268-32,갈맷길,46083,35.1978336,129.2283188
359,월드대로로,47527,35.1873072,129.0592581
10,광복로55번길,48947,35.0999705,129.0304115
1224,해운대로,48069,35.1938795,129.2055273
99,신산북로,49421,35.0903187,128.9669298
1187-21,중앙대로206번길,48760,35.1155532,129.0425868
64,서전로46번길,47294,35.1548843,129.0644734
369,충렬대로,47787,35.1982867,129.0990517
133,전포대로,48400,35.1482885,129.0654374
186,범일로,47357,35.1466466,129.0594957
190,범일로,47357,35.1469847,129.0598238
12,황령대로,47354,35.1477977,129.0611056
178,범일로,47357,35.1460149,129.0598200
12,중앙번영로,47361,35.1448058,129.0603338
60,황령대로8번길,47357,35.1450330,129.0599070
6,중앙번영로,47361,35.1447914,129.0597811
69,골드테마길,47361,35.1447924,129.0598791
166,범일로,47361,35.1447875,129.0595232
65,골드테마길,47361,35.1446637,129.0598852
63,골드테마길,47361,35.1445944,129.0598912
61,골드테마길,47361,35.1445202,129.0598912
582-2,중앙대로,47359,35.1448371,129.0583661
77,범일로131번길,47359,35.1447540,129.0585259
71,범일로131번길,47359,35.1445015,129.0585187
56,범일로131번길,47360,35.1437393,129.0587454
60,범일로131번길,47360,35.1440336,129.0587353
11,범일로153번길,47359,35.1436404,129.0585711
52,범일로131번길,47360,35.1436427,129.0587756
151-1,범일로,47360,35.1435756,129.0590592
147,범일로,47360,35.1430939,129.0590438
32,중앙번영로,47362,35.1447874,129.0627039
604-1,중앙대로,47358,35.1467285,129.0589256
185,범일로,47358,35.1465949,129.0590357
173,범일로,47358,35.1455687,129.0590399
171,범일로,47358,35.1453779,129.0589405
169,범일로,47358,35.1451776,129.0590294
78,센텀중앙로,1462,35.1746921,129.1266023
50,신암로,47370,35.1467088,129.0561458
50-1,신암로,47370,35.1468806,129.0560881
25,센텀동로,48059,35.1715954,129.1308347
78,센텀중앙로,48059,35.1744860,129.1270945
8,수영로322번길,48508,35.1373473,129.1012909
1410-26,해운대해변로,48099,35.1600424,129.1630692
9-1,광안로41번길,48296,35.1559196,129.1167559
311,수영로,48434,35.1375849,129.0999284
313,수영로,48434,35.1376242,129.1000378
300,수영로,48499,35.1367676,129.0992256
300,수영로,48499,35.1366793,129.0993054
305,수영로,48434,35.1373827,129.0992800
323,수영로,48434,35.1381679,129.1010482
305,수영로,48434,35.1373846,129.0992282
46,구남로41번길,48095,35.1620550,129.1627916
93,덕천1길,46577,35.2108515,129.0105624
63,구덕로,48983,35.0977584,129.0289583
11,당감로,47190,35.1626973,129.0396401
44,우동1로,48087,35.1653656,129.1576231
39-8,전포대로209번길,47294,35.1550707,129.0627787
30,장전로12번길,46292,35.2290283,129.0880344
0515028231,낙민한신아파트,970,35.1937140,129.0975153
117-10,부전로,47255,35.1610301,129.0545749
43,수영로660번길,48268,35.1642193,129.1177397
13,전포대로216번길,47303,35.1558735,129.0663345
81,좌동순환로468번가길,48103,35.1646362,129.1750019
6-10,상장안2길,46028,35.3699160,129.2448099
24,장전로12번길,46292,35.2288191,129.0879905
910,중앙대로,47222,35.1713931,129.0703581
912,중앙대로,47222,35.1716027,129.0704147
216,까치치고개로,49245,35.0996983,129.0193800
19,공수1길,46084,35.1834396,129.2119148
20,서전로37번길,47247,35.1587744,129.0641268
69,중앙대로680번가길,47292,35.1566318,129.0607322
449-5,온천천로,47900,35.1918549,129.1021160
722-4,중앙대로,47291,35.1571372,129.0598120
7,대청로138번길,48956,35.1022171,129.0351812
15,전포대로199번길,47297,35.1543226,129.0642886
42,명륜로207번길,47741,35.2125195,129.0807174
36,구남로,48094,35.1610036,129.1608031
78,센텀중앙로,48059,35.1746526,129.1268796
8,만덕3로,46570,35.2127337,129.0249595
68 D동,반송로,47551,35.1897818,129.0873352
1074,해운대로,48073,35.1815134,129.1995414
15-19,자유평화로37번길,47366,35.1419208,129.0626346
9 라메르호텔,조방로34번길,48739,35.1404100,129.0623785
133,광안해변로,48304,35.1466991,129.1142908
17-6,전포대로209번길,47294,35.1552083,129.0641726
41-1,서전로68번길,47302,35.1559406,129.0674935
620,르노삼성대로,46773,35.1027279,128.9295168
89-12,장곡길,460039,35.3044520,129.2486432
287,해운대해변로,48095,35.1605269,129.1623734
287,해운대해변로,48095,35.1605584,129.1623474
287,해운대해변로,48095,35.1605766,129.1623734
352,곡천길,46046,35.2845554,129.2056014
19,민락로28번길,48286,35.1578753,129.1227558
147,민락수변로,48280,35.1568848,129.1344951
48-2,금정로60번길,46292,35.2291987,129.0885938
38,소정길,46076,35.2019904,129.2040038
13,연안로58번길,47905,35.1920912,129.1115186
6,전포대로210번길,47304,35.1553256,129.0658049
25,서전로,47247,35.1580336,129.0625039
22,장림번영로,49476,35.0809266,128.9679458
13,전포대로216번길,47303,35.1559166,129.0662879
"23, 103동 103호",사상로223번길,46963,35.1646450,128.9814050
304,남구 수영로,48499,35.1368246,129.0994312
2F,용소로28,48498,35.1348423,129.1006556
36,동천로108번길,47247,35.1581540,129.0642776
39,사상로224번길,46965,35.1657871,128.9853216
20,센텀3로,48060,35.1679916,129.1327380
33,명지오션시티8로22번길,46763,35.0864249,128.9094869
104,수림로72번길,46245,35.2441551,129.0865981
26,남천바다로,48314,35.1489039,129.1132474
38,명륜로129번다길,47735,35.2069503,129.0794391
346-8,내리,619902,35.2088529,129.2061974
292,광안해변로,48283,35.1560330,129.1255422
9,동성로87번길,47301,35.1578996,129.0677352
263202132001,금곡대로270,46536,35.2322640,129.0138517
10,수영로575번길,48255,35.1574448,129.1124427
6,태종로105번길,49036,35.0914660,129.0426234
12,광안로41번길,48296,35.1559054,129.1168830
147,민락수변로,48280,35.1567910,129.1344966
306호,명륜로2번길 7,47514,35.1955560,129.0809096
91,대동로,47050,35.1383203,128.9779417
25,용소로19번길,48512,35.1362369,129.1019700
7,가야대로587번길,47271,35.1550151,129.0359914
4,중동1로,48095,35.1640432,129.1602315
28,민락로14번길,48286,35.1577102,129.1228493
25,민락로14번길,48286,35.1576786,129.1225790
38,금정로52번길,46292,35.2286311,129.0881212
523,가야대로,47270,35.1537944,129.0291656
521,가야대로,47270,35.1537655,129.0289342
178,북문로 (Bukmun-ro),46237,35.2593761,129.0444418
233-138,꽃마을로163번길,49206,35.1187485,128.9997637
265,해운대로,48057,35.1767873,129.1314273
24,전망로,49127,35.0585659,129.0869017
250,범어사로,46200,35.2839840,129.0686420
452,산성로,46237,35.2503808,129.0561257
428,신선로,48520,35.1221581,129.1018559
57,금곡대로616번길,46505,35.2631967,129.0156618
193,효열로,46506,35.2625278,129.0174301
10-9,금곡대로616번길,46507,35.2611996,129.0149982
10-9,금곡대로616번길,46507,35.2604344,129.0146646
10-9,금곡대로 616번길,46507,35.2601437,129.0156389
10-9,금곡대로616번길,46507,35.2617982,129.0157535
10-9,금곡대로616번길,46507,35.2609195,129.0159181
10-9,금곡대로616번길,46507,35.2605778,129.0152406
10-9,금곡대로616번길,46507,35.2614419,129.0160488
14,효열로235번길,46505,35.2656574,129.0198332
466,금곡대로,46509,35.2500901,129.0128441
140,하신번영로,49429,35.0951830,128.9606233
45,해양로301번길,49111,35.0785635,129.0803222
52,충장대로9번길,48936,35.1097265,129.0390266
597,가야대로 (Gaya-daero),47272,35.1551708,129.0370003
627,가야대로 (Gaya-daero),47273,35.1557167,129.0402214
721,가야대로 (Gaya-daero),47261,35.1578426,129.0499337
203,해운대해변로,48093,35.1588045,129.1537597
165,새싹로,47109,35.1708337,129.0495398
30,APEC로,48060,35.1656946,129.1350390
99,광안해변로,48305,35.1437939,129.1148205
206,충장대로,48751,35.1174996,129.0490281
55,APEC로,48060,35.1689377,129.1361563
59,화명대로12번길,46527,35.2322977,129.0093845
43,백양대로1016번다길,46637,35.1939990,128.9960085
44,백양대로1016번다길,46637,35.1941084,128.9950804
85,화명신도시로,46527,35.2318700,129.0100437
570,가덕해안로2번길,46769,35.0680698,128.8523944
60,명지국제5로,46773,35.0996064,128.9217383
35,센텀남대로,48058,35.1687591,129.1298934
15,센텀4로,48058,35.1699300,129.1283092
372-22,백양대로,46997,35.1547997,129.0126235
31,시민공원로,47192,35.1638639,129.0526039
427,장산로,48066,35.1817223,129.1768867
1147,해운대로,48068,35.1876853,129.2025008
11,태종로65번길,49037,35.0932352,129.0384223
166,가야대로679번길,47272,35.1557848,129.0380697
635-12,가야대로 (Gaya-daero),47275,35.1563412,129.0416166
176-12,엄광로 (Eomgwangno),47341,35.1467746,129.0328515
22,대학로,47330,35.1533425,129.0356003
10,개금온정로,47269,35.1544789,129.0265666
531,가야대로 (Gaya-daero),47270,35.1540788,129.0302357
506,가야대로 (Gaya-daero),47324,35.1524569,129.0273538
511,가야대로 (Gaya-daero),47325,35.1529971,129.0283314
7,가야공원로,47326,35.1530468,129.0300562
10,가야공원로,47325,35.1524774,129.0295221
8,가야공원로14번길,47325,35.1523882,129.0291878
227-1,냉정로,47327,35.1520276,129.0245669
9,가야대로557번길,47271,35.1549825,129.0324351
269,수영로,48443,35.1359417,129.0959941
11,중앙대로260번길,48731,35.1203231,129.0440952
148,가야대로679번길,47272,35.1561085,129.0387291
144,가야대로679번길,47272,35.1562251,129.0389584
594,가야대로 (Gaya-daero),47330,35.1545358,129.0369249
49,엄광로182번길,47339,35.1463486,129.0357558
154,엄광로 (Eomgwangno),47341,35.1478623,129.0320441
166,엄광로 (Eomgwangno),47341,35.1476245,129.0331048
170,엄광로 (Eomgwangno),47341,35.1476846,129.0332110
172,엄광로 (Eomgwangno),47341,35.1476385,129.0333658
174,엄광로 (Eomgwangno),47341,35.1475570,129.0334795
15-25,엄광로182번길,47339,35.1481929,129.0365333
11,엄광로190번길,47339,35.1480452,129.0356349
11,대학로,47335,35.1541874,129.0373115
13,대학로,47335,35.1540628,129.0372006
15,대학로,47335,35.1538362,129.0370190
25,대학로,47330,35.1531978,129.0365294
23-1,대학로,47335,35.1532750,129.0365893
23,대학로,47335,35.1533548,129.0367194
21-1,대학로,47335,35.1534622,129.0367865
17,대학로,47335,35.1536231,129.0368800
7,대학로,47331,35.1543746,129.0375948
610,가야대로 (Gaya-daero),47331,35.1547065,129.0385013
263-6,엄광로 (Eomgwangno),47331,35.1543666,129.0389023
270,엄광로 (Eomgwangno),47334,35.1540776,129.0394347
614,가야대로 (Gaya-daero),47331,35.1547654,129.0389517
55,APEC로,48060,35.1690877,129.1338368
6,센텀동로,48059,35.1708837,129.1336728
34,효열로203번길,46506,35.2631946,129.0167027
367,해양로,49111,35.0775059,129.0785359
367,해양로,49111,35.0765866,129.0762909
367,해양로,49111,35.0768634,129.0774063
367,해양로,49111,35.0760034,129.0756377
367,해양로,49111,35.0764465,129.0763519
431- 42,온천천로,47901,35.1935572,129.1000123
28,온천천로 431번길,47901,35.1931357,129.1002377
513번길 66-21,반송로,48002,35.2213916,129.1187250
2100-1,중앙대로,46214,35.2718136,129.0932012
26,은행나무로,46612,35.2071751,129.0378419
32,두송로,49510,35.0780752,128.9802533
140,수영강변대로 (Suyeonggangbyeon-daero),48058,35.1727438,129.1256178
2128-12,중앙대로 (Jungang-daero),46213,35.2741508,129.0937392
113,금정로,46285,35.2347197,129.0872073
27,금강로335번길,46282,35.2377074,129.0849401
737-1,낙동북로,46634,35.1991300,129.0019178
372-15,백양대로 (Baekyang-daero),46997,35.1540674,129.0098134
1001,중앙대로,47545,35.1804603,129.0755538
124,금단로,46215,35.2604725,129.0932101
23,연수로315번길,48208,35.1734371,129.1049104
262,감천로,49267,35.0809010,129.0145695
25,충무대로,49270,35.0782498,129.0156564
26,재반로125번길,48054,35.1896332,129.1254177
78,센텀중앙로,48059,35.1746322,129.1269638
31,학사로17번길,46542,35.2219555,129.0071057
175,금곡대로,46541,35.2246451,129.0091075
149,삼어로,48044,35.2106444,129.1194785
265,낙동대로 (Nakdong-daero),49379,35.0982616,128.9877595
261,낙동대로 (Nakdong-daero),49379,35.0982435,128.9894877
23,다송로,49515,35.0651168,128.9832892
11,효열로 (Hyoyeollo),46509,35.2476905,129.0147080
455-1,금샘로,46235,35.2634106,129.0823537
455-1,금샘로,46235,35.2637499,129.0833218
100,다대낙조2길,49497,35.0543311,128.9638057
357,금곡대로 (Geumgok-daero),46523,35.2404270,129.0136881
22,다대로429번길,49519,35.0616577,128.9793090
55,APEC로,48060,35.1697058,129.1343924
65,금샘로 485번길,46234,35.2656454,129.0800085
65,금샘로 485번길,46234,35.2663304,129.0800895
65,금샘로 485번길,46234,35.2676230,129.0794459
65,금샘로 485번길,46234,35.2674227,129.0785796
65,금샘로 485번길,46234,35.2661898,129.0805331
65,금샘로 485번길,46234,35.2671287,129.0810485
65,금샘로 485번길,46234,35.2672464,129.0780535
65,금샘로 485번길,46234,35.2677661,129.0782842
65,금샘로 485번길,46234,35.2679799,129.0768870
61,거제천로230번길,47519,35.1892609,129.0828103
92,동천로,47293,35.1570501,129.0631512
694,중앙대로,47295,35.1547799,129.0595893
23,해맞이로 (Haemajiro),47536,35.1767955,129.0663229
179,전포대로 (Jeonpo-daero),47297,35.1525853,129.0650097
50,양지로,47230,35.1658921,129.0713859
31-1,묘봉산로,47582,35.1835909,129.0904265
65,금샘로 485번길,46234,35.2672052,129.0787725
1024,중앙대로 (Jungang-daero),47599,35.1800059,129.0773540
993,중앙대로,47209,35.1780216,129.0745323
1000,중앙대로 (Jungang-daero),47606,35.1778812,129.0757132
50,금곡대로 92번길,46545,35.2189281,129.0083431
86,차성로288번길,46065,35.2437410,129.2187844
111-10,일광로,46044,35.2674555,129.2329995
20번길 28,부전로,47295,35.1531639,129.0571615
66,남산로,46222,35.2676115,129.0853546
525,금샘로,46234,35.2688196,129.0840508
483,금샘로,46234,35.2657588,129.0849124
7,이기대공원로,48576,35.1245931,129.1134919
5,대영로,49227,35.1109532,129.0130087
64,구덕로321번길,49225,35.1114387,129.0133350
50,구덕로321번길,49225,35.1116950,129.0139843
137,구락로,48212,35.1784752,129.1153445
71,재반로118번길,48053,35.1901079,129.1297450
71,재반로118번길,48053,35.1902674,129.1299709
71,재반로118번길,48053,35.1904396,129.1302064
71,재반로118번길,48053,35.1905887,129.1304133
71,재반로118번길,48053,35.1908420,129.1305402
71,재반로118번길,48053,35.1911417,129.1297818
71,재반로118번길,48053,35.1913917,129.1299183
71,재반로118번길,48053,35.1916319,129.1298633
71,재반로118번길,48053,35.1910715,129.1290358
71,재반로118번길,48053,35.1912921,129.1289863
71,재반로118번길,48053,35.1915334,129.1289599
85번길 70,과정로 (Gwajeongno),48201,35.1792203,129.1026069
188,금샘로 485번길,46234,35.2690957,129.0750393
32,명장로,47773,35.2047889,129.1042843
10,만덕2로44번길,46566,35.2101876,129.0372378
16,용호로,48518,35.1278913,129.1049873
123,동명로101번길,48521,35.1254626,129.1081251
94,용호로42번길,48525,35.1227571,129.1090219
59,동부산관광6로,40681,35.2045723,129.2127964
80,수영로 196번길,48472,35.1304309,129.0874935
20-9,동명로169번길,48581,35.1199362,129.1161552
19,못골로,48452,35.1365411,129.0843839
26,대신공원로,49201,35.1201667,129.0177648
19,소정로,46296,35.2277608,129.0809804
130,오륙도로,48595,35.0913248,129.1268297
455-1,금샘로,46235,35.2633877,129.0832049
614,금강로,46227,35.2625445,129.0889056
456,금샘로,46226,35.2637202,129.0856787
702,가야대로,47278,35.1561135,129.0490345
734,가야대로 (Gaya-daero),47281,35.1570743,129.0516064
734,가야대로 (Gaya-daero),47281,35.1566551,129.0522698
63,유엔평화로,48529,35.1293905,129.0943420
124,우암로,48542,35.1215623,129.0822381
13,법원북로,47503,35.1939617,129.0684013
55,센텀5로,48059,35.1729882,129.1315487
19,대저로221번길,46702,35.2155351,128.9767768
35,충무대로,49270,35.0786933,129.0162758
522,암남공원로,49268,35.0797052,129.0118129
45,용소로,48513,35.1339160,129.1055009
35,금강로 513번길,46231,35.2542013,129.0870824
48,금강로 513번길,46231,35.2539055,129.0857719
164,금샘로 485번길,46234,35.2693824,129.0766921
166,금샘로 485번길,46234,35.2699734,129.0757794
6,팔송로,46218,35.2726982,129.0918870
114,금단로,46215,35.2593290,129.0937553
1938,중앙대로,46249,35.2573330,129.0917314
1942,중앙대로,46249,35.2576417,129.0917398
1940,중앙대로,46249,35.2575057,129.0916869
10,중앙대로1944번길,46249,35.2574768,129.0919061
105,중앙대로,48924,35.1072303,129.0358104
154,엄광로 (Eomgwangno),47341,35.1484154,129.0324054
154,엄광로 (Eomgwangno),47341,35.1476020,129.0320752
154,엄광로 (Eomgwangno),47341,35.1481763,129.0323863
650,기장대로,46077,35.2521398,129.2235073
673,기장대로,46048,35.2546678,129.2218654
658,중앙대로,47300,35.1515190,129.0595847
224,중앙대로,48733,35.1169456,129.0411653
511,좌동순환로,48096,35.1659762,129.1673794
91,양운로,48102,35.1709225,129.1741845
15,세실로69번길,48106,35.1715054,129.1759861
247,좌동순환로,48108,35.1737870,129.1811677
12,양운로42번길,48111,35.1680284,129.1778700
506,진남로,47228,35.1683523,129.0732179
15,고분로13번길,47549,35.1867278,129.0841540
12,청사포로,48113,35.1663830,129.1830506
12,청사포로,48113,35.1658938,129.1826688
12,청사포로,48113,35.1654575,129.1823201
12,청사포로,48113,35.1650359,129.1818027
12,청사포로,48113,35.1654418,129.1817386
12,청사포로,48113,35.1651702,129.1828546
12,청사포로 (Cheongsapo-ro),48113,35.1656727,129.1832298
12,청사포로 (Cheongsapo-ro),48113,35.1659808,129.1840190
12,청사포로,48113,35.1655533,129.1837155
12,청사포로,48113,35.1651227,129.1834102
12,청사포로,48113,35.1650968,129.1838957
12,청사포로,48113,35.1650836,129.1843928
12,청사포로,48113,35.1651066,129.1848073
12,청사포로 (Cheongsapo-ro),48113,35.1655897,129.1843656
79,동천로,47292,35.1559114,129.0619229
2,망양로685번길,48714,35.1271177,129.0407616
162,좌동로 (Jwadongno),48018,35.1751624,129.1820112
137,세실로,48078,35.1768665,129.1753582
183,좌동순환로,48075,35.1779037,129.1761915
185,좌동순환로,48075,35.1778732,129.1763950
454-20,신선로,48518,35.1254997,129.1028535
43-6,금샘로17번길(Geumsaem-ro 17beon-gil),46240,35.2272819,129.0755366
15,공단서로,46333,35.2159383,129.1108332
42,금샘로17번길(Geumsaem-ro 17beon-gil),46240,35.2267536,129.0756611
454-20,신선로,48518,35.1257473,129.1035733
34,낙동대로1210번길,46962,35.1669161,128.9784030
1407,낙동남로,49311,35.1065173,128.9655813
1405번길9-11,낙동남로,49312,35.1068951,128.9645886
1419,낙동남로,49311,35.1064901,128.9668856
313번길 68,하신중앙로,49425,35.1053660,128.9609136
23번길 9,동매로,49428,35.1041870,128.9608528
1405번길9,낙동남로,49312,35.1070926,128.9653108
14,용호로42번길,48517,35.1253958,129.1083976
457,낙동대로,49408,35.1054555,128.9687507
344,하신중앙로,49407,35.1055966,128.9677863
466,낙동대로,49325,35.1064446,128.9687769
474,낙동대로,49325,35.1071934,128.9682667
487,낙동대로,49310,35.1079020,128.9669186
1423번길 55,낙동남로,49309,35.1088083,128.9657099
454-20,신선로,48518,35.1263595,129.1036609
454-20,신선로,48518,35.1251786,129.1027669
454-20,신선로,48518,35.1248315,129.1023452
18,고관로,48731,35.1212618,129.0424846
586,금곡대로,46507,35.2596032,129.0138660
13,법원북로,47503,35.1938901,129.0679117
13,법원북로,47503,35.1935669,129.0680009
13,법원북로,47503,35.1937229,129.0688912
13,법원북로,47503,35.1940814,129.0678188
13,법원북로,47503,35.1942863,129.0687340
13,법원북로,47503,35.1939603,129.0683527
409,녹산산업중로,46755,35.0938382,128.8647963
71,재반로118번길,48053,35.1910023,129.1297795
308,하신중앙로,49414,35.1039583,128.9642220
641,Suyeong-Ro,48247,35.1632188,129.1136833
641,수영로,48247,35.1629731,129.1134063
"68번길 50, 2층",서면로,47286,35.1548086,129.0583164
35,만덕대로,46548,35.2112082,129.0087760
60,금곡대로20번길,46546,35.2123977,129.0079801
93,복지로,47396,35.1448454,129.0195407
274,금곡대로,46536,35.2327754,129.0137919
23,낙동북로681번길,46634,35.2016859,128.9994149
377,하신번영로,49305,35.1145833,128.9605333
268-32,갈맷길,46083,35.1978704,129.2281041
563,기장대로,46064,35.2450362,129.2199793
10,차성동로5번길,46070,35.2387269,129.2159418
19,광복중앙로,48948,35.1010809,129.0305803
10,광복로55번길,48947,35.0999815,129.0304071
130,연수로,47610,35.1735340,129.0844303
13,월드컵대로252번길,47509,35.1913632,129.0701806
5,월드컵대로252번길,47509,35.1911367,129.0698248
258-18,월드컵대로,47509,35.1915739,129.0699718
266,월드컵대로,47509,35.1915001,129.0688315
5,월드컵대로25번길,47509,35.1911771,129.0697335
5,월드컵대로252번길,47509,35.1909094,129.0697598
80,명지오션시티10로,48763,35.0862431,128.9047026
111,명지지국제7로,46772,35.0974517,128.9135939
255,르노삼성대로,46726,35.0896570,128.8986986
1층,명지오션시티87-1,46763,35.0876239,128.9117057
367,해양로,49111,35.0776175,129.0777019
367,해양로,49111,35.0780259,129.0780773
367,해양로,49111,35.0778394,129.0782522
367,해양로,49111,35.0774933,129.0765269
367,해양로,49111,35.0772251,129.0771623
279,수영로,48443,35.1362322,129.0969896
61,수영로267번길,48442,35.1376896,129.0945727
176,엄광로,47340,35.1423207,129.0352722
4,용수로,46013,35.3255659,129.1802904
52,만덕3로,46571,35.2113749,129.0291595
10,신호산단4로,46760,35.0850729,128.8739435
21,신호산단2로,46759,35.0870781,128.8777685
31,신호산단5로,46760,35.0835146,128.8769751
27,신호산단3로,46760,35.0876349,128.8764116
76,신호산단1로,46760,35.0822371,128.8726856
124,신호산단1로,46760,35.0811307,128.8772189
8-3,신호산단1로140번길,46759,35.0808358,128.8789217
9,신호산단2로49번길,46759,35.0847633,128.8779450
12,신호산단4로64번길,46759,35.0847058,128.8795652
30,신호산단4로64번가길,46759,35.0852576,128.8814768
29,신호산단2로,46759,35.0862969,128.8778051
58,영강길19번길,46725,35.1082054,128.9264677
271,낙동대로,49379,35.0988453,128.9875629
35,명지오션시티11로,46762,35.0845599,128.9000796
71,거제천로230번길,47520,35.1886650,129.0831309
81,거제천로230번길,47520,35.1883820,129.0831998
21,반송로,47520,35.1875298,129.0832392
199,장림로,49474,35.0834832,128.9696700
35-32,황령산로605번길,47227,35.1703320,129.0807185
35-10,황령산로605번길,47227,35.1713823,129.0812342
88-12,양정로,47227,35.1700705,129.0786281
48,양정로,47227,35.1689196,129.0751409
524,진남로,47228,35.1700198,129.0726709
46,양정로,47227,35.1693780,129.0741764
301,해운대구 재반로,48036,35.2025825,129.1293524
148,재반로84번길,48053,35.1896901,129.1309850
29-1,양지로,47228,35.1670611,129.0720384
54,양지로,47230,35.1654071,129.0725199
24,금사로57번길,46314,35.2193884,129.1092860
97,센텀중앙로,48059,35.1751125,129.1248923
52,장인로77번길,47025,35.1437756,128.9788236
24,해운대해변로298번길,48099,35.1602217,129.1662025
24,해운대해변로298번길,48099,35.1601898,129.1669752
100,광안해변로,48305,35.1427954,129.1157214
91,해운대로469번가길,48064,35.1668695,129.1458638
102,해운대로469번가길,48064,35.1671908,129.1465206
91,해운대로469번가길,48064,35.1669426,129.1458008
16,진남로462번길,47230,35.1648588,129.0707466
601,가야대로 (Gaya-daero),47272,35.1552380,129.0376629
175,세실로,48075,35.1805979,129.1765841
23,해맞이로 (Haemajiro),47536,35.1766920,129.0670717
30,거제천로87번길,47543,35.1831758,129.0725805
37,대천로67번길,48084,35.1737099,129.1661960
30,성지로61번길,47129,35.1759206,129.0527480
45,다대로 (Dadaero)227번길,49458,35.0801364,128.9788196
336,흥곡로,48538,35.1222233,129.0917238
48,미음산단5로,46744,35.1596648,128.8638887
1,고동골로60번길,48416,35.1425334,129.0713302
31-7,전포대로92번길,48404,35.1452642,129.0686955
7,연수로382번길,48242,35.1695704,129.1112201
71-2,동영로,48915,35.1115883,129.0318267
110,중앙대로,48938,35.1072259,129.0367086
12,범상로,48718,35.1412834,129.0492301
8,가야대로703번라길,47262,35.1580588,129.0469752
130,연수로,47610,35.1733932,129.0813719
27,냉정로252번길,47327,35.1498114,129.0266125
51,망미로30번길,48239,35.1700289,129.1006656
53,연수로260번길,48239,35.1703344,129.0990724
51,연수로260번길,48239,35.1708684,129.0992051
755,낙동북로,46633,35.2007956,129.0021287
75,낙동대로1762번길,46583,35.2064669,129.0011288
23,시랑로118번길,46644,35.1949463,129.0088241
1,만덕1로,46561,35.2134588,129.0363437
118,덕천로,46589,35.2099476,129.0174709
11,만덕대로102번가길,46568,35.2123983,129.0167042
58,양달로,46516,35.2435019,129.0198731
127,금강로,47703,35.2200230,129.0801715
28,충렬대로107번길,47732,35.2079771,129.0730491
21,아시아드대로231번길,47850,35.2049114,129.0663492
1,복천로,47748,35.2058010,129.0861568
48,온천천로339번길,47886,35.1960589,129.0910554
72,장림로93번길,49478,35.0791899,128.9516512
76,장림로93번길,49478,35.0787554,128.9517601
3,다대로1066번길,49478,35.0781993,128.9518477
3,다대로1066번길,49478,35.0780305,128.9518530
27,다대로1066번길,49478,35.0789216,128.9542902
27,다대로1066번길,49478,35.0793687,128.9541355
79-6,장림로93번길,49478,35.0795716,128.9534846
79-6,장림로93번길,49478,35.0796397,128.9538896
79-6,장림로93번길,49478,35.0798043,128.9541403
77,장림로93번길,49478,35.0788419,128.9521289
77,장림로93번길,49478,35.0790469,128.9520847
77,장림로93번길,49478,35.0787711,128.9521490
466,을숙도대로,49470,35.0829403,128.9543201
7,하신번영로,49470,35.0827312,128.9589762
7,하신번영로,49470,35.0830667,128.9596531
60,하신중앙로53번길,49470,35.0826240,128.9587411
60,하신중앙로53번길,49470,35.0826797,128.9573689
60,하신중앙로53번길,49470,35.0828050,128.9573066
60,하신중앙로53번길,49470,35.0830551,128.9573951
60,하신중앙로53번길,49470,35.0829605,128.9576468
60,하신중앙로53번길,49470,35.0829547,128.9581443
60,하신중앙로53번길,49470,35.0831729,128.9578325
7,하신번영로,49470,35.0835314,128.9579887
7,하신번영로,49470,35.0835204,128.9582729
7,하신번영로,49470,35.0835050,128.9585546
7,하신번영로,49470,35.0834842,128.9588442
7,하신번영로,49470,35.0835083,128.9593190
7,하신번영로,49470,35.0834995,128.9595322
7,하신번영로,49470,35.0827564,128.9592133
7,하신번영로,49470,35.0827839,128.9594504
17,을숙도대로480번길,49470,35.0839714,128.9578317
15,을숙도대로480번길,49470,35.0841986,128.9577592
11,을숙도대로480번길,49470,35.0844916,128.9580101
11,을숙도대로480번길,49470,35.0844774,128.9582260
15-1,을숙도대로480번길,49470,35.0841920,128.9580234
15-2,을숙도대로480번길,49470,35.0841701,128.9582582
19,하신번영로,49470,35.0842319,128.9586159
19,하신번영로,49470,35.0842231,128.9587546
19,하신번영로,49470,35.0842167,128.9588978
19,하신번영로,49470,35.0842105,128.9590642
19,하신번영로,49470,35.0842004,128.9592213
19,하신번영로,49470,35.0842256,128.9593733
19,하신번영로,49470,35.0843932,128.9596788
19,하신번영로,49470,35.0840546,128.9597107
19,하신번영로,49470,35.0838826,128.9596351
11,을숙도대로480번길,49470,35.0845795,128.9584709
11,을숙도대로480번길,49470,35.0844739,128.9584411
6,다대로1066번길,49478,35.0773827,128.9522635
6,다대로1066번길,49478,35.0775168,128.9520770
67,다산로225번길,49478,35.0772715,128.9521921
67,다산로225번길,49478,35.0771392,128.9521117
63,다산로225번길,49478,35.0770219,128.9521881
67,다산로225번길,49478,35.0771504,128.9523532
63,다산로225번길,49478,35.0770057,128.9523995
10,다대로1066번길,49478,35.0776707,128.9524440
10,다대로1066번길,49478,35.0777597,128.9524790
10,다대로1066번길,49478,35.0775334,128.9525292
10,다대로1066번길,49478,35.0773902,128.9525709
10,다대로1066번길,49478,35.0775149,128.9527241
10,다대로1066번길,49478,35.0777053,128.9527070
10,다대로1066번길,49478,35.0773949,128.9528045
66,다산로225번길,49478,35.0772396,128.9527228
277,다산로,49478,35.0773242,128.9534139
24,다대로1066번길,49478,35.0779006,128.9544968
24,다대로1066번길,49478,35.0780271,128.9541402
32,다대로1066번길,49478,35.0779165,128.9548549
32,다대로1066번길,49478,35.0781222,128.9549778
32,다대로1066번길,49478,35.0777059,128.9549222
32,다대로1066번길,49478,35.0776921,128.9553316
32,다대로1066번길,49478,35.0778009,128.9554020
32,다대로1066번길,49478,35.0778863,128.9554114
59,다산로225번길,49478,35.0767863,128.9524422
59,다산로225번길,49478,35.0768033,128.9522258
59,다산로225번길,49478,35.0766111,128.9522467
55,다산로225번길,49478,35.0762725,128.9523827
55,다산로225번길,49478,35.0763188,128.9526204
58,다산로225번길,49478,35.0766114,128.9532647
58,다산로225번길,49478,35.0767924,128.9529747
58,다산로225번길,49478,35.0765742,128.9530610
271,다산로,49478,35.0769462,128.9536680
271,다산로,49478,35.0765718,128.9535361
271,다산로,49478,35.0764737,128.9539256
56,다산로225번길,49478,35.0764076,128.9532099
56,다산로225번길,49478,35.0763787,128.9529668
56,다산로225번길,49478,35.0762735,128.9529930
52,다산로225번길,49478,35.0760683,128.9532800
52,다산로225번길,49478,35.0761491,128.9529139
52,다산로225번길,49478,35.0757494,128.9531181
259,다산로,49478,35.0758101,128.9533166
261,다산로,49478,35.0758475,128.9534958
263,다산로,49478,35.0759855,128.9536543
267,다산로,49478,35.0761980,128.9535953
267,다산로,49478,35.0763068,128.9538329
267,다산로,49478,35.0763404,128.9540015
267,다산로,49478,35.0763617,128.9541136
265,다산로,49478,35.0759999,128.9538728
265,다산로,49478,35.0760242,128.9540144
265,다산로,49478,35.0760696,128.9541645
265,다산로,49478,35.0759349,128.9541970
37,성지로,47128,35.1750297,129.0519889
39,장평로,49491,35.0694781,128.9727102
37,장평로,49491,35.0693089,128.9729581
35,장평로,49491,35.0691969,128.9731319
33,장평로,49491,35.0690933,128.9733351
31-1,장평로,49491,35.0688439,128.9735180
31-5,장평로,49491,35.0686714,128.9732505
31-5,장평로,49491,35.0685505,128.9731262
31-1,장평로,49491,35.0684966,128.9736255
31,장평로,49491,35.0682973,128.9739865
31,장평로,49491,35.0684168,128.9740946
31-7,장평로,49491,35.0681607,128.9738893
31-7,장평로,49491,35.0682900,128.9736115
30,장평로15번길,49491,35.0679946,128.9743189
30,장평로15번길,49491,35.0681703,128.9742137
30,장평로15번길,49491,35.0682510,128.9744520
25,장평로15번길,49491,35.0681797,128.9748038
31-2,장평로,49491,35.0685390,128.9741895
26,장평로15번길,49491,35.0685077,128.9744737
26,장평로15번길,49491,35.0685530,128.9746873
20,장평로15번길,49491,35.0686688,128.9746724
14,장평로15번길,49491,35.0687378,128.9747822
21,장평로15번길,49491,35.0683483,128.9750209
1,장평로15번길,49491,35.0685237,128.9751056
3-1,장평로15번길,49491,35.0683027,128.9753249
1,장평로15번길,49491,35.0686828,128.9752676
1,장평로15번길,49491,35.0686146,128.9751294
1,장평로15번길,49491,35.0686672,128.9751352
3,장평로15번길,49491,35.0684968,128.9754176
1-6,장평로15번길,49491,35.0686300,128.9754714
1-5,장평로15번길,49491,35.0680362,128.9756033
1-4,장평로15번길,49491,35.0681044,128.9756948
5,장평로15번길,49491,35.0681117,128.9759594
1-3,장평로15번길,49491,35.0681858,128.9757498
1-2,장평로15번길,49491,35.0682670,128.9758024
1-1,장평로15번길,49491,35.0683406,128.9758759
31-1,장평로,49491,35.0687741,128.9736946
31,장평로,49491,35.0691012,128.9738395
31,장평로,49491,35.0688792,128.9740672
27,장평로,49491,35.0688019,128.9742978
23,장평로,49491,35.0688080,128.9744453
23,장평로,49491,35.0688835,128.9746258
23,장평로,49491,35.0690211,128.9746722
19,장평로,49491,35.0688442,128.9748897
19,장평로,49491,35.0689623,128.9748924
19,장평로,49491,35.0689757,128.9753060
1,장평로15번길,49491,35.0686172,128.9758953
13,장평로,49491,35.0688613,128.9759191
15,장평로,49491,35.0688438,128.9757596
1,장평로,49491,35.0688632,128.9769902
7,장평로,49491,35.0687804,128.9763709
1,장평로,49491,35.0686064,128.9770903
374,다대로,49491,35.0687157,128.9776929
384-3,다대로,49490,35.0671162,128.9757753
384-3,다대로,49490,35.0672053,128.9758597
384-3,다대로,49490,35.0671025,128.9759180
384-3,다대로,49490,35.0669467,128.9758544
384-3,다대로,49490,35.0670246,128.9758736
405-1,다대로,49514,35.0669931,128.9803864
58,다대로385번길,49514,35.0671393,128.9805268
54,다대로385번길,49514,35.0672432,128.9806718
4+,다대로385번길,49514,35.0674768,128.9807260
50,다대로385번길,49514,35.0673290,128.9805754
39,다대로385번안길,49514,35.0672140,128.9804156
405,다대로,49514,35.0670677,128.9802701
403-1,다대로,49514,35.0671321,128.9801815
403,다대로,49514,35.0672031,128.9800966
37,다대로385번안길,49514,35.0673030,128.9803247
35,다대로385번안길,49514,35.0673909,128.9802351
48,다대로385번길,49514,35.0674239,128.9804537
47,다대로385번길,49514,35.0675629,128.9806466
45,다대로385번길,49514,35.0676459,128.9805377
44,다대로385번길,49514,35.0674993,128.9803570
40,다대로385번길,49514,35.0675874,128.9802357
41,다대로385번길,49514,35.0677381,128.9804184
377,다대로,49511,35.0691604,128.9781018
371,다대로,49511,35.0694973,128.9779089
379,다대로,49513,35.0690216,128.9784022
381,다대로,49514,35.0687433,128.9785726
8,다대로381번길,49514,35.0687836,128.9789210
381,다대로,49514,35.0686656,128.9784177
401-1,다대로,49514,35.0672796,128.9800080
401,다대로,49514,35.0673569,128.9799230
399-1,다대로,49514,35.0674380,128.9798217
399,다대로,49514,35.0675106,128.9797219
397,다대로,49514,35.0676092,128.9795894
395-1,다대로,49514,35.0676901,128.9794990
395,다대로,49514,35.0677616,128.9793990
393-1,다대로,49514,35.0678411,128.9793057
393,다대로,49514,35.0679291,128.9791962
391,다대로,49514,35.0680172,128.9790908
389,다대로,49514,35.0681134,128.9789735
387,다대로,49514,35.0682170,128.9788760
385,다대로,49514,35.0683291,128.9787939
37,다대로385번길,49514,35.0678110,128.9803182
29,다대로385번길,49514,35.0681100,128.9799649
27,다대로385번길,49514,35.0682105,128.9798386
38,다대로385번길,49514,35.0676906,128.9801213
36,다대로385번길,49514,35.0677594,128.9800151
25,다대로385번안길,49514,35.0676644,128.9799242
29,다대로385번안길,49514,35.0675909,128.9800241
31,다대로385번안길,49514,35.0674814,128.9800986
21,다대로385번안길,49514,35.0677900,128.9797680
19,다대로385번안길,49514,35.0678803,128.9796712
17,다대로385번안길,49514,35.0679523,128.9795448
15,다대로385번안길,49514,35.0680262,128.9794402
11,다대로385번안길,49514,35.0681463,128.9793305
7,다대로385번안길,49514,35.0682651,128.9792357
5,다대로385번안길,49514,35.0683518,128.9791149
6,다대로385번안길,49514,35.0684547,128.9790052
12,다대로385번길,49514,35.0685187,128.9791348
14,다대로385번길,49514,35.0684040,128.9792527
20,다대로385번길,49514,35.0683071,128.9793717
22,다대로385번길,49514,35.0682421,128.9794700
23,다대로385번길,49514,35.0682760,128.9797315
21,다대로385번길,49514,35.0683501,128.9796389
19,다대로385번길,49514,35.0684569,128.9795679
15,다대로385번길,49514,35.0685186,128.9794917
32,다대로385번길,49514,35.0678753,128.9798695
30,다대로385번길,49514,35.0679535,128.9797704
28,다대로385번길,49514,35.0680520,128.9796598
24,다대로385번길,49514,35.0681365,128.9795558
393,다대로,49514,35.0679524,128.9792920
393-1,다대로,49514,35.0678588,128.9793916
14,충렬대로359번길,47787,35.1985449,129.0984803
8,충렬대로375번길,47797,35.1978623,129.0999006
79-2,명안로9번길,47797,35.1982027,129.1000267
79-1,명안로9번길,47797,35.1981616,129.1001634
79-3,명안로9번길,47797,35.1980410,129.1001202
12,충렬대로375번길,47797,35.1979829,129.0999516
10-5,충렬대로375번길,47797,35.1979422,129.1001159
10-6,충렬대로375번길,47797,35.1978265,129.1000796
73-2,명안로9번길,47797,35.1981264,129.1002972
73-4,명안로9번길,47797,35.1980207,129.1002506
73-6,명안로9번길,47797,35.1979226,129.1002368
73-8,명안로9번길,47797,35.1978383,129.1002054
73-1,명안로9번길,47797,35.1980771,129.1004672
73-3,명안로9번길,47797,35.1979689,129.1004239
73-5,명안로9번길,47797,35.1978793,129.1003927
73-7,명안로9번길,47797,35.1977988,129.1003629
69-1,명안로9번길,47797,35.1979982,129.1007545
69-3,명안로9번길,47797,35.1979001,129.1007226
69-5,명안로9번길,47797,35.1978185,129.1006942
69,명안로9번길,47797,35.1980265,129.1005822
69-4,명안로9번길,47797,35.1979402,129.1005470
69-6,명안로9번길,47797,35.1978599,129.1005131
69-8,명안로9번길,47797,35.1977727,129.1004789
69-7,명안로9번길,47797,35.1977440,129.1006650
7,충렬대로387번길,47797,35.1975708,129.1007462
9,충렬대로387번길,47797,35.1976569,129.1007734
11,충렬대로387번길,47797,35.1977448,129.1008139
13,충렬대로387번길,47797,35.1978468,129.1008303
15,충렬대로387번길,47797,35.1979597,129.1008809
385,충렬대로,47797,35.1974886,129.1007287
385,충렬대로,47797,35.1973889,129.1007176
383,충렬대로,47797,35.1974363,129.1005279
69-9,명안로9번길,47797,35.1976733,129.1006428
385-6,충렬대로,47797,35.1975944,129.1005426
69-10,명안로9번길,47797,35.1976928,129.1004518
381,충렬대로,47797,35.1975665,129.1004069
379,충렬대로,47797,35.1976678,129.1002861
379,충렬대로,47797,35.1976865,129.1002378
379,충렬대로,47797,35.1977426,129.0999905
379,충렬대로,47797,35.1976343,129.0999466
23,충렬대로359번길,47786,35.1989580,129.0983034
15,반송로208번가길,47786,35.1990889,129.0982011
6-4,반송로208번가길,47786,35.1992024,129.0982879
27,충렬대로359번길,47786,35.1991360,129.0984294
15,충렬대로259번길,47786,35.1987610,129.0981478
13,충렬대로259번길,47786,35.1985933,129.0980086
16,반송로208번길,47786,35.1989404,129.0979788
6,반송로208번길,47786,35.1991594,129.0976546
206-1,반송로,47786,35.1992175,129.0974728
206,반송로,47786,35.1990955,129.0974497
204,반송로,47786,35.1989870,129.0973692
202,반송로,47786,35.1988599,129.0972720
351,충렬대로,47786,35.1987696,129.0974281
353,충렬대로,47786,35.1986141,129.0975955
355,충렬대로,47786,35.1984385,129.0979003
89,명안로9번길,47787,35.1982773,129.0995085
87,명안로9번길,47787,35.1982401,129.0996545
85,명안로9번길,47787,35.1982410,129.0998241
13,충렬대로375번길,47787,35.1981405,129.0997711
9-6,충렬대로375번길,47787,35.1981133,129.0994918
11,충렬대로375번길,47787,35.1980656,129.0996511
375,충렬대로,47787,35.1977898,129.0994379
371,충렬대로,47787,35.1978201,129.0992083
369,충렬대로,47787,35.1978541,129.0990094
369,충렬대로,47787,35.1979054,129.0990296
32,충렬대로359번길,47787,35.1991615,129.0988230
101,명안로17번길,47787,35.1991320,129.0989242
28,충렬대로359번길,47787,35.1990235,129.0987161
28,충렬대로359번길,47787,35.1990623,129.0987717
26-3,충렬대로359번길,47787,35.1990265,129.0988820
26-5,충렬대로359번길,47787,35.1989909,129.0989993
99,명안로17번길,47787,35.1991065,129.0990379
97,명안로17번길,47787,35.1990908,129.0991810
95-4,명안로17번길,47787,35.1990043,129.0991368
95-6,명안로17번길,47787,35.1989199,129.0991043
95,명안로17번길,47787,35.1990525,129.0993336
95-3,명안로17번길,47787,35.1989561,129.0993115
95-5,명안로17번길,47787,35.1988687,129.0992793
89-6,명안로17번길,47787,35.1988544,129.0994341
89-4,명안로17번길,47787,35.1989672,129.0994580
89-2,명안로17번길,47787,35.1990391,129.0994848
89-1,명안로17번길,47787,35.1990040,129.0996495
365-1,충렬대로,47787,35.1979582,129.0986894
89-3,명안로17번길,47787,35.1989306,129.0996223
89-5,명안로17번길,47787,35.1988198,129.0995841
85-6,명안로17번길,47787,35.1987561,129.0997210
85-4,명안로17번길,47787,35.1988583,129.0997504
23-5,충렬대로375번길,47787,35.1986489,129.0998462
23-7,충렬대로375번길,47787,35.1987449,129.0998809
85-3,명안로17번길,47787,35.1988141,129.0999281
85-,명안로17번길,47787,35.1989582,129.0997866
85-1,명안로17번길,47787,35.1989238,129.0999461
81,명안로17번길,47787,35.1988966,129.1000508
29,충렬대로375번길,47787,35.1988698,129.1001822
27,충렬대로375번길,47787,35.1987703,129.1001131
23-8,충렬대로375번길,47787,35.1986897,129.1000770
23-2,충렬대로375번길,47787,35.1986013,129.1000353
21,충렬대로375번길,47787,35.1985067,129.0999746
86,명안로9번길,47787,35.1984081,129.0999267
23-3,충렬대로375번길,47787,35.1985553,129.0998020
88,명안로9번길,47787,35.1984563,129.0997651
92-4,명안로9번길,47787,35.1986549,129.0996989
92-2,명안로9번길,47787,35.1985531,129.0996699
90,명안로9번길,47787,35.1984670,129.0996314
92,명안로9번길,47787,35.1986347,129.0995287
94-5,명안로9번길,47787,35.1987286,129.0994271
94-3,명안로9번길,47787,35.1987462,129.0993088
96,명안로9번길,47787,35.1985928,129.0992994
98,명안로9번길,47787,35.1987007,129.0991388
104,명안로9번길,47787,35.1986583,129.0989520
104-2,명안로9번길,47787,35.1987527,129.0989965
104-4,명안로9번길,47787,35.1988433,129.0990195
26-6,충렬대로359번길,47787,35.1988648,129.0988709
26-4,충렬대로359번길,47787,35.1988949,129.0987687
24,충렬대로359번길,47787,35.1989158,129.0986584
106,명안로9번길,47787,35.1987314,129.0988139
108,명안로9번길,47787,35.1987407,129.0987002
22,충렬대로359번길,47787,35.1987714,129.0985853
369,충렬대로,47787,35.1982979,129.0993413
369,충렬대로,47787,35.1982960,129.0991305
103,명안로9번길,47787,35.1984832,129.0988683
105,명안로9번길,47787,35.1984235,129.0987316
105,명안로9번길,47787,35.1985283,129.0987824
365,충렬대로,47787,35.1980133,129.0985390
363,충렬대로,47787,35.1981216,129.0984438
363,충렬대로,47787,35.1980353,129.0984220
363,충렬대로,47787,35.1980705,129.0982493
6,충렬대로359번길,47787,35.1980996,129.0981519
31,Jungdong 1-ro,48095,35.1627942,129.1628985
13,반송로208번길,47786,35.1991667,129.0981026
4,반송로208번가길,47786,35.1992511,129.0981733
10,반송로208번가길,47786,35.1994456,129.0982743
33-5,충렬대로359번길,47786,35.1994046,129.0983921
31,충렬대로359번길,47786,35.1993289,129.0985395
29,충렬대로359번길,47786,35.1992215,129.0984874
12,반송로208번가길,47786,35.1995508,129.0983432
14,반송로208번가길,47786,35.1996290,129.0984246
33,충렬대로359번길,47786,35.1994576,129.0986052
35,충렬대로359번길,47786,35.1996137,129.0985840
37,충렬대로359번길,47786,35.1995668,129.0987238
41,충렬대로359번길,47786,35.1997010,129.0988147
18,반송로218번길,47786,35.1997419,129.0987090
16,반송로218번길,47786,35.1997718,129.0986096
16,반송로208번가길,47786,35.1997032,129.0984737
18,반송로208번가길,47786,35.1997868,129.0984969
14,반송로218번길,47786,35.1998544,129.0985321
10,반송로218번길,47786,35.1999319,129.0983070
17,반송로208번가길,47786,35.1998558,129.0983294
15,반송로208번가길,47786,35.1997720,129.0982857
15-2,반송로208번가길,47786,35.1998268,129.0981685
13,반송로208번가길,47786,35.1996818,129.0982218
4,반송로208번가길,47786,35.1997193,129.0980881
9,반송로208번길,47786,35.1992553,129.0979167
5,반송로208번길,47786,35.1993729,129.0977759
208,반송로,47786,35.1993881,129.0976096
210,반송로,47786,35.1995120,129.0978114
7,반송로208번가길,47786,35.1994165,129.0980045
11,반송로208번가길,47786,35.1995576,129.0981422
4,반송로208번가길,47786,35.1996341,129.0980349
212,반송로,47786,35.1996916,129.0977999
4,반송로208번가길,47786,35.1996542,129.0979023
214-1,반송로,47786,35.1998188,129.0978799
216-1,반송로,47786,35.1997788,129.0979530
216-1,반송로,47786,35.1998849,129.0980540
216,반송로,47786,35.2000058,129.0979810
211,반송로,47786,35.1998238,129.0973257
209,반송로,47786,35.1997576,129.0972498
6,충렬사로,47786,35.1998668,129.0970381
10-1,충렬사로,47786,35.2002841,129.0970805
12,충렬사로,47786,35.2002608,129.0969614
10-3,충렬사로,47786,35.2002857,129.0972330
14,충렬사로,47786,35.2004687,129.0970641
14-1,충렬사로,47786,35.2004154,129.0971670
16,충렬사로,47786,35.2005872,129.0971608
5,반송로217번길,47786,35.2003877,129.0974103
217,반송로,47786,35.2002905,129.0976071
10-5,충렬사로,47786,35.2002362,129.0974322
215,반송로,47786,35.2000561,129.0974721
10-4,충렬사로,47786,35.2001628,129.0972801
582,중앙대로,47359,35.1446871,129.0581836
582,중앙대로,47359,35.1444892,129.0580623
582,중앙대로,47359,35.1442756,129.0583185
173,좌동순환로,48075,35.1781898,129.1752454
175,좌동순환로,48075,35.1781312,129.1754857
177,좌동순환로,48075,35.1780683,129.1757302
181,좌동순환로,48075,35.1780034,129.1759718
174,좌동순환로,48078,35.1776493,129.1750061
176,좌동순환로,48078,35.1775897,129.1752507
178,좌동순환로,48078,35.1775270,129.1754766
180,좌동순환로,48078,35.1774842,129.1757362
182,좌동순환로,48078,35.1774026,129.1759644
184,좌동순환로,48078,35.1773474,129.1761401
90,센텀동로,48059,35.1757484,129.1272649
102,센텀동로,48059,35.1766506,129.1264460
293,해운대로,48061,35.1744813,129.1318673
287,해운대로,48061,35.1748392,129.1318371
285,해운대로,48061,35.1752157,129.1315100
277,해운대로,48061,35.1757774,129.1311539
269,해운대로,48061,35.1763492,129.1305732
60,센텀중앙로,48059,35.1738564,129.1288417
119,좌동로,48079,35.1737944,129.1775621
142,대천로,48079,35.1738495,129.1774305
140,대천로,48079,35.1739295,129.1773539
140,대천로,48079,35.1740068,129.1771682
140,대천로,48079,35.1739731,129.1772484
117,좌동로,48079,35.1737026,129.1773753
117,좌동로,48079,35.1737868,129.1773086
111,좌동로,48079,35.1734502,129.1768222
113,좌동로,48079,35.1735171,129.1769797
113,좌동로,48079,35.1735510,129.1770788
109-10,좌동로,48079,35.1735605,129.1768576
115,좌동로,48079,35.1737156,129.1769695
126,좌동로,48107,35.1737906,129.1788035
21,좌동순환로249번길,48108,35.1743109,129.1817613
15-18,좌동순환로249번길,48108,35.1746988,129.1816020
11,좌동순환로249번길,48108,35.1739757,129.1814714
152,좌동로,48108,35.1748880,129.1811139
237,좌동순환로,48108,35.1746038,129.1805400
7-20,좌동순환로249번길,48108,35.1745455,129.1810976
15-13,좌동순환로249번길,48108,35.1744402,129.1811707
243,좌동순환로,48108,35.1741956,129.1808791
245,좌동순환로,48108,35.1740446,129.1809826
245-1,좌동순환로,48108,35.1739246,129.1810507
109-23,좌동로,48079,35.1741812,129.1768644
107-10,좌동로,48079,35.1736067,129.1766612
107-12,좌동로,48079,35.1737554,129.1766870
109-17,좌동로,48079,35.1739060,129.1767531
107-18,좌동로,48079,35.1738630,129.1765340
130,대천로,48079,35.1741590,129.1763342
132,대천로,48079,35.1741227,129.1764709
134,대천로,48079,35.1740766,129.1766126
109-19,좌동로,48079,35.1740508,129.1767933
157,좌동로,48107,35.1731668,129.1791587
126,좌동로,48107,35.1729889,129.1792674
187,좌동로,48107,35.1727656,129.1787160
187,좌동로,48107,35.1722774,129.1782922
8,수영로322번길,48508,35.1373477,129.1012905
166,금곡대로,46539,35.2223815,129.0118416
47,Dongseong-ro,47304,35.1547110,129.0682001
7,Seojeon-ro 68beon-gil,47302,35.1574298,129.0673660
70,Dongcheon-ro,47294,35.1550953,129.0625673
371,해운대해변로,48101,35.1651703,129.1696003
219,반송로,47754,35.2004882,129.0975999
6-8,반송로217번길,47754,35.2007183,129.0976672
221,반송로,47754,35.2006101,129.0978381
223-1,반송로,47754,35.2008172,129.0979455
6,안락로,47754,35.2009542,129.0977295
225,반송로,47754,35.2009487,129.0979834
8,안락로,47754,35.2009664,129.0978600
223,반송로,47754,35.2007916,129.0978631
4-1,안락로,47754,35.2010370,129.0976342
4,안락로,47754,35.2011034,129.0974516
6-13,반송로217번길,47754,35.2009825,129.0974495
10,반송로217번길,47754,35.2005650,129.0974394
12,반송로217번길,47754,35.2006578,129.0973823
14,반송로217번길,47754,35.2007511,129.0972819
18,충렬사로,47754,35.2007426,129.0971515
20,충렬사로,47754,35.2008824,129.0972430
22,충렬사로,47754,35.2009988,129.0972919
6-9,반송로217번길,47754,35.2008229,129.0973853
6-11,반송로217번길,47754,35.2009090,129.0973739
8,안락로,47754,35.2016359,129.0971920
25,충렬사로,47754,35.2018110,129.0973063
33,충렬사로,47754,35.2022077,129.0974944
35-8,충렬사로,47754,35.2022645,129.0972057
35-10,충렬사로,47754,35.2022287,129.0971038
35-12,충렬사로,47754,35.2021625,129.0970132
36,충렬사로25번길,47754,35.2022524,129.0969829
36,충렬사로25번길,47754,35.2022371,129.0969005
34,충렬사로25번길,47754,35.2021139,129.0968187
23,충렬사로,47754,35.2014276,129.0971996
6,충렬사로25번길,47754,35.2015393,129.0969838
11,충렬사로25번길,47754,35.2014063,129.0967981
13,충렬사로25번길,47754,35.2014906,129.0967544
15,충렬사로25번길,47754,35.2015609,129.0967316
17,충렬사로25번길,47754,35.2016619,129.0967303
21,충렬사로25번길,47754,35.2017814,129.0967064
22,충렬사로25번길,47754,35.2018066,129.0968431
20-2,충렬사로25번길,47754,35.2017105,129.0969908
28,충렬사로25번길,47754,35.2019346,129.0966884
24-1,충렬사로25번길,47754,35.2019673,129.0967858
24-5,충렬사로25번길,47754,35.2019984,129.0969273
24-3,충렬사로25번길,47754,35.2019254,129.0969379
24,충렬사로25번길,47754,35.2019045,129.0968087
26,충렬사로25번길,47754,35.2018750,129.0967021
31,충렬사로,47754,35.2019298,129.0974270
37-2,충렬사로,47754,35.2024369,129.0976924
37-4,충렬사로,47754,35.2024713,129.0974356
37-6,충렬사로,47754,35.2024447,129.0972936
3,안락로,47754,35.2013586,129.0975287
3-3,안락로,47754,35.2014494,129.0976027
28,충렬사로,47754,35.2014798,129.0975076
28-1,충렬사로,47754,35.2015597,129.0976201
19,반송로229번길,47754,35.2016526,129.0977419
30,충렬사로,47754,35.2016953,129.0976293
5,안락로,47754,35.2012939,129.0978427
7,안락로,47754,35.2011826,129.0980088
9,안락로,47754,35.2011551,129.0981635
229,반송로,47754,35.2013145,129.0982290
229,반송로,47754,35.2014331,129.0983241
5,반송로229번길,47754,35.2014055,129.0981352
10,반송로229번길,47754,35.2015010,129.0982570
5,반송로231번길,47754,35.2016244,129.0981418
13,반송로229번길,47754,35.2015636,129.0979730
11,반송로229번길,47754,35.2014817,129.0980551
17,반송로229번길,47754,35.2015526,129.0978156
9,반송로231번길,47754,35.2017639,129.0978846
9,반송로231번길,47754,35.2018510,129.0979979
32,충렬사로,47754,35.2019131,129.0977544
22,충렬사로,47754,35.2017979,129.0976706
233,반송로,47754,35.2016433,129.0983648
233,반송로,47754,35.2016024,129.0984193
8,반송로231번길,47754,35.2018267,129.0982007
10,반송로231번길,47754,35.2019085,129.0981389
16,반송로231번길,47754,35.2020079,129.0980823
16,반송로231번길,47754,35.2021171,129.0979876
36,충렬사로,47754,35.2021257,129.0978245
38,충렬사로,47754,35.2024187,129.0979426
36-1,충렬사로,47754,35.2022849,129.0979362
13,반송로239번길,47754,35.2023280,129.0981433
15,반송로239번길,47754,35.2023905,129.0980708
239,반송로,47754,35.2020472,129.0986724
237,반송로,47754,35.2019065,129.0986282
237,반송로,47754,35.2019752,129.0984654
5,반송로239번길,47754,35.2020609,129.0984845
235-6,반송로,47754,35.2018981,129.0983909
235-8,반송로,47754,35.2020210,129.0982965
235-10,반송로,47754,35.2020800,129.0981782
7,반송로239번길,47754,35.2021590,129.0983784
9,반송로239번길,47754,35.2022409,129.0982965
36-3,충렬사로,47754,35.2022253,129.0980945
26,충렬사로,47754,35.2013776,129.0974514
27,충렬사로,47754,35.2016705,129.0974125
235,반송로,47754,35.2018094,129.0985303
219,반송로,47754,35.2004893,129.0976821
216,용호로,48568,35.1130216,129.1107969
304,남구 수영로,48499,35.1367834,129.0995239
7,용소로,48512,35.1366570,129.1006215
9,용소로,48512,35.1365696,129.1006787
300,수영로,48499,35.1366601,129.0992307
298,수영로2,48499,35.1365784,129.0990304
104-1,광남로,48303,35.1510871,129.1154638
79,좌동순환로,48084,35.1736365,129.1668637
372-37,백양대로,46997,35.1546672,129.0107866
10,남천서로32번길,48316,35.1446503,129.1062784
71,재반로118번길,48053,35.1938957,129.1266931
2,감천로117번길,49374,35.0879997,129.0046640
107,좌동로,48079,35.1733611,129.1764974
107-7,좌동로,48079,35.1734707,129.1764784
107-11,좌동로,48079,35.1735770,129.1764448
105,좌동로,48079,35.1731999,129.1763213
101,좌동로,48079,35.1730604,129.1760857
96,세실로,48079,35.1731110,129.1760019
103,좌동로,48079,35.1732893,129.1759944
98,세실로,48079,35.1732452,129.1758718
100,세실로,48079,35.1733931,129.1757989
102,세실로,48079,35.1735931,129.1756413
100-1,세실로,48079,35.1734972,129.1757101
108,좌동로,48107,35.1729006,129.1768379
86,세실로,48107,35.1723487,129.1764698
106,좌동로,48107,35.1726191,129.1766768
104,좌동로,48107,35.1727294,129.1763277
31,세실로,48111,35.1678797,129.1790590
33,세실로,48111,35.1680567,129.1789491
35,세실로,48111,35.1681959,129.1788452
11,세실로27번길,48111,35.1679755,129.1783762
15,세실로27번길,48111,35.1682151,129.1782440
13,세실로27번길,48111,35.1680956,129.1783196
14,양운로42번길,48111,35.1681383,129.1777835
40,양운로,48111,35.1672676,129.1777577
9,양운로42번길,48111,35.1676468,129.1775146
11,양운로42번길,48111,35.1678879,129.1773253
17,세실로27번길,48111,35.1683224,129.1781620
19,세실로27번길,48111,35.1685742,129.1779959
16,양운로42번길,48111,35.1683769,129.1775623
18,양운로42번길,48111,35.1685613,129.1774684
20,양운로42번길,48111,35.1687264,129.1773500
52,양운로,48111,35.1682184,129.1770936
56,양운로,48111,35.1684910,129.1769096
21,세실로27번길,48111,35.1686889,129.1779193
21-1,세실로27번길,48111,35.1687895,129.1778481
23,세실로27번길,48111,35.1689053,129.1777517
43,세실로,48111,35.1688093,129.1784387
45,세실로,48111,35.1690447,129.1782721
37,세실로,48111,35.1683392,129.1787473
39,양운로,48104,35.1669835,129.1772371
41,양운로,48104,35.1670467,129.1769756
45,양운로,48104,35.1672848,129.1768200
45,양운로,48104,35.1675462,129.1766490
53,양운로,48104,35.1679287,129.1763962
55,양운로,48104,35.1668547,129.1771393
59,양운로,48104,35.1685566,129.1758845
794,해운대로,48104,35.1688220,129.1757192
75,세실로,48106,35.1712804,129.1768190
75,세실로,48106,35.1712042,129.1766591
77,세실로,48106,35.1715131,129.1765338
79,세실로,48106,35.1716887,129.1764246
24,세실로69번길,48106,35.1718533,129.1762880
5,세실로69번길,48106,35.1709124,129.1763971
7,세실로69번길,48106,35.1710284,129.1763012
9,세실로69번길,48106,35.1711502,129.1762455
11,세실로69번길,48106,35.1712484,129.1761712
8,양운로80번길,48106,35.1707231,129.1760125
10,양운로80번길,48106,35.1708503,129.1759174
12,양운로80번길,48106,35.1709622,129.1758564
14,양운로80번길,48106,35.1710682,129.1757670
16,양운로80번길,48106,35.1712944,129.1755956
18,양운로80번길,48106,35.1714140,129.1755074
20,양운로80번길,48106,35.1715425,129.1754284
92,양운로,48106,35.1712603,129.1749519
17,세실로69번길,48106,35.1716177,129.1758819
104,세실로,48079,35.1738647,129.1758442
115,대천로,48079,35.1747207,129.1751403
116-1,대천로,48079,35.1747769,129.1750050
116,대천로,48079,35.1748298,129.1748323
114,대천로,48079,35.1748509,129.1746813
112,대천로,48079,35.1748344,129.1745366
110,대천로,48079,35.1748457,129.1743698
108,대천로,48079,35.1748160,129.1741970
113,세실로,48079,35.1745346,129.1751067
111,세실로,48079,35.1744310,129.1750910
109-1,세실로,48079,35.1743212,129.1750659
109,세실로,48079,35.1742138,129.1750619
29,대천로106번길,48079,35.1740962,129.1750219
19,대천로106번길,48079,35.1743297,129.1748281
21,대천로106번길,48079,35.1744168,129.1748427
15,대천로106번길,48079,35.1744341,129.1746747
5-16,대천로106번길,48079,35.1745271,129.1748417
5-14,대천로106번길,48079,35.1746336,129.1748506
5-12,대천로106번길,48079,35.1746152,129.1746775
5-8,대천로106번길,48079,35.1746761,129.1745448
13,대천로106번길,48079,35.1745053,129.1745845
11,대천로106번길,48079,35.1745766,129.1744693
7,대천로106번길,48079,35.1746416,129.1743621
107,대천로,48078,35.1751754,129.1740593
105,세실로,48079,35.1738412,129.1750937
103-1,세실로,48079,35.1736755,129.1752124
103,세실로,48079,35.1735815,129.1752953
26-10,대천로106번길,48079,35.1735894,129.1750383
26-6,대천로106번길,48079,35.1737316,129.1749407
20,대천로106번길,48079,35.1741214,129.1746640
16,대천로106번길,48079,35.1741824,129.1744931
38-7,좌동로91번길,48079,35.1742343,129.1742740
8,대천로106번길,48079,35.1743096,129.1741611
104,대천로,48079,35.1746156,129.1737222
4,대천로106번길,48079,35.1746568,129.1740544
106,대천로,48079,35.1747453,129.1739692
52,좌동로91번길,48079,35.1743349,129.1737349
46,좌동로91번길,48079,35.1741906,129.1738226
38-5,좌동로91번길,48079,35.1740366,129.1739904
36,좌동로91번길,48079,35.1737383,129.1742195
38-6,좌동로91번길,48079,35.1738380,129.1741381
38-16,좌동로91번길,48079,35.1739977,129.1744834
38-16,좌동로91번길,48079,35.1739347,129.1744483
99-32,좌동로,48079,35.1735771,129.1744455
99-20,좌동로,48079,35.1734198,129.1749507
99-26,좌동로,48079,35.1735201,129.1747884
99-28,좌동로,48079,35.1736229,129.1748326
26-2,대천로106번길,48079,35.1739526,129.1747443
26-4,대천로106번길,48079,35.1738438,129.1748236
99-63,좌동로,48079,35.1737417,129.1746151
99-34,좌동로,48079,35.1735970,129.1743192
42,좌동로91번길,48079,35.1742446,129.1739308
38-12,좌동로91번길,48079,35.1739577,129.1742937
38-8,좌동로91번길,48079,35.1740064,129.1741828
26-20,대천로106번길,48079,35.1733320,129.1752418
99-1,세실로,48079,35.1734168,129.1753609
99-1,세실로,48079,35.1734913,129.1753248
99,세실로,48079,35.1732573,129.1754530
97,세실로,48079,35.1731354,129.1755301
95,세실로,48079,35.1729875,129.1756221
99-26,좌동로,48079,35.1734563,129.1746803
99-27,좌동로,48079,35.1732527,129.1744805
20,좌동로91번길,48079,35.1731173,129.1744087
99-19,좌동로,48079,35.1732400,129.1748270
10,좌동로91번길,48079,35.1730405,129.1747972
10,좌동로91번길,48079,35.1729653,129.1746993
10,좌동로91번길,48079,35.1729116,129.1748388
99-9,좌동로,48079,35.1730846,129.1750655
99-13,좌동로,48079,35.1731439,129.1751944
28,좌동로91번길,48079,35.1734522,129.1742371
26-14,대천로106번길,48079,35.1734099,129.1751536
325,월드컵대로,47527,35.1886694,129.0630873
343,월드컵대로,47527,35.1881600,129.0614860
19,세실로69번길,48106,35.1721143,129.1757035
96,좌동로,48106,35.1723020,129.1755773
98,좌동로,48106,35.1724767,129.1758539
95,좌동로,48079,35.1728533,129.1753689
93,좌동로,48079,35.1727195,129.1750460
100,대천로,48079,35.1744061,129.1734174
49,좌동로91번길,48079,35.1742669,129.1735106
45,좌동로91번길,48079,35.1741416,129.1735907
43-2,좌동로91번길,48079,35.1740248,129.1737103
43-6,좌동로91번길,48079,35.1739963,129.1735795
39,좌동로91번길,48079,35.1738779,129.1738347
37,좌동로91번길,48079,35.1737438,129.1739345
43-5,좌동로91번길,48079,35.1737318,129.1737850
43-7,좌동로91번길,48079,35.1737046,129.1735136
98,대천로,48079,35.1740321,129.1731881
130,양운로,48079,35.1741054,129.1727051
92-6,대천로,48079,35.1739921,129.1727515
126,양운로,48079,35.1738659,129.1728519
112-15,양운로,48079,35.1733436,129.1734514
120,양운로,48079,35.1733506,129.1733041
120-1,양운로,48079,35.1734653,129.1732888
92-16,대천로,48079,35.1736444,129.1732198
122,양운로,48079,35.1735742,129.1730615
92-12,대천로,48079,35.1737546,129.1730824
92-3,대천로,48079,35.1741879,129.1728715
88,대천로,48082,35.1738821,129.1722793
86,대천로,48082,35.1738493,129.1720613
121-1,양운로,48082,35.1733827,129.1726872
115,양운로,48082,35.1728540,129.1731344
121,양운로,48082,35.1732257,129.1726931
45,좌동로75번길,48082,35.1733397,129.1724990
37-8,좌동로75번길,48082,35.1733803,129.1721038
37-6,좌동로75번길,48082,35.1732695,129.1721705
37-8,좌동로75번길,48082,35.1733680,129.1719938
84-1,대천로,48082,35.1734533,129.1719894
82,대천로,48082,35.1736020,129.1716660
78,대천로,48082,35.1734024,129.1714565
84,대천로,48082,35.1736195,129.1721486
47,좌동로75번길,48082,35.1733019,129.1723646
49,좌동로75번길,48082,35.1734572,129.1722114
113-1,양운로,48082,35.1727935,129.1731921
113,양운로,48082,35.1727586,129.1732361
115-1,양운로,48082,35.1729676,129.1730155
119,양운로,48082,35.1731344,129.1728538
119,양운로,48082,35.1736126,129.1725039
119,양운로,48082,35.1735059,129.1725844
57,좌동로75번길,48082,35.1737563,129.1722034
89,좌동로,48079,35.1725476,129.1747033
17,좌동로91번길,48079,35.1728232,129.1743406
19,좌동로91번길,48079,35.1729107,129.1741521
21,좌동로91번길,48079,35.1731209,129.1740854
25,좌동로91번길,48079,35.1732817,129.1740132
112-10,양운로,48079,35.1731532,129.1738453
112,양운로,48079,35.1728742,129.1737840
116,양운로,48079,35.1730728,129.1735630
116-1,양운로,48079,35.1731484,129.1734843
87,좌동로,48079,35.1724732,129.1745237
104,양운로,48079,35.1724923,129.1742646
108,양운로,48079,35.1724899,129.1739915
110,양운로,48079,35.1726351,129.1738621
107,양운로,48082,35.1723624,129.1735194
105,양운로,48082,35.1721837,129.1735861
103,양운로,48082,35.1720691,129.1735912
31,좌동로53번길,48082,35.1720769,129.1729208
35-13,좌동로53번길,48082,35.1720924,129.1726117
35-22,좌동로53번길,48082,35.1724673,129.1730347
67,좌동로,48082,35.1726477,129.1728792
37,좌동로53번길,48082,35.1717426,129.1730032
40,좌동로53번길,48082,35.1715554,129.1731522
31,좌동로53번길,48082,35.1716134,129.1727901
29,좌동로53번길,48082,35.1715769,129.1726122
36,좌동로53번길,48082,35.1714504,129.1730282
32,좌동로53번길,48082,35.1713903,129.1728111
69,좌동로,48082,35.1713367,129.1729811
67,좌동로,48082,35.1711853,129.1728943
24,좌동로53번길,48082,35.1711906,129.1725087
65,좌동로,48082,35.1710625,129.1727866
65-1,좌동로,48082,35.1711319,129.1726762
30,좌동로53번길,48082,35.1713139,129.1727102
20,해운대로781번길,48102,35.1700991,129.1746624
789,해운대로,48102,35.1694628,129.1749026
16,해운대로781번길,48102,35.1694278,129.1745399
21,해운대로781번길,48102,35.1700715,129.1741857
29,해운대로781번길,48102,35.1707024,129.1737625
33,해운대로781번길,48102,35.1708767,129.1734567
31,해운대로781번길,48102,35.1708346,129.1735915
25,해운대로781번길,48102,35.1705099,129.1740134
25,해운대로781번길,48102,35.1705417,129.1739647
15,해운대로781번길,48102,35.1697415,129.1741186
11,해운대로781번길,48102,35.1694753,129.1739265
17,해운대로781번길,48102,35.1698875,129.1742096
68,좌동로,48102,35.1709286,129.1731622
66,좌동로,48102,35.1707771,129.1730263
66,좌동로,48102,35.1705248,129.1730763
23,좌동로63번길,48082,35.1716452,129.1717752
50,대천로42번길,48082,35.1717362,129.1715628
48,대천로42번길,48082,35.1716759,129.1715226
48,대천로42번길,48082,35.1716124,129.1714490
21,좌동로63번길,48082,35.1714658,129.1718092
17,좌동로63번길,48082,35.1713586,129.1717453
19,좌동로53번길,48082,35.1711534,129.1721726
17,좌동로53번길,48082,35.1710832,129.1720547
15,좌동로63번길,48082,35.1712747,129.1720664
13,좌동로53번길,48082,35.1709565,129.1719394
42,대천로42번길,48082,35.1714788,129.1714122
34,대천로42번길,48082,35.1713085,129.1713201
34,대천로42번길,48082,35.1712796,129.1713979
40-1,대천로42번길,48082,35.1712080,129.1715494
32-1,대천로42번길,48082,35.1710655,129.1712548
30,대천로42번길,48082,35.1709993,129.1713881
32,대천로42번길,48082,35.1711373,129.1714071
28-5,대천로42번길,48082,35.1708422,129.1714240
7-6,좌동로53번길,48082,35.1708442,129.1718087
7-8,좌동로53번길,48082,35.1710500,129.1716200
28-7,대천로42번길,48082,35.1707363,129.1715244
9,좌동로53번길,48082,35.1707254,129.1719757
59,좌동로,48082,35.1706938,129.1722888
14,좌동로53번길,48082,35.1708193,129.1722740
16,좌동로53번길,48082,35.1708542,129.1724251
59-1,좌동로,48082,35.1707288,129.1724246
20,좌동로53번길,48082,35.1710262,129.1724548
63,좌동로,48082,35.1709122,129.1725973
20,좌동로53번길,48082,35.1710449,129.1723707
60-17,좌동로,48102,35.1701864,129.1725905
58,좌동로,48102,35.1702507,129.1724191
60-15,좌동로,48102,35.1700722,129.1725894
60-10,좌동로,48102,35.1701301,129.1724197
56,좌동로,48102,35.1701237,129.1722962
60-5,해운대로767번길,48102,35.1698233,129.1724918
41,해운대로779번길,48102,35.1698533,129.1728973
39-2,해운대로779번길,48102,35.1697426,129.1727685
39-1,해운대로779번길,48102,35.1697382,129.1728844
37-1,해운대로779번길,48102,35.1696504,129.1728516
60-3,해운대로767번길,48102,35.1700135,129.1723569
60-3,해운대로767번길,48082,35.1699569,129.1723829
60-1,해운대로767번길,48102,35.1700477,129.1721725
3,좌동로53번길,48082,35.1705037,129.1718894
60-14,좌동로,48102,35.1699304,129.1726452
60-11,해운대로767번길,48102,35.1696956,129.1726461
60-13,해운대로767번길,48102,35.1694998,129.1724908
60-9,해운대로767번길,48102,35.1696473,129.1724556
33,해운대로779번길,48102,35.1695171,129.1730762
33-1,해운대로779번길,48102,35.1693736,129.1728987
35-1,해운대로779번길,48102,35.1695004,129.1728438
35-1,해운대로779번길,48102,35.1695277,129.1729067
29,해운대로779번길,48102,35.1693293,129.1733000
14-25,해운대로767번길,48102,35.1691571,129.1732912
14-17,해운대로767번길,48102,35.1688874,129.1731926
14-15,해운대로767번길,48102,35.1687376,129.1731546
87,좌동순환로468번가길,48103,35.1650991,129.1748852
50,좌동순환로468번다길,48103,35.1652204,129.1727925
46-20,좌동순환로468번다길,48103,35.1652827,129.1729998
46-16,좌동순환로468번다길,48103,35.1653307,129.1731762
46-14,좌동순환로468번다길,48103,35.1652960,129.1733210
46-12,좌동순환로468번다길,48103,35.1651744,129.1732527
46-10,좌동순환로468번다길,48103,35.1651211,129.1733398
20-16,좌동순환로468번다길,48103,35.1647833,129.1737452
46-8,좌동순환로468번다길,48103,35.1649836,129.1733740
46-17,좌동순환로468번다길,48103,35.1651069,129.1729342
46,좌동순환로468번다길,48103,35.1650705,129.1728090
46-15,좌동순환로468번다길,48103,35.1651028,129.1730789
42,좌동순환로468번다길,48103,35.1649832,129.1729317
46-1,좌동순환로468번다길,48103,35.1648930,129.1729793
46-3,좌동순환로468번다길,48103,35.1649587,129.1730796
46-7,좌동순환로468번다길,48103,35.1650325,129.1731745
46-6,좌동순환로468번다길,48103,35.1648589,129.1732162
46-2,좌동순환로468번다길,48103,35.1647587,129.1730903
42,좌동순환로468번다길,48103,35.1646730,129.1731528
40-5,좌동순환로468번다길,48103,35.1647524,129.1732718
40-10,좌동순환로468번다길,48103,35.1647470,129.1734353
40-8,좌동순환로468번다길,48103,35.1646445,129.1733930
40-4,좌동순환로468번다길,48103,35.1646022,129.1732574
38,좌동순환로468번다길,48103,35.1645503,129.1731865
14-11,좌동순환로468번다길,48103,35.1647753,129.1740565
14-12,좌동순환로468번다길,48103,35.1649122,129.1742842
14-10,좌동순환로468번다길,48103,35.1648346,129.1743922
14-8,좌동순환로468번다길,48103,35.1647307,129.1744488
14-9,좌동순환로468번다길,48103,35.1646816,129.1741734
20-8,좌동순환로468번다길,48103,35.1645924,129.1740901
20-10,좌동순환로468번다길,48103,35.1646484,129.1739884
20-12,좌동순환로468번다길,48103,35.1647054,129.1738889
12-5,좌동순환로468번다길,48103,35.1645992,129.1745965
77,좌동순환로468번가길,48103,35.1646302,129.1753819
79,좌동순환로468번가길,48103,35.1645765,129.1752412
71,좌동순환로468번가길,48103,35.1645113,129.1754562
65,좌동순환로468번가길,48103,35.1644473,129.1752819
61,좌동순환로468번가길,48103,35.1644202,129.1750968
81,좌동순환로468번가길,48103,35.1646114,129.1750369
12-7,좌동순환로468번다길,48103,35.1644952,129.1747684
12-10,좌동순환로468번다길,48103,35.1644211,129.1748924
51-1,좌동로,48082,35.1702778,129.1717824
51,좌동로,48082,35.1701672,129.1717100
49,좌동로,48082,35.1700630,129.1715853
49-3,좌동로,48082,35.1701134,129.1714103
49-5,좌동로,48082,35.1702439,129.1714457
49-9,좌동로,48082,35.1703562,129.1716249
49-13,좌동로,48082,35.1704307,129.1715424
51-21,좌동로,48082,35.1702584,129.1712246
28-10,대천로42번길,48082,35.1704952,129.1713196
26,대천로42번길,48082,35.1706527,129.1712317
18,대천로42번길,48082,35.1704810,129.1709611
18,대천로42번길,48082,35.1705350,129.1707286
18,대천로42번길,48082,35.1704990,129.1705381
8,대천로42번길,48082,35.1704610,129.1703223
10,대천로42번길,48082,35.1706787,129.1702429
14,대천로42번길,48082,35.1706717,129.1704036
40,대천로,48082,35.1706393,129.1697400
38,대천로,48082,35.1703665,129.1696607
77,좌동순환로8번길,48082,35.1701158,129.1695701
34,대천로,48082,35.1701447,129.1694509
75,좌동순환로8번길,48082,35.1699638,129.1695000
73,좌동순환로8번길,48082,35.1698270,129.1695546
69,좌동순환로8번길,48082,35.1697097,129.1694299
67-1,좌동순환로8번길,48082,35.1695886,129.1693904
67,좌동순환로8번길,48082,35.1694943,129.1694104
63,좌동순환로8번길,48082,35.1693834,129.1693940
31,좌동로,48082,35.1688260,129.1701065
33,좌동로,48082,35.1690753,129.1701273
54-16,좌동순환로8번길,48082,35.1691395,129.1699640
31-1,좌동로,48082,35.1689400,129.1699686
54-17,좌동순환로8번길,48082,35.1692497,129.1698014
54-13,좌동순환로8번길,48082,35.1691383,129.1697152
68,좌동순환로8번길,48082,35.1693461,129.1696351
62,좌동순환로8번길,48082,35.1691972,129.1695689
60,좌동순환로8번길,48082,35.1690593,129.1695378
54-11,좌동순환로8번길,48082,35.1690459,129.1696586
54-9,좌동순환로8번길,48082,35.1689571,129.1696207
54-8,좌동순환로8번길,48082,35.1688770,129.1697672
25,좌동로,48082,35.1684837,129.1695011
25,좌동로,48082,35.1684525,129.1695404
52,좌동순환로8번길,48082,35.1687292,129.1694491
50,좌동순환로8번길,48082,35.1686422,129.1693763
21,좌동로,48082,35.1683525,129.1693502
19,좌동로,48082,35.1681401,129.1691948
38,좌동순환로8번길,48082,35.1682871,129.1689379
49,좌동순환로8번길,48082,35.1688590,129.1689079
47,좌동순환로8번길,48082,35.1686833,129.1690674
45-5,좌동순환로8번길,48082,35.1686062,129.1688343
45-7,좌동순환로8번길,48082,35.1687412,129.1687353
43,좌동순환로8번길,48082,35.1685642,129.1689711
41,좌동순환로8번길,48082,35.1684903,129.1688938
16,대천로,48082,35.1684865,129.1687256
16,대천로,48082,35.1687512,129.1683909
12,대천로,48082,35.1684009,129.1683121
47,좌동로,48082,35.1699080,129.1711781
55,해운대로767번길,48102,35.1698470,129.1721531
52,좌동로,48102,35.1698675,129.1720469
55,해운대로767번길,48102,35.1697841,129.1721134
76-1,좌동로14번길,48102,35.1696879,129.1720896
50,좌동로,48102,35.1697014,129.1718268
68-1,좌동로14번길,48102,35.1693559,129.1717716
60-14,해운대로767번길,48102,35.1694839,129.1723079
42,좌동로,48102,35.1693211,129.1713731
60-18,해운대로767번길,48102,35.1693569,129.1722320
60-20,해운대로767번길,48102,35.1692656,129.1723321
60-24,해운대로767번길,48102,35.1690846,129.1724078
64,좌동로14번길,48102,35.1690665,129.1718861
64,좌동로14번길,48102,35.1690997,129.1716891
66,좌동로14번길,48102,35.1691862,129.1716421
62-6,좌동로14번길,48102,35.1689210,129.1717458
62-10,좌동로14번길,48102,35.1689205,129.1719716
60-24,해운대로767번길,48102,35.1691207,129.1722702
14-8,해운대로767번길,48102,35.1684251,129.1732861
20,해운대로767번길,48102,35.1683670,129.1730667
22,해운대로767번길,48102,35.1685068,129.1729748
8,해운대로767번길,48102,35.1680187,129.1734828
7,해운대로767번길,48102,35.1678097,129.1730045
72,해운대로767번길,48102,35.1676590,129.1726540
75,해운대로767번길,48102,35.1678829,129.1726936
67,해운대로767번길,48102,35.1677636,129.1723870
56-1,좌동로14번길,48102,35.1688256,129.1717504
60,좌동로14번길,48102,35.1688952,129.1715737
54,좌동로14번길,48102,35.1687524,129.1716002
52,좌동로14번길,48102,35.1686043,129.1715578
51-24,좌동로10번길,48102,35.1684026,129.1716890
54,좌동순환로8번길,48082,35.1688759,129.1694415
34,좌동로,48102,35.1686790,129.1707651
47-1,좌동로14번길,48102,35.1685866,129.1710668
43-1,좌동로14번길,48102,35.1684644,129.1710039
43-1,좌동로14번길,48102,35.1683429,129.1710847
32,좌동로,48102,35.1684234,129.1707384
35-11,좌동로14번길,48102,35.1681171,129.1704916
35-7,좌동로14번길,48102,35.1681172,129.1706494
31,좌동로14번길,48102,35.1680617,129.1707647
33,좌동로14번길,48102,35.1680206,129.1708491
37,좌동로14번길,48102,35.1681319,129.1710198
35-2,좌동로14번길,48102,35.1680800,129.1709477
27,좌동로14번길,48102,35.1680115,129.1706199
24,좌동로,48102,35.1679566,129.1699308
19,좌동로14번길,48102,35.1678320,129.1700436
21,좌동로14번길,48102,35.1678932,129.1701923
15,좌동로14번길,48102,35.1678226,129.1698434
18,좌동로,48102,35.1677954,129.1695807
16,좌동로,48102,35.1676470,129.1693641
42,좌동로14번길,48102,35.1680893,129.1715018
38,좌동로14번길,48102,35.1679797,129.1714233
51-5,좌동로10번길,48102,35.1677015,129.1714621
36,좌동로14번길,48102,35.1678473,129.1712616
43,좌동로14번길,48102,35.1682506,129.1711867
47,좌동로10번길,48102,35.1674619,129.1714707
45,좌동로10번길,48102,35.1674123,129.1712920
32,좌동로14번길,48102,35.1676437,129.1710014
28-2,좌동로14번길,48102,35.1675001,129.1709784
28-1,좌동로14번길,48102,35.1675898,129.1707922
30,좌동로14번길,48102,35.1677754,129.1707454
22,좌동로14번길,48102,35.1676623,129.1704174
22-1,좌동로14번길,48102,35.1677353,129.1702680
31,좌동로14번길,48102,35.1673860,129.1705482
20,좌동로14번길,48102,35.1674557,129.1705149
63,좌동로10번길,48102,35.1676972,129.1721873
61,좌동로10번길,48102,35.1676602,129.1720836
59,좌동로10번길,48102,35.1676128,129.1719789
759,해운대로,48102,35.1674684,129.1725891
757,해운대로,48102,35.1673333,129.1723806
60,좌동로10번길,48102,35.1674346,129.1722019
753,해운대로,48102,35.1672495,129.1721096
751,해운대로,48102,35.1672218,129.1719218
52,좌동로10번길,48102,35.1672865,129.1717585
52-1,좌동로10번길,48102,35.1672105,129.1717249
52-3,좌동로10번길,48102,35.1670959,129.1716634
749,해운대로,48102,35.1669442,129.1716513
51-6,좌동로10번길,48102,35.1676382,129.1718708
743,해운대로,48102,35.1671513,129.1713041
731,해운대로,48102,35.1669173,129.1697840
397,해운대해변로,48101,35.1664413,129.1714344
746,해운대로,48101,35.1665525,129.1712819
744-5,해운대로,48101,35.1664547,129.1712061
395,해운대해변로,48101,35.1663521,129.1713279
393,해운대해변로,48101,35.1662842,129.1712384
744-7,해운대로,48101,35.1663638,129.1711115
391,해운대해변로,48101,35.1661851,129.1711442
389,해운대해변로,48101,35.1660971,129.1710344
744-13,해운대로,48101,35.1661751,129.1709199
744-17,해운대로,48101,35.1660512,129.1708177
387,해운대해변로,48101,35.1659797,129.1708943
385,해운대해변로,48101,35.1659126,129.1707611
383,해운대해변로,48101,35.1658225,129.1706673
744-11,해운대로,48101,35.1662741,129.1710217
500,좌동순환로,48101,35.1654620,129.1690268
498,좌동순환로,48101,35.1653355,129.1691036
498-1,좌동순환로,48101,35.1653689,129.1692762
496,좌동순환로,48101,35.1651994,129.1692251
494-1,좌동순환로,48101,35.1650772,129.1692991
369,해운대해변로,48101,35.1649828,129.1694963
494,좌동순환로,48101,35.1649916,129.1693638
36,좌동순환로8번길,48082,35.1681981,129.1688163
34,좌동순환로8번길,48082,35.1681546,129.1686892
15,좌동로,48082,35.1679978,129.1686937
32,좌동순환로8번길,48082,35.1680693,129.1685408
24,좌동순환로8번길,48082,35.1678798,129.1683808
22,좌동순환로8번길,48082,35.1678149,129.1684841
20,좌동순환로8번길,48082,35.1676710,129.1684139
16,좌동순환로8번길,48082,35.1675450,129.1684217
11,좌동로,48082,35.1675659,129.1686277
70,좌동순환로,48083,35.1725498,129.1673107
72,좌동순환로,48083,35.1727291,129.1673905
74,좌동순환로,48083,35.1729116,129.1674450
76,좌동순환로,48083,35.1731050,129.1674718
78,좌동순환로,48083,35.1732898,129.1675386
80,좌동순환로,48083,35.1734929,129.1675826
35,대천로67번길,48084,35.1736784,129.1664106
77,좌동순환로,48084,35.1734752,129.1667895
77,좌동순환로,48084,35.1730083,129.1666821
65,좌동순환로,48084,35.1722988,129.1665818
65,좌동순환로,48084,35.1720879,129.1665440
67-7,좌동순환로,48084,35.1721381,129.1663547
67-7,좌동순환로,48084,35.1724144,129.1663397
59-1,좌동순환로,48084,35.1718996,129.1665061
61-5,좌동순환로,48084,35.1719371,129.1663065
57-6,좌동순환로,48084,35.1717947,129.1662860
59,좌동순환로,48084,35.1718028,129.1663964
57,좌동순환로,48084,35.1716818,129.1664722
55-1,좌동순환로,48084,35.1714892,129.1664227
57-3,좌동순환로,48084,35.1715426,129.1662824
55,좌동순환로,48084,35.1713606,129.1662991
53,좌동순환로,48084,35.1712390,129.1663419
51-4,좌동순환로,48084,35.1712554,129.1662117
51-3,좌동순환로,48084,35.1710640,129.1661365
49,좌동순환로,48084,35.1710206,129.1662691
47-2,좌동순환로,48084,35.1709324,129.1662005
47-1,좌동순환로,48084,35.1708312,129.1662145
47,좌동순환로,48084,35.1707242,129.1661550
45,좌동순환로,48084,35.1706133,129.1661851
43-1,좌동순환로,48084,35.1704511,129.1661849
43,좌동순환로,48084,35.1703100,129.1661454
41-1,좌동순환로,48084,35.1702176,129.1661184
41,좌동순환로,48084,35.1701330,129.1661213
39,좌동순환로,48084,35.1700381,129.1661309
27,좌동순환로,48084,35.1688797,129.1663198
25,좌동순환로,48084,35.1687414,129.1663486
25-1,좌동순환로,48084,35.1687276,129.1661219
23,좌동순환로,48084,35.1685967,129.1660642
24-1,좌동순환로15번길,48084,35.1685426,129.1656360
22,좌동순환로,48083,35.1685506,129.1670442
20,좌동순환로,48083,35.1683520,129.1671308
18,좌동순환로,48083,35.1681784,129.1672334
21,좌동순환로8번길,48082,35.1679770,129.1678839
10,좌동순환로,48082,35.1675715,129.1679266
10,좌동순환로,48082,35.1675084,129.1675942
12,좌동순환로,48082,35.1676305,129.1675485
6,좌동순환로,48082,35.1672554,129.1680013
9,좌동로,48082,35.1673600,129.1684285
7,좌동순환로,48084,35.1674190,129.1667499
11,좌동순환로,48084,35.1675207,129.1670050
23-3,좌동순환로15번길,48084,35.1671514,129.1649936
21,좌동순환로15번길,48084,35.1671273,129.1650854
19,좌동순환로15번길,48084,35.1671304,129.1651979
19-1,좌동순환로15번길,48084,35.1671126,129.1653275
17-1,좌동순환로15번길,48084,35.1671424,129.1654383
17,좌동순환로15번길,48084,35.1671964,129.1655455
15-1,좌동순환로15번길,48084,35.1671638,129.1656632
15,좌동순환로15번길,48084,35.1671825,129.1657724
13-1,좌동순환로15번길,48084,35.1671723,129.1658754
13,좌동순환로15번길,48084,35.1672090,129.1659960
11,좌동순환로15번길,48084,35.1672059,129.1661166
9-12,좌동순환로15번길,48084,35.1668555,129.1662431
9-8,좌동순환로15번길,48084,35.1669975,129.1662628
9-28,좌동순환로15번길,48084,35.1668092,129.1660439
9-6,좌동순환로15번길,48084,35.1668924,129.1654059
62,양정로,47227,35.1698916,129.0768156
52-57,양정로,47227,35.1687931,129.0769336
477,진남로,47234,35.1670040,129.0693886
862,중앙대로,47233,35.1669009,129.0678168
821,중앙대로,47249,35.1653272,129.0632837
45,충렬대로359번길,47786,35.1998728,129.0988903
15,반송로218번길,47786,35.1999327,129.0987281
13-4,반송로218번길,47786,35.2000321,129.0987888
47,충렬대로359번길,47786,35.1999688,129.0989400
49,충렬대로359번길,47786,35.2000421,129.0990107
51-3,충렬대로359번길,47786,35.2001137,129.0990506
51-5,충렬대로359번길,47786,35.2001397,129.0989060
55,충렬대로359번길,47786,35.2003769,129.0990143
51-7,충렬대로359번길,47786,35.2001723,129.0987963
51-9,충렬대로359번길,47786,35.2002248,129.0986848
13,반송로218번길,47786,35.2000481,129.0985965
7-2,반송로218번길,47786,35.2000608,129.0984567
7-8,반송로218번길,47786,35.2002547,129.0985624
7-1,반송로218번길,47786,35.2001381,129.0982509
7-5,반송로218번길,47786,35.2002652,129.0983304
5,반송로218번길,47786,35.2001913,129.0981016
220,반송로,47786,35.2002837,129.0981460
220-1,반송로,47786,35.2003663,129.0982117
222,반송로,47786,35.2004566,129.0983539
7-10,반송로218번길,47786,35.2004259,129.0986595
16,안락로,47786,35.2006382,129.0987894
14,안락로,47786,35.2006870,129.0986299
12,안락로,47786,35.2007812,129.0984591
226,반송로,47786,35.2006776,129.0983809
224,반송로,47786,35.2005735,129.0983533
18,안락로,47786,35.2006331,129.0990345
16-1,안락로,47786,35.2006520,129.0989586
20,안락로,47786,35.2005941,129.0991535
20-1,안락로,47786,35.2005617,129.0992451
22,안락로,47786,35.2005278,129.0993354
80,명안로17번길,47787,35.1990158,129.1002518
35,충렬대로375번길,47787,35.1991194,129.1002843
84-4,명안로17번길,47787,35.1991557,129.1001257
84-3,명안로17번길,47787,35.1991945,129.0999338
82,명안로17번길,47787,35.1990560,129.1000794
84,명안로17번길,47787,35.1991053,129.0999051
88,명안로17번길,47787,35.1991327,129.0997600
90-4,명안로17번길,47787,35.1992175,129.0997814
90-6,명안로17번길,47787,35.1993127,129.0998508
84-5,명안로17번길,47787,35.1993021,129.1000116
37,충렬대로375번길,47787,35.1992431,129.1002921
39,충렬대로375번길,47787,35.1992113,129.1003832
84-6,명안로17번길,47787,35.1992538,129.1001754
41,충렬대로375번길,47787,35.1993119,129.1004081
90,명안로17번길,47787,35.1991697,129.0996143
90-3,명안로17번길,47787,35.1992978,129.0996171
90-9,명안로17번길,47787,35.1993912,129.0996532
92,명안로17번길,47787,35.1992058,129.0995247
94,명안로17번길,47787,35.1992362,129.0994353
96,명안로17번길,47787,35.1992712,129.0993263
100,명안로17번길,47787,35.1992861,129.0991482
38,충렬대로359번길,47787,35.1993620,129.0989995
40,충렬대로359번길,47787,35.1995510,129.0990950
42,충렬대로359번길,47787,35.1996258,129.0991469
44,충렬대로359번길,47787,35.1997093,129.0992093
90-5,명안로17번길,47787,35.1993246,129.0994700
90-7,명안로17번길,47787,35.1994252,129.0995162
91-7,명안로25번길,47787,35.1995444,129.0995030
87-7,명안로25번길,47787,35.1994984,129.0996497
90-11,명안로17번길,47787,35.1994623,129.0997838
90-12,명안로17번길,47787,35.1994053,129.1000649
84-8,명안로17번길,47787,35.1993479,129.1002069
43,충렬대로375번길,47787,35.1993991,129.1004609
45,충렬대로375번길,47787,35.1994986,129.1005481
47,충렬대로375번길,47787,35.1996078,129.1006345
73,명안로25번길,47787,35.1996182,129.1005258
90-13,명안로17번길,47787,35.1994251,129.0998968
90-15,명안로17번길,47787,35.1995014,129.0999301
90-15,명안로17번길,47787,35.1995507,129.0998465
87-5,명안로25번길,47787,35.1995866,129.0997248
87-6,명안로25번길,47787,35.1996333,129.0995567
91-5,명안로25번길,47787,35.1997219,129.0996023
90-14,명안로17번길,47787,35.1994150,129.1003238
90-20,명안로17번길,47787,35.1995258,129.1003922
77,명안로25번길,47787,35.1996529,129.1004131
79,명안로25번길,47787,35.1996746,129.1002745
90-24,명안로17번길,47787,35.1996083,129.1001928
90-22,명안로17번길,47787,35.1995700,129.1002974
90-16,명안로17번길,47787,35.1994690,129.1002309
90-18,명안로17번길,47787,35.1995213,129.1001422
90-17,명안로17번길,47787,35.1996345,129.0999107
90-19,명안로17번길,47787,35.1995839,129.1000084
90-21,명안로17번길,47787,35.1996824,129.1001169
83,명안로25번길,47787,35.1997224,129.0999883
87-3,명안로25번길,47787,35.1996647,129.0997852
91-3,명안로25번길,47787,35.1998066,129.0996588
91-8,명안로25번길,47787,35.1996420,129.0993419
46,충렬대로359번길,47787,35.1998625,129.0992975
91-4,명안로25번길,47787,35.1997756,129.0994577
44,가람로52번길,46587,35.2060007,129.0016927
12-3,중앙대로196번길,48821,35.1139328,129.0407228
12-5,중앙대로196번길,48821,35.1137817,129.0406479
16-8,중앙대로196번길,48821,35.1135701,129.0406494
12-7,중앙대로196번길,48821,35.1136842,129.0405009
12-9,중앙대로196번길,48821,35.1135706,129.0404568
12-11,중앙대로196번길,48821,35.1134677,129.0404011
12-13,중앙대로196번길,48821,35.1133696,129.0403562
16-12,중앙대로196번길,48821,35.1132087,129.0405149
12-15,중앙대로196번길,48821,35.1132678,129.0403123
9,중앙대로180번길,48821,35.1132070,129.0399758
12-10,중앙대로196번길,48821,35.1136196,129.0401713
12-14,중앙대로196번길,48821,35.1133300,129.0400098
6-13,중앙대로196번길,48821,35.1134078,129.0398052
6-11,중앙대로196번길,48821,35.1134958,129.0398477
6-9,중앙대로196번길,48821,35.1135844,129.0398790
6-7,중앙대로196번길,48821,35.1137080,129.0399918
6-5,중앙대로196번길,48821,35.1139662,129.0400411
12-8,중앙대로196번길,48821,35.1137410,129.0402084
12-4,중앙대로196번길,48821,35.1140024,129.0403261
6-3,중앙대로196번길,48821,35.1141642,129.0401690
12-6,중앙대로196번길,48821,35.1138887,129.0402766
192,중앙대로,48821,35.1143569,129.0397486
183,중앙대로,48818,35.1137254,129.0387071
6,중앙대로179번길,48818,35.1136697,129.0384447
181,중앙대로,48818,35.1136154,129.0386357
10,중앙대로179번길,48818,35.1136969,129.0382295
12,중앙대로179번길,48818,35.1137663,129.0381535
38,대영로243번길,48818,35.1138551,129.0382287
40,대영로243번길,48818,35.1139323,129.0382781
42,대영로243번길,48818,35.1140430,129.0383200
46,대영로243번길,48818,35.1141433,129.0383582
64,대영로243번길,48818,35.1142219,129.0384011
50,대영로243번길,48818,35.1143116,129.0383811
50,대영로243번길,48818,35.1142801,129.0384599
52,대영로243번길,48818,35.1143594,129.0384978
50,대영로243번길,48818,35.1144113,129.0384373
191,중앙대로,48818,35.1144554,129.0389791
189,중앙대로,48818,35.1144582,129.0387316
58,대영로243번길,48818,35.1146392,129.0386036
56,대영로243번길,48818,35.1145029,129.0385358
60,대영로243번길,48818,35.1147615,129.0386880
62,대영로243번길,48818,35.1148212,129.0387296
64,대영로243번길,48818,35.1148844,129.0387713
9,중앙대로195번길,48818,35.1149576,129.0387948
9,중앙대로195번길,48818,35.1138664,129.0378536
37,대영로243번길,48818,35.1139196,129.0379414
46,대영로239번길,48818,35.1139975,129.0378262
9,중앙대로195번길,48818,35.1142114,129.0381667
43,대영로243번길,48818,35.1142564,129.0380361
39,대영로243번길,48818,35.1139720,129.0380215
48,대영로239번길,48818,35.1140882,129.0379008
189,중앙대로,48818,35.1142938,129.0388626
188,중앙대로,48821,35.1140141,129.0396048
56,대영로239번길,48818,35.1144773,129.0380903
56-1,대영로239번길,48818,35.1145293,129.0380957
58,대영로239번길,48818,35.1146012,129.0381121
51,대영로243번길,48818,35.1144294,129.0382836
55,대영로243번길,48818,35.1146047,129.0383845
57,대영로243번길,48818,35.1146582,129.0384442
60,대영로239번길,48818,35.1146888,129.0381627
18,초량중로34번길,48818,35.1146640,129.0383139
53,대영로243번길,48818,35.1145413,129.0382609
45,대영로243번길,48818,35.1142843,129.0382338
49,대영로243번길,48818,35.1143596,129.0382717
12-12,중앙대로196번길,48821,35.1134845,129.0400940
41,대영로243번길,48818,35.1140250,129.0380365
41-1,대영로243번길,48818,35.1140556,129.0380559
28,산성로,46530,35.2394551,129.0170789
133,신암로,47348,35.1510648,129.0495803
50,새벽시장로64번길,46989,35.1529452,128.9798516
22,새벽로121번길,46988,35.1526439,128.9811634
38,새벽로121번길,46988,35.1526356,128.9802871
131,새벽로,46988,35.1532530,128.9813691
74,새벽시장로,46988,35.1546053,128.9812873
75,가야대로,46988,35.1513578,128.9810334
71,가야대로,46988,35.1515091,128.9808802
1056,낙동대로,46990,35.1545820,128.9738522
7,낙동대로1048번길,46990,35.1538693,128.9738884
8,새벽시장로,46990,35.1558051,128.9746966
16,새벽시장로,46990,35.1558358,128.9757080
247,감전천로,46990,35.1555661,128.9762715
45,낙동대로1062번길,46990,35.1547678,128.9761807
68,가야대로11번길,46990,35.1552008,128.9754796
29,낙동대로1062번길,46990,35.1548808,128.9754370
25,낙동대로1062번길,46990,35.1549294,128.9748690
17,낙동대로1062번길,46990,35.1552301,128.9742674
13,낙동대로1048번길,46990,35.1537975,128.9741551
43,가야대로11번길,46990,35.1543205,128.9745449
31,가야대로11번길,46990,35.1537877,128.9745021
19,낙동대로1048번길,46990,35.1536202,128.9746459
19,낙동대로1048번길,46990,35.1536691,128.9744057
35,가야대로64번길,47018,35.1492622,128.9795851
70-13,새벽로45번길,47025,35.1468894,128.9767388
10,새벽로63번길,47018,35.1473070,128.9804282
141,새벽로,46988,35.1539979,128.9816260
125,새벽로,46988,35.1525951,128.9819558
17,새벽로45번길,47025,35.1453189,128.9795947
9,새벽로,47025,35.1423214,128.9793113
69,장인로77번길,47025,35.1453458,128.9771086
49,낙동대로960번길,47028,35.1453088,128.9727613
1,새벽로,47025,35.1415974,128.9793561
75,장인로,47025,35.1425608,128.9768180
59,장인로,47025,35.1433011,128.9762078
20,새벽로17번길,47025,35.1433382,128.9788967
11,새벽로17번길,47025,35.1427013,128.9791699
15,장인로,47028,35.1445589,128.9713959
70,새벽시장로,46988,35.1548802,128.9813027
78,새벽시장로,46988,35.1547555,128.9821647
78-6,새벽시장로,46988,35.1545724,128.9821308
78-10,새벽시장로,46988,35.1543737,128.9820765
145,새벽로,46988,35.1542119,128.9826458
145,새벽로,46988,35.1543302,128.9824665
149,새벽로,46988,35.1546473,128.9826475
147,새벽로,46988,35.1544819,128.9825415
78-5,새벽시장로,46988,35.1545201,128.9823246
80,새벽시장로,46988,35.1547139,128.9823712
76,새벽시장로,46988,35.1544808,128.9819116
123,새벽로,46988,35.1531797,128.9822932
52,새벽시장로64번길,46989,35.1526874,128.9795123
50,새벽시장로64번길,46989,35.1526702,128.9796185
48,새벽시장로64번길,46989,35.1526558,128.9797144
46,새벽시장로64번길,46989,35.1526376,128.9798100
243,감전천로,46990,35.1552569,128.9764708
243,감전천로,46990,35.1552202,128.9761193
72,가야대로11번길,46990,35.1555867,128.9755859
39,낙동대로1062번길,46990,35.1547602,128.9757489
65,가야대로11번길,46990,35.1550967,128.9749822
65,가야대로11번길,46990,35.1551943,128.9748540
69,가야대로11번길,46990,35.1553567,128.9749094
30,낙동대로1062번길,46990,35.1545480,128.9752542
36,낙동대로1062번길,46990,35.1544764,128.9754353
48,가야대로11번길,46990,35.1543400,128.9752962
38,낙동대로1062번길,46990,35.1543802,128.9755457
42,낙동대로1062번길,46990,35.1543325,128.9756888
46,낙동대로1062번길,46990,35.1541622,128.9761951
46,낙동대로1062번길,46990,35.1542437,128.9761152
46,낙동대로1062번길,46990,35.1543080,128.9758741
231,감전천로,46990,35.1541211,128.9758993
231,감전천로,46990,35.1539191,128.9761419
231,감전천로,46990,35.1539579,128.9759565
231,감전천로,46990,35.1540870,128.9757744
229,감전천로,46990,35.1538690,128.9759168
227,감전천로,46990,35.1537174,128.9758779
46,가야대로11번길,46990,35.1541651,128.9754327
40,가야대로11번길,46990,35.1539949,128.9753804
36,가야대로11번길,46990,35.1538936,128.9751557
36,가야대로11번길,46990,35.1537727,128.9754246
32,가야대로11번길,46990,35.1536711,128.9749402
31,낙동대로1048번길,46990,35.1536566,128.9750967
33,낙동대로1048번길,46990,35.1536281,128.9752170
39,낙동대로1048번길,46990,35.1535096,128.9754431
35,낙동대로1048번길,46990,35.1536149,128.9754018
39,낙동대로1048번길,46990,35.1536064,128.9755983
41,낙동대로1048번길,46990,35.1535393,128.9757290
45,낙동대로1048번길,46990,35.1535091,128.9758812
49,낙동대로1048번길,46990,35.1534756,128.9760415
12,낙동대로1062번길,46990,35.1546957,128.9741143
12,낙동대로1062번길,46990,35.1548020,128.9741007
8,낙동대로1062번길,46990,35.1547449,128.9739517
1060,낙동대로,46990,35.1548070,128.9736949
1056,낙동대로,46990,35.1546672,128.9735306
1056,낙동대로,46990,35.1543232,128.9737530
1052,낙동대로,46990,35.1541440,128.9737077
1050,낙동대로,46990,35.1539601,128.9736067
42,새벽시장로64번길,46989,35.1526195,128.9799101
42,새벽시장로64번길,46989,35.1526346,128.9800488
34,새벽로121번길,46988,35.1526438,128.9804277
32,새벽로121번길,46988,35.1525920,128.9805513
30,새벽로121번길,46988,35.1525942,128.9806965
26,새벽로121번길,46988,35.1525654,128.9808516
45,새벽시장로64번길,46988,35.1528520,128.9806519
14,새벽로121번길,46988,35.1526213,128.9814814
12,새벽로121번길,46988,35.1523360,128.9816662
8,새벽로121번길,46988,35.1523432,128.9818482
33,새벽로121번길,46988,35.1521042,128.9803834
73,새벽시장로64번길,46988,35.1518307,128.9803126
65,가야대로,46988,35.1516132,128.9800280
65,가야대로,46988,35.1515556,128.9802998
69,가야대로,46988,35.1514243,128.9803756
21,새벽로121번길,46988,35.1520279,128.9808484
21,새벽로121번길,46988,35.1519709,128.9812209
7,새벽로121번길,46988,35.1521090,128.9817099
11,새벽로121번길,46988,35.1519000,128.9814975
117,새벽로,46988,35.1519183,128.9819782
113,새벽로,46988,35.1516064,128.9816474
79,가야대로,46988,35.1511516,128.9814710
99,새벽로,47018,35.1504602,128.9816205
99,새벽로,47018,35.1501306,128.9812566
89,새벽로,47018,35.1492910,128.9812316
87,새벽로,47018,35.1490267,128.9810703
83-12,새벽로,47018,35.1490088,128.9806179
83-12,새벽로,47018,35.1491633,128.9807041
9,새벽로,47018,35.1493376,128.9809629
11,새벽로,47018,35.1493523,128.9807905
15,새벽로,47018,35.1493944,128.9806304
17,새벽로,47018,35.1494015,128.9804538
83-16,새벽로,47018,35.1491884,128.9804424
21,새벽로,47018,35.1494487,128.9802684
83-22,새벽로,47018,35.1491933,128.9802502
83-24,새벽로,47018,35.1491926,128.9801337
83-26,새벽로,47018,35.1492200,128.9800166
27,새벽로,47018,35.1494694,128.9800987
27,새벽로,47018,35.1494998,128.9799358
31,새벽로,47018,35.1495405,128.9797943
83-28,새벽로,47018,35.1492677,128.9798788
83,새벽로,47018,35.1487411,128.9811092
81,새벽로,47018,35.1485986,128.9810723
83-9,새벽로,47018,35.1486994,128.9807930
83-11,새벽로,47018,35.1487513,128.9806144
83-15,새벽로,47018,35.1487464,128.9804464
83-21,새벽로,47018,35.1487946,128.9802447
83-23,새벽로,47018,35.1488175,128.9800156
83-27,새벽로,47018,35.1488849,128.9798015
83-31,새벽로,47018,35.1489206,128.9796410
32,새벽로77번길,47018,35.1486531,128.9795615
30,새벽로77번길,47018,35.1486219,128.9796974
26,새벽로77번길,47018,35.1485675,128.9798872
22,새벽로77번길,47018,35.1485346,128.9800649
20,새벽로77번길,47018,35.1485107,128.9802218
16,새벽로77번길,47018,35.1484823,128.9803880
12,새벽로77번길,47018,35.1484568,128.9805639
10,새벽로77번길,47018,35.1484177,128.9807381
77,새벽로,47018,35.1483751,128.9809865
31,새벽로77번길,47018,35.1481040,128.9794845
31,새벽로77번길,47018,35.1481323,128.9794362
23,새벽로77번길,47018,35.1481339,128.9798239
23,새벽로77번길,47018,35.1478649,128.9797633
27,새벽로77번길,47018,35.1480386,128.9796490
19,새벽로77번길,47018,35.1482231,128.9800858
17,새벽로77번길,47018,35.1479526,128.9799892
7,새벽로77번길,47018,35.1479543,128.9806564
7,새벽로77번길,47018,35.1480883,128.9806972
11,새벽로77번길,47018,35.1478943,128.9804048
86,낙동대로970번길,47028,35.1461779,128.9751114
141,감전천로,47028,35.1459773,128.9751556
78,낙동대로970번길,47028,35.1462151,128.9748348
76-9,낙동대로970번길,47028,35.1460358,128.9748563
76-11,낙동대로970번길,47028,35.1459336,128.9748302
76-10,낙동대로970번길,47028,35.1460887,128.9744529
76-12,낙동대로970번길,47028,35.1459747,128.9744295
56,장인로37번길,47028,35.1460136,128.9742022
60,장인로37번길,47028,35.1461265,128.9742273
62,장인로37번길,47028,35.1462367,128.9742465
68,낙동대로970번길,47028,35.1463727,128.9742511
59,장인로37번길,47028,35.1461956,128.9737214
60,낙동대로970번길,47028,35.1463991,128.9738572
58,낙동대로970번길,47028,35.1464089,128.9736986
54,낙동대로970번길,47028,35.1464390,128.9735705
52,낙동대로970번길,47028,35.1463405,128.9734456
50,낙동대로970번길,47028,35.1466085,128.9732848
50,낙동대로970번길,47028,35.1463996,128.9732876
48,낙동대로970번길,47028,35.1462481,128.9731251
48,낙동대로970번길,47028,35.1463588,128.9730397
48,낙동대로970번길,47028,35.1466285,128.9731000
42,낙동대로970번길,47028,35.1466418,128.9729760
42,낙동대로970번길,47028,35.1464177,128.9728801
54,장인로17번길,47028,35.1466979,128.9725111
54,장인로17번길,47028,35.1465134,128.9725707
42,장인로37번길,47028,35.1461110,128.9723922
42,장인로37번길,47028,35.1460788,128.9725605
47-20,장인로37번길,47028,35.1460786,128.9728207
47-18,장인로37번길,47028,35.1460478,128.9729899
47-14,장인로37번길,47028,35.1459456,128.9731075
47-14,장인로37번길,47028,35.1461181,128.9731736
47-10,장인로37번길,47028,35.1460802,128.9733673
53,장인로37번길,47028,35.1460567,128.9738597
53,장인로37번길,47028,35.1459820,128.9738210
53,장인로37번길,47028,35.1460410,128.9736415
47-10,장인로37번길,47028,35.1459103,128.9733000
49,장인로37번길,47028,35.1458839,128.9734888
49,장인로37번길,47028,35.1458640,128.9737006
81,낙동대로960번길,47028,35.1450919,128.9742276
37,장인로,47028,35.1438961,128.9743510
133,감전천로,47028,35.1454768,128.9745650
133,감전천로,47028,35.1453350,128.9745562
137,감전천로,47028,35.1458159,128.9752029
137,감전천로,47028,35.1456712,128.9749981
137,감전천로,47028,35.1455936,128.9748250
137,감전천로,47028,35.1454060,128.9751010
133,감전천로,47028,35.1452694,128.9747713
133,감전천로,47028,35.1452232,128.9750252
89,낙동대로960번길,47028,35.1450368,128.9750370
65,새벽로,47018,35.1473695,128.9808053
63,새벽로,47018,35.1470790,128.9806965
16,새벽로63번길,47018,35.1473924,128.9801371
20,새벽로63번길,47018,35.1474019,128.9799054
24,새벽로63번길,47018,35.1474641,128.9797319
26,새벽로63번길,47018,35.1472533,128.9794187
26,새벽로63번길,47018,35.1475469,128.9795408
30,새벽로63번길,47018,35.1473595,128.9793368
32,새벽로63번길,47018,35.1473820,128.9792382
34,새벽로63번길,47018,35.1474069,128.9791323
103-19,장인로77번길,47025,35.1466722,128.9776592
103-15,장인로77번길,47025,35.1466266,128.9778809
103-11,장인로77번길,47025,35.1465880,128.9781363
116,장인로77번길,47025,35.1470552,128.9789449
31,새벽로63번길,47025,35.1470165,128.9790932
110,장인로77번길,47025,35.1468920,128.9789748
29,새벽로63번길,47025,35.1469352,128.9792834
21,새벽로63번길,47025,35.1468597,128.9796834
23,새벽로63번길,47025,35.1468868,128.9795376
17,새벽로63번길,47025,35.1468316,128.9798466
15,새벽로63번길,47025,35.1468043,128.9799924
11,새벽로63번길,47025,35.1467867,128.9801354
9,새벽로63번길,47025,35.1467598,128.9802760
108,장인로77번길,47025,35.1468026,128.9789555
106,장인로77번길,47025,35.1467182,128.9788719
104,장인로77번길,47025,35.1466269,128.9788434
53-32,새벽로,47025,35.1466396,128.9790182
53-30,새벽로,47025,35.1466730,128.9791467
53-28,새벽로,47025,35.1466537,128.9792633
53-24,새벽로,47025,35.1466101,128.9793997
53-22,새벽로,47025,35.1466090,128.9795654
53-20,새벽로,47025,35.1465874,128.9796872
53-18,새벽로,47025,35.1465443,128.9798115
53-16,새벽로,47025,35.1465479,128.9799455
53-12,새벽로,47025,35.1465249,128.9800776
53-10,새벽로,47025,35.1465056,128.9802155
59,새벽로,47025,35.1468352,128.9805978
59,새벽로,47025,35.1466477,128.9805416
57,새벽로,47025,35.1465059,128.9804972
55,새벽로,47025,35.1463500,128.9804615
89,낙동대로960번길,47028,35.1448430,128.9750270
38,낙동대로960번길,47028,35.1452038,128.9719905
20,장인로17번길,47028,35.1450566,128.9720559
38,낙동대로960번길,47028,35.1451878,128.9722838
48,낙동대로960번길,47028,35.1450935,128.9725478
52,낙동대로960번길,47028,35.1450262,128.9727375
56,낙동대로960번길,47028,35.1449571,128.9729127
60,낙동대로960번길,47028,35.1448812,128.9731008
12,장인로17번길,47028,35.1446542,128.9718120
13-27,장인로37번길,47028,35.1445998,128.9719788
13-25,장인로37번길,47028,35.1444997,128.9721557
13-23,장인로37번길,47028,35.1444636,128.9723012
13-21,장인로37번길,47028,35.1444418,128.9724369
13-17,장인로37번길,47028,35.1443687,128.9725755
13-15,장인로37번길,47028,35.1443271,128.9727239
16,장인로17번길,47028,35.1449175,128.9719867
13-30,장인로37번길,47028,35.1449619,128.9722145
13-30,장인로37번길,47028,35.1448671,128.9722949
13-24,장인로37번길,47028,35.1448233,128.9724796
13-22,장인로37번길,47028,35.1447618,128.9726308
13-16,장인로37번길,47028,35.1447133,128.9727903
13-14,장인로37번길,47028,35.1446287,128.9729744
27,장인로37번길,47028,35.1448052,128.9733944
13-10,장인로37번길,47028,35.1445703,128.9731311
15,장인로37번길,47028,35.1445052,128.9733586
38,장인로37번길,47028,35.1458235,128.9721624
38,장인로37번길,47028,35.1458219,128.9723401
47-17,장인로37번길,47028,35.1456826,128.9729130
47-15,장인로37번길,47028,35.1456339,128.9730207
47-19,장인로37번길,47028,35.1457059,128.9727670
47-23,장인로37번길,47028,35.1457265,128.9726071
47-25,장인로37번길,47028,35.1457438,128.9724946
39,낙동대로960번길,47028,35.1456507,128.9722455
43,낙동대로960번길,47028,35.1454741,128.9725124
13-13,장인로37번길,47028,35.1442769,128.9728742
13-9,장인로37번길,47028,35.1442113,128.9730203
13,장인로37번길,47028,35.1441444,128.9732701
21,장인로,47028,35.1442720,128.9720122
23,장인로,47028,35.1442099,128.9721798
25,장인로,47028,35.1441392,128.9723689
27,장인로,47028,35.1441115,128.9725538
29,장인로,47028,35.1440331,128.9726591
29-1,장인로,47028,35.1439941,128.9727628
31,장인로,47028,35.1439553,128.9728692
35,장인로,47028,35.1437793,128.9731200
21,장인로17번길,47028,35.1453076,128.9715840
7-22,장인로,47028,35.1454340,128.9712115
19,장인로17번길,47028,35.1451783,128.9715069
958,낙동대로,47028,35.1458612,128.9704552
954,낙동대로,47028,35.1457293,128.9701715
954,낙동대로,47028,35.1455854,128.9703563
7-19,장인로,47028,35.1455342,128.9707030
7-15,장인로,47028,35.1454140,128.9706367
7-20,장인로,47028,35.1453028,128.9711706
7-16,장인로,47028,35.1451533,128.9711029
7-12,장인로,47028,35.1450203,128.9709776
13,장인로17번길,47028,35.1450310,128.9714783
11,장인로17번길,47028,35.1448686,128.9714012
13,장인로,47028,35.1446941,128.9711505
11,장인로,47028,35.1447454,128.9709121
7-10,장인로,47028,35.1449034,128.9708045
7,장인로,47028,35.1447593,128.9707371
7,장인로,47028,35.1446565,128.9706362
53,새벽로,47025,35.1461419,128.9803371
51,새벽로,47025,35.1459667,128.9803723
53-9,새벽로,47025,35.1460669,128.9800806
53-13,새벽로,47025,35.1460867,128.9799263
53-15,새벽로,47025,35.1461460,128.9798120
53-17,새벽로,47025,35.1461411,128.9796765
53-21,새벽로,47025,35.1463015,128.9795275
53-21,새벽로,47025,35.1461582,128.9794935
53-23,새벽로,47025,35.1461945,128.9793269
53-25,새벽로,47025,35.1462162,128.9792106
53-29,새벽로,47025,35.1462365,128.9790948
53-31,새벽로,47025,35.1462562,128.9789823
100,장인로77번길,47025,35.1463845,128.9788273
96,장인로77번길,47025,35.1462381,128.9787898
36,새벽로45번길,47025,35.1460277,128.9787303
30,새벽로45번길,47025,35.1460140,128.9789465
28,새벽로45번길,47025,35.1459744,128.9790828
26,새벽로45번길,47025,35.1459566,128.9791848
24,새벽로45번길,47025,35.1459362,128.9792908
22,새벽로45번길,47025,35.1459185,128.9793960
20,새벽로45번길,47025,35.1459023,128.9795039
18,새벽로45번길,47025,35.1458777,128.9796414
14,새벽로45번길,47025,35.1458499,128.9798325
49,새벽로,47025,35.1458305,128.9802003
47,새벽로,47025,35.1456569,128.9802157
55,새벽로17번길,47025,35.1434881,128.9771205
55,새벽로17번길,47025,35.1435429,128.9769581
55,새벽로17번길,47025,35.1434069,128.9769695
49-8,새벽로17번길,47025,35.1432676,128.9769172
49-12,새벽로17번길,47025,35.1431240,128.9768543
49-14,새벽로17번길,47025,35.1429732,128.9768207
49-14,새벽로17번길,47025,35.1428457,128.9768140
49-13,새벽로17번길,47025,35.1428969,128.9769983
49-13,새벽로17번길,47025,35.1428364,128.9770651
49-9,새벽로17번길,47025,35.1430706,128.9770911
49-9,새벽로17번길,47025,35.1430882,128.9771958
49,새벽로17번길,47025,35.1433272,128.9772512
43,새벽로17번길,47025,35.1433523,128.9774087
43,새벽로17번길,47025,35.1432387,128.9773799
41,새벽로17번길,47025,35.1431926,128.9775717
17,장인로77번길,47025,35.1430001,128.9774547
15,장인로77번길,47025,35.1428370,128.9773869
13,장인로77번길,47025,35.1426754,128.9773249
25,새벽로17번길,47025,35.1429270,128.9783801
24,장인로77번길,47025,35.1431489,128.9779811
24,장인로77번길,47025,35.1430297,128.9779492
24,장인로77번길,47025,35.1429068,128.9779076
31,새벽로17번길,47025,35.1429683,128.9781522
16,장인로77번길,47025,35.1427270,128.9780890
14,장인로77번길,47025,35.1425729,128.9780700
10,장인로77번길,47025,35.1424764,128.9778151
8,장인로77번길,47025,35.1423577,128.9778051
81-8,장인로,47025,35.1422796,128.9781317
152,감전천로,47018,35.1468268,128.9762486
70-7,새벽로45번길,47025,35.1464103,128.9767948
70-7,새벽로45번길,47025,35.1464397,128.9766930
70-7,새벽로45번길,47025,35.1463845,128.9766508
70-11,새벽로45번길,47025,35.1466570,128.9767420
70-9,새벽로45번길,47025,35.1465313,128.9767228
76,새벽로45번길,47025,35.1465175,128.9765105
70-10,새벽로45번길,47025,35.1464972,128.9770929
70,새벽로45번길,47025,35.1462650,128.9766709
64,새벽로45번길,47025,35.1462752,128.9770411
45,새벽로,47025,35.1454143,128.9801245
43,새벽로,47025,35.1452874,128.9800045
41,새벽로,47025,35.1451346,128.9800028
19,새벽로45번길,47025,35.1455513,128.9794164
23,새벽로45번길,47025,35.1453491,128.9791519
35,새벽로45번길,47025,35.1450601,128.9786730
77,장인로,47025,35.1421326,128.9776522
79,장인로,47025,35.1421250,128.9778212
81-6,장인로,47025,35.1421845,128.9781536
81,장인로,47025,35.1420196,128.9780243
83,장인로,47025,35.1419747,128.9781846
89,장인로,47025,35.1423073,128.9788155
85,장인로,47025,35.1420822,128.9784615
21,새벽로17번길,47025,35.1426406,128.9785349
19,새벽로17번길,47025,35.1426080,128.9787246
15,새벽로17번길,47025,35.1425656,128.9789255
15,새벽로,47025,35.1427532,128.9795762
13,새벽로,47025,35.1425963,128.9795727
9,새벽로17번길,47025,35.1427113,128.9793548
11,새벽로,47025,35.1424826,128.9794441
5,새벽로,47025,35.1419207,128.9793787
7,새벽로,47025,35.1420938,128.9793777
5,새벽로,47025,35.1421603,128.9790718
