House number,Street name,Postal code,Latitude,Longitude
6,Каинская улица,630007,55.0186036,82.9252205
5,улица Ленина,630099,55.0294849,82.9162693
250,улица Бориса Богаткова,630089,55.0379996,82.9791076
64,Учительская улица,630020,55.0913681,82.9545909
184,улица Гоголя,630112,55.0452931,82.9557238
103,улица Ватутина,630024,54.9671651,82.9261481
118/1,улица Немировича-Данченко,630048,54.9727494,82.9030027
118/1,улица Немировича-Данченко,630048,54.9726305,82.9027926
25,улица Сибиряков-Гвардейцев,630048,54.9737567,82.8979153
5/1,Вертковская улица,630048,54.9754456,82.8915809
20,улица Петухова,630088,54.9397524,82.8992843
18,улица Чаплыгина,630099,55.0249807,82.9123068
30А,улица Иванова,630117,54.8681030,83.0936050
10/1к2,улица Ключ-Камышенское Плато,630114,54.9850286,83.0461848
12А,улица Терешковой,630090,54.8417778,83.1035309
4,улица Ильича,630090,54.8381708,83.0971738
13,улица Боровая Партия,630116,54.8118475,83.0953757
11,Золотодолинская улица,630090,54.8362691,83.1058968
15,проспект Строителей,630055,54.8599645,83.0839862
54,Морской проспект,630090,54.8352334,83.0973327
38А,Курганская улица,630045,54.9709969,82.8435822
17,улица Челюскинцев,630132,55.0407022,82.9077924
23,Геодезическая улица,630087,54.9866634,82.9116234
24,Фабричная улица,630003,55.0300805,82.8950997
17,улица Громова,630106,54.9346588,82.9094866
18,Мочищенское шоссе,630123,55.0756415,82.9060591
180,улица Бориса Богаткова,630017,55.0276230,82.9653371
5,Советская улица,630007,55.0217688,82.9179425
136 к1,улица Немировича-Данченко,630087,54.9869597,82.9139976
23,улица Мичурина,630091,55.0406600,82.9205824
126/1,улица Кропоткина,630111,55.0562534,82.9325240
18/1,улица Мичурина,630005,55.0453789,82.9209420
90/1,улица Пархоменко,630136,54.9871292,82.8503494
11А,Киевская улица,630136,54.9889582,82.8501941
44,улица Костычева,630077,54.9753424,82.8768325
99,Советская улица,630109,55.0465585,82.9115938
25/1,Фасадная улица,630120,54.9837575,82.8224527
10,улица Кошурникова,630112,55.0423033,82.9513690
5,улица Восход,630102,55.0137507,82.9421016
52/3,Трикотажная улица,630084,55.0646425,82.9698255
275/1,улица Зорге,630119,54.9304493,82.9296462
9,Геодезическая улица,630073,54.9894262,82.9052852
21/1,улица Чаплыгина,630099,55.0251929,82.9113786
6,улица Ильича,630090,54.8389671,83.0956678
15,улица Восход,630200,55.0174926,82.9467867
28,Вилюйская улица,630126,55.0005803,83.0175290
4А,проезд Энергетиков,630108,55.0026613,82.8697951
7,улица Михаила Перевозчикова,630082,55.0603980,82.9068336
27,Дачная улица,630082,55.0629036,82.9025726
16,улица Громова,630106,54.9358380,82.9081599
23,Геодезическая улица,630087,54.9866619,82.9113334
2А,Промышленная улица,630015,55.0528679,82.9636765
16,Абразивная улица,630028,54.9890786,82.9884491
24,Морской проспект,630090,54.8391475,83.1057009
119 к1,1-я Чулымская улица,630029,55.0127352,82.8874741
17,Часовая улица,630098,54.8652075,82.9832783
30,Новоуральская улица,630900,55.1790940,82.9570020
100,Ленинградская улица,630008,55.0141213,82.9554730
73,улица Ольги Жилиной,630005,55.0461448,82.9324937
28,улица Ленина,630004,55.0297606,82.9060838
14,улица Добролюбова,630009,55.0080362,82.9503891
16,Холодильная улица,630001,55.0499331,82.8858765
5,Владимировская улица,630003,55.0329927,82.8913824
18,Техническая улица,630010,55.0556732,83.0083528
58,Тамбовская улица,630020,55.0953927,82.9336191
18,Красный проспект,630011,55.0220068,82.9245493
1А,проспект Дзержинского,630015,55.0498303,82.9609033
17,улица Мира,630024,54.9643993,82.9082646
14,улица Новосёлов,630025,54.9622280,83.0627334
25,улица Объединения,630027,55.0972607,82.9640475
43,улица Дубравы,630028,54.9927194,82.9931732
8,Оловозаводская улица,630033,54.9653536,82.9562175
220,Первомайская улица,630030,54.9764784,83.0576807
5,Путевая улица,630032,54.9979347,82.8877928
2А,улица Маяковского,630037,54.9716131,83.0966532
9,улица Панфиловцев,630039,55.0238575,82.9800316
22,Портовая улица,630036,55.0256003,82.8563754
1,площадь Труда,630035,54.9951865,82.8680351
20/3,улица Кузьмы Минина,630047,55.0751716,82.9372664
12,улица Шмидта,630046,54.9753800,83.0813369
159,Красный проспект,630049,55.0605004,82.9118075
81,проспект Дзержинского,630051,55.0640551,82.9918661
2Б,Балластная улица,630041,55.0210157,82.7892542
282,улица Лескова,630063,55.0124519,82.9735496
7,Узорная улица,630059,54.9240687,83.0808215
6,Ветлужская улица,630056,54.8524063,82.9753403
33/1,Ударная улица,630052,54.9650694,82.8651071
1А,Комсомольская улица,630066,54.9547512,82.9689500
14,проспект Карла Маркса,630064,54.9862828,82.8441336
15,улица Станиславского,630054,54.9825029,82.8724346
55,Фабричная улица,630061,55.0230509,82.9036105
15,Фасадная улица,630071,54.9896233,82.8194435
1Б,Газонная улица,630068,54.9495756,83.1154908
20,улица Петухова,630088,54.9398428,82.8992993
64,улица Лейтенанта Амосова,630095,55.1597159,82.9615021
16,улица Ватутина,630078,54.9877497,82.8878479
28,улица Станиславского,630079,54.9754583,82.8722176
55,Фабричная улица,630061,55.0229991,82.9035560
5,Звёздная улица,630097,54.9500955,83.0682398
2/1,улица Авиастроителей,630084,55.0684399,82.9645283
15,Фасадная улица,630071,54.9895388,82.8194929
3,площадь Карла Маркса,630078,54.9837375,82.8909254
104,Первомайская улица,630080,54.9668850,83.1098771
8,улица Богдана Хмельницкого,630075,55.0670979,82.9379025
10,улица 9-й Гвардейской Дивизии,630107,54.9660098,82.8476594
20,улица Зорге,630106,54.9335373,82.9069201
22,улица Котовского,630108,54.9912409,82.8664295
4,улица Толбухина,630124,55.0423946,83.0048678
61,улица Невельского,630121,54.9923180,82.8094665
30,Вилюйская улица,630126,55.0056746,83.0178984
6,Лазурная улица,630133,55.0314249,83.0058288
15,улица Восход,630200,55.0174461,82.9468584
14,улица Ключ-Камышенское Плато,630114,54.9883245,83.0462525
1/2,Оловозаводская улица,630033,54.9652315,82.9574191
1/2,Оловозаводская улица,630033,54.9650740,82.9571598
77,Ипподромская улица,630075,55.0609927,82.9360700
1,Народная улица,630075,55.0634383,82.9366067
1А,улица Академика Ржанова,630090,54.8441618,83.1140066
48,улица Татьяны Снежиной,630133,55.0233178,83.0225683
1 к2,Воинская улица,630017,55.0285798,82.9582807
9,улица 9-й Гвардейской Дивизии,630107,54.9662624,82.8495856
9/2,улица 9-й Гвардейской Дивизии,630107,54.9661276,82.8490223
28,Новосибирская улица,630064,54.9867740,82.8435422
47/1,улица Чигорина,630033,54.9606009,82.9603610
4А,Заречная улица,630030,54.9782219,83.0465240
236,Первомайская улица,630030,54.9774372,83.0476331
6,Заречная улица,630030,54.9774858,83.0480207
1/1,Экваторная улица,630060,54.8886201,83.0965035
26/4,проспект Карла Маркса,630087,54.9904389,82.9112907
122/1,Выборная улица,630126,54.9977594,83.0120820
51А,улица Забалуева,630096,54.9883804,82.8069382
2А,улица Добролюбова,630009,55.0025946,82.9424921
52,Станционная улица,630096,54.9975309,82.8332052
52 к3,Станционная улица,630096,54.9970551,82.8335037
199/2,Выборная улица,630126,55.0106578,83.0499979
199/3,Выборная улица,630126,55.0110889,83.0489657
21/1,улица Тюленина,630061,55.1147166,82.9387567
10,улица Шмидта,630046,54.9753252,83.0822046
10/1,улица Ключ-Камышенское Плато,630114,54.9850004,83.0469532
79/2,Красный проспект,630049,55.0502102,82.9124953
23,Геодезическая улица,630087,54.9867061,82.9105647
36,улица Сибиряков-Гвардейцев,630048,54.9746389,82.8968728
23,Геодезическая улица,630087,54.9866407,82.9120021
16/1,улица Зелёная Горка,630060,54.8937352,83.1043289
1/16,улица Зелёная Горка,630060,54.8938085,83.1042001
47,улица Максима Горького,630099,55.0265882,82.9126087
117,Журинская улица,630112,55.0381577,82.9454897
188,улица Бориса Богаткова,630017,55.0290532,82.9670098
163А к1,улица Бориса Богаткова,630017,55.0288129,82.9656631
35/1,Народная улица,630075,55.0717359,82.9491284
3/1,Октябрьская магистраль,630007,55.0231290,82.9316745
12,улица Николаева,630090,54.8579084,83.1124107
2,улица Ошанина,630069,54.9397917,83.1002061
62,Станционная улица,630096,54.9974851,82.8290249
12,улица Герцена,630066,54.9589121,82.9676378
30,улица Орджоникидзе,630099,55.0311149,82.9304383
23,Геодезическая улица,630087,54.9866525,82.9114081
35,Красноярская улица,630132,55.0405562,82.9004138
18/1,улица Мичурина,630005,55.0456146,82.9207359
26,улица Ватутина,630078,54.9857792,82.8912749
17,Спортивная улица,630096,54.9830671,82.7976422
7,Учительская улица,630084,55.0748827,82.9739095
18,Советская улица,630099,55.0303081,82.9167474
23,улица Чаплыгина,630099,55.0252109,82.9116608
23/1,улица Чаплыгина,630099,55.0252175,82.9113404
82,улица Кирова,630102,55.0145822,82.9479617
2А,улица Добролюбова,630009,55.0022889,82.9431574
77/4,улица Державина,630112,55.0414111,82.9435405
79,улица Державина,630112,55.0416302,82.9458162
73,улица Державина,630112,55.0410225,82.9434959
92/2,улица Державина,630112,55.0406906,82.9461030
14,улица Котовского,630032,54.9948349,82.8782043
65,Советская улица,630099,55.0355912,82.9144980
133 к1,Зыряновская улица,630009,55.0050533,82.9530414
34А,улица Сибиряков-Гвардейцев,630048,54.9760431,82.8965864
14/1,улица Петухова,630088,54.9402097,82.8950517
16,улица Петухова,630088,54.9409831,82.8953432
39,Гостинная улица,630034,54.9398799,83.1095503
1/8,улица Одоевского,630034,54.9368299,83.1064988
88,улица Фрунзе,630005,55.0376269,82.9347832
4/1,Серебренниковская улица,630007,55.0165876,82.9298158
30,проспект Карла Маркса,630087,54.9918685,82.9115769
50 к7,Светлановская улица,630047,55.0836053,82.9348070
84,улица Пархоменко,630136,54.9872208,82.8517151
41А,Трикотажная улица,630015,55.0612525,82.9724426
4/1,Геодезическая улица,630073,54.9898436,82.9036849
10,улица Ильича,630090,54.8408753,83.0926969
4Г,Северный проезд,630088,54.9531618,82.8844519
138,улица Немировича-Данченко,630087,54.9878450,82.9155449
20 к14,Бердское шоссе,630097,54.9596962,83.0540769
3 к1,Тополёвая улица,630017,55.0295297,82.9430982
56,улица Толстого,630009,55.0202008,82.9418967
133,улица Богдана Хмельницкого,630027,55.1131705,82.9893517
2/2,проспект Академика Лаврентьева,630090,54.8528891,83.0987112
40 к2,улица Королёва,630015,55.0588913,82.9599686
101/1,СУХАРНАЯ,630001,55.0475931,82.8627979
72/1 к1,улица Пархоменко,630136,54.9867008,82.8497656
74 к2,улица Плахотного,630136,54.9851603,82.8482446
19А,Новосибирская улица,630136,54.9886775,82.8438462
10,улица Учёных,630090,54.8332466,83.1075269
10,улица Ильича,630090,54.8409034,83.0926604
8,улица Ленина,630099,55.0297173,82.9151575
15 к3 оф203,Кривощёковская улица,630007,55.0160484,82.9297953
9,улица Титова,630054,54.9822571,82.8843002
8,Колыванская улица,630007,55.0174633,82.9269087
12,улица Семьи Шамшиных,630099,55.0267090,82.9339737
21,улица Лескова,630008,55.0243004,82.9510884
47,улица Орджоникидзе,360099,55.0325252,82.9347020
1,Народная улица,630075,55.0633104,82.9360739
31/3,Фабричная улица,630007,55.0190593,82.9126838
18,улица Фрунзе,630099,55.0371019,82.9289987
23/5,Дачная улица,630082,55.0617126,82.9036349
23/5,Дачная улица,630082,55.0615302,82.9038301
23/5,Дачная улица,630082,55.0613164,82.9040589
10,Фабричная улица,630007,55.0203500,82.9118623
10,улица Менделеева,630110,55.0739853,82.9625550
4,Фабричная улица,630007,55.0164052,82.9212669
5,Военная улица,630099,55.0284815,82.9360838
13,улица Гоголя,630091,55.0437135,82.9215074
101,Красный проспект,630105,55.0558291,82.9126862
7,площадь Карла Маркса,630048,54.9806494,82.8982564
50,Плановая улица,630004,55.0544929,82.8946548
12А,Весенняя улица,630049,55.0687637,82.9052582
182/1,Красный проспект,630000,55.0570674,82.9137559
7,площадь Карла Маркса,630048,54.9797887,82.8974517
90,Журинская улица,630005,55.0374758,82.9423056
46 оф1144,Депутатская улица,630099,55.0288628,82.9264356
9,улица Ключ-Камышенское Плато,630114,54.9883538,83.0409880
13,улица Ключ-Камышенское Плато,630114,54.9896583,83.0403252
13,улица Ключ-Камышенское Плато,630114,54.9896598,83.0404745
13,улица Ключ-Камышенское Плато,630114,54.9909225,83.0407725
33,улица Терешковой,630090,54.8369405,83.1176551
1,улица Виталия Потылицына,630133,55.0206393,83.0099411
24,Лазурная улица,630133,55.0335854,83.0187383
37,улица Высоцкого,630133,55.0323767,83.0184020
37,улица Высоцкого,630133,55.0323774,83.0183405
270/7,Нижегородская улица,630063,55.0008938,82.9747709
14/1,улица Ключ-Камышенское Плато,630114,54.9883185,83.0443944
73,Автогенная улица,630063,55.0096835,82.9701735
55,Трикотажная улица,630084,55.0685220,82.9624850
42,Кубовая улица,630040,55.1251970,82.9028615
103,Кубовая улица,630040,55.1290904,82.8978751
89/8,Выборная улица,630126,55.0022113,83.0156209
10,Морской проспект,630090,54.8403597,83.1089083
6,улица Ильича,630090,54.8397384,83.0946284
3,улица Ленина,630099,55.0295918,82.9171481
17,улица Римского-Корсакова,630077,54.9776265,82.8857931
179/2,улица Дуси Ковальчук,630049,55.0603311,82.9134987
89/8,Выборная улица,630126,55.0022749,83.0159075
9,Вилюйская улица,630126,55.0012780,83.0061192
32,Танковая улица,630075,55.0600905,82.9312053
18,Советская улица,630099,55.0304720,82.9166039
4/1,Геодезическая улица,630073,54.9900817,82.9031800
42,Красный проспект,630099,55.0323552,82.9204248
1А,улица Аэропорт,630123,55.0803337,82.9077454
11,улица Бродского,630051,55.0569288,82.9820866
136 оф8,Автогенная улица,630039,55.0260113,82.9896304
5А,улица Ключ-Камышенское Плато,630114,54.9886322,83.0395313
201Б,Выборная улица,630126,55.0083394,83.0551436
2Б,улица Немировича-Данченко,630045,54.9731202,82.8509831
25/1,Ударная улица,630052,54.9674488,82.8634387
33,Дачная улица,630082,55.0647744,82.9001238
15/1,Железнодорожная улица,630132,55.0469446,82.9049909
273,Ленинградская улица,630063,55.0052973,82.9779104
8/1 к2,улица Ключ-Камышенское Плато,630114,54.9872467,83.0425614
144,Выборная улица,630126,55.0029363,83.0225234
87/3,Выборная улица,630126,55.0004997,83.0108030
122,Выборная улица,630126,54.9992052,83.0092584
122,Выборная улица,630126,54.9992089,83.0093963
14/1,улица Ключ-Камышенское Плато,630114,54.9883206,83.0432670
14,улица Ключ-Камышенское Плато,630114,54.9883054,83.0455906
14/1,улица Ключ-Камышенское Плато,630114,54.9882967,83.0441669
221/1,Выборная улица,630126,54.9945723,83.0556569
221/1,Выборная улица,630126,54.9944374,83.0558924
10/2,улица Ключ-Камышенское Плато,630114,54.9870781,83.0455464
45,Первомайская улица,630046,54.9721110,83.0803580
37/2,Гусинобродское шоссе,630010,55.0410573,83.0273816
42,Новогодняя улица,630087,54.9861589,82.9114741
2,улица Курчатова,630027,55.1030557,82.9592820
2/1,Геодезическая улица,630073,54.9906577,82.9022499
107,улица Ватутина,630024,54.9643150,82.9362236
14,улица Ключ-Камышенское Плато,630114,54.9883527,83.0465246
7/1,улица Ключ-Камышенское Плато,630114,54.9870043,83.0410616
18/1,улица Ключ-Камышенское Плато,630114,54.9855898,83.0436472
26,улица Ключ-Камышенское Плато,630114,54.9848229,83.0403882
14/1,улица Ключ-Камышенское Плато,630114,54.9883216,83.0435024
14/1,улица Ключ-Камышенское Плато,630114,54.9883260,83.0437161
14/1,улица Ключ-Камышенское Плато,630114,54.9883196,83.0438973
14,улица Ключ-Камышенское Плато,630114,54.9883304,83.0452910
6/1,улица Ключ-Камышенское Плато,630114,54.9849189,83.0387834
14,улица Ключ-Камышенское Плато,630114,54.9883128,83.0458379
14,улица Ключ-Камышенское Плато,630114,54.9883731,83.0463543
1/1,улица Ключ-Камышенское Плато,630114,54.9807064,83.0352001
26,улица Ключ-Камышенское Плато,630114,54.9848272,83.0402904
26,улица Ключ-Камышенское Плато,630114,54.9847778,83.0402950
26,улица Ключ-Камышенское Плато,630114,54.9848000,83.0403904
1/1,улица Ключ-Камышенское Плато,630114,54.9802310,83.0351763
18/1,улица Ключ-Камышенское Плато,630114,54.9855990,83.0435668
10/1,улица Ключ-Камышенское Плато,630114,54.9849526,83.0470779
34,улица Станиславского,630079,54.9715231,82.8720846
19 к4,Хилокская улица,630019,54.9462792,82.8320005
4,Заречная улица,630030,54.9772147,83.0445439
30,улица Королёва,630015,55.0527281,82.9657812
84,улица Ленина,630004,55.0364439,82.8997545
118/1,улица Немировича-Данченко,630048,54.9727897,82.9030632
183 к2,улица Зорге,630119,54.9352028,82.9186071
183 к1,улица Зорге,630119,54.9353992,82.9186311
14/1,улица Ключ-Камышенское Плато,630114,54.9883436,83.0433743
14/1,улица Ключ-Камышенское Плато,630114,54.9883418,83.0437887
14/1,улица Ключ-Камышенское Плато,630114,54.9883397,83.0442634
14/1,улица Ключ-Камышенское Плато,630114,54.9882077,83.0442732
14/1,улица Ключ-Камышенское Плато,630114,54.9881535,83.0437010
14/1,улица Ключ-Камышенское Плато,630114,54.9881943,83.0433641
72,Ядринцевская улица,630099,55.0339999,82.9349199
271/3,Пролетарская улица,630114,54.9906022,83.0382550
78,2-я улица Марата,630030,54.9792824,83.0564877
78,2-я улица Марата,630030,54.9792553,83.0563878
37,Красный проспект,630091,55.0345164,82.9188089
1/1,площадь Карла Маркса,630048,54.9821668,82.8974861
10,улица Ильича,630090,54.8409471,83.0927804
6,улица Ильича,630090,54.8387837,83.0958955
82,Красный проспект,630091,55.0465722,82.9173383
290,Большевистская улица,630028,54.9768018,83.0243443
7/1,улица Ключ-Камышенское Плато,630114,54.9868932,83.0409736
7/1,улица Ключ-Камышенское Плато,630114,54.9869843,83.0409277
7/1,улица Ключ-Камышенское Плато,630114,54.9868720,83.0408641
7/1,улица Ключ-Камышенское Плато,630114,54.9869361,83.0407482
7/1,улица Ключ-Камышенское Плато,630114,54.9867932,83.0410422
14/1,улица Ключ-Камышенское Плато,630114,54.9882704,83.0432137
14/1,улица Ключ-Камышенское Плато,630114,54.9882288,83.0432647
14/1,улица Ключ-Камышенское Плато,630114,54.9882244,83.0433229
7/1,улица Ключ-Камышенское Плато,630114,54.9870036,83.0409886
150/1,1-я Чулымская улица,630029,55.0141787,82.8856337
158,1-я Чулымская улица,630029,55.0150169,82.8869386
19,2-я Шоссейная улица,630029,55.0069237,82.9012401
6А,Чулымская улица,630029,55.0094186,82.9093029
56,1-я Чулымская улица,630029,55.0108951,82.9013313
34,улица Ключ-Камышенское Плато,630114,54.9882938,83.0488506
14,улица Ключ-Камышенское Плато,630114,54.9883901,83.0465259
27/1,Заречная улица,630030,54.9797475,83.0559912
122/3,Выборная улица,630126,55.0001772,83.0122487
122/3,Выборная улица,630126,55.0000843,83.0120635
2А,улица Ключ-Камышенское Плато,630114,54.9857377,83.0383016
117/3,Выборная улица,630126,55.0031375,83.0187003
13,улица Ключ-Камышенское Плато,630114,54.9896548,83.0406670
64/1,Советская улица,630091,55.0488800,82.9121710
32/1,улица Бронная,630022,54.9436614,82.9647227
122/3,Выборная улица,630126,54.9999698,83.0123872
274,улица Дуси Ковальчук,630049,55.0583159,82.9161710
191,улица Зорге,630106,54.9351862,82.9162707
191,улица Зорге,630106,54.9352124,82.9156926
179,улица Зорге,630119,54.9347650,82.9207039
38А,улица Петухова,630088,54.9406395,82.9039993
41А,Русская улица,630058,54.8483849,83.0566101
32,улица Сибиряков-Гвардейцев,630048,54.9766451,82.8962620
9,Кавалерийская улица,630105,55.0578841,82.9211938
80,Тульская улица,630087,54.9783573,82.9177034
80,Тульская улица,630087,54.9776494,82.9164928
147/3,улица Немировича-Данченко,630087,54.9811795,82.9124774
1А,улица Зорге,630088,54.9382896,82.8988342
22,улица Ключ-Камышенское Плато,630114,54.9846482,83.0417585
122/3,Выборная улица,630126,55.0000848,83.0119820
122/3,Выборная улица,630126,55.0000553,83.0119770
122/3,Выборная улица,630126,55.0001460,83.0120245
122/3,Выборная улица,630126,55.0001196,83.0121865
122/3,Выборная улица,630126,55.0000631,83.0121248
122/3,Выборная улица,630126,55.0001196,83.0121017
122/3,Выборная улица,630126,55.0000313,83.0121248
14,улица Ключ-Камышенское Плато,630114,54.9883053,83.0459862
7А,улица Александра Чистякова,630022,54.9460938,82.9632944
18,Вилюйская улица,630126,54.9991601,83.0068912
18,Вилюйская улица,630126,54.9992944,83.0068000
60,2-я улица Марата,630030,54.9798000,83.0587758
60,2-я улица Марата,630030,54.9797861,83.0588526
60,2-я улица Марата,630030,54.9797833,83.0586380
60,2-я улица Марата,630030,54.9798598,83.0589875
60,2-я улица Марата,630030,54.9798717,83.0590556
60,2-я улица Марата,630030,54.9798322,83.0591313
122/3,Выборная улица,630126,55.0000650,83.0122568
122/3,Выборная улица,630126,55.0000204,83.0122889
122/3,Выборная улица,630126,54.9999935,83.0121776
122/3,Выборная улица,630126,55.0000173,83.0122071
122/3,Выборная улица,630126,54.9999996,83.0121374
7,проспект Димитрова,630132,55.0344929,82.9114643
2,Бердское шоссе,630025,54.9703324,83.0376054
25/1,улица Пирогова,630090,54.8490131,83.0904555
271В,улица Ключ-Камышенское Плато,630114,54.9893866,83.0392082
271В/2,Пролетарская улица,630114,54.9896845,83.0393354
60,2-я улица Марата,630030,54.9798215,83.0589258
14,улица Ключ-Камышенское Плато,630114,54.9876914,83.0461788
14,улица Ключ-Камышенское Плато,630114,54.9874929,83.0459910
14,улица Ключ-Камышенское Плато,630114,54.9875498,83.0460500
271/3,Пролетарская улица,630114,54.9900632,83.0384549
45,Первомайская улица,630046,54.9720985,83.0802259
29,улица Ватутина,630064,54.9831892,82.8971100
18,Вилюйская улица,630126,55.0001037,83.0094657
"271В, пом. 3",Пролетарская улица,630114,54.9894761,83.0391633
"271В, пом. 10",Пролетарская улица,630114,54.9890983,83.0389128
"271В, пом. 9",Пролетарская улица,630114,54.9891016,83.0390284
"271В, пом. 8",Пролетарская улица,630114,54.9891532,83.0391425
28,улица Восход,630102,55.0139915,82.9443738
71,улица Мира,630033,54.9612788,82.9362755
9А,Бердский тупик,630058,54.8360786,83.0491409
18,улица Ленина,630004,55.0296238,82.9119419
19,проспект Строителей,630055,54.8599006,83.0852705
7/1,Лесосечная улица,630060,54.8910002,83.0909144
260,Большая улица,630032,55.0072600,82.8770646
44А,2-я Станционная улица,630041,55.0133667,82.8073959
48,2-я Станционная улица,630041,55.0147250,82.8047051
15,улица Челюскинцев,630132,55.0393179,82.9036201
2/2,Лесосечная улица,630060,54.8895640,83.0767242
2 к4,Лесосечная улица,630060,54.8896505,83.0769217
"271В, пом. 1",Пролетарская улица,630114,54.9895404,83.0390299
"271В, пом. 11",Пролетарская улица,630114,54.9893386,83.0390616
"1/1, 2 этаж",улица Ключ-Камышенское Плато,630114,54.9808941,83.0350218
"1/1, 1 этаж",улица Ключ-Камышенское Плато,630114,54.9807624,83.0350607
290,Большевистская улица,630028,54.9767405,83.0244728
"271В, пом. 7",Пролетарская улица,630114,54.9892140,83.0391392
7/1,улица Ключ-Камышенское Плато,630114,54.9869954,83.0410243
37,улица Иванова,630117,54.8704998,83.0969046
"271В, пом. 12",Пролетарская улица,630114,54.9893619,83.0389984
"271В, пом. 13",Пролетарская улица,630114,54.9894185,83.0389964
79,улица Максима Горького,630099,55.0279012,82.9268484
87,улица Петухова,630000,54.9404882,82.9341242
"271В, пом. 4",Пролетарская улица,630114,54.9894386,83.0391709
"271В, пом. 2",Пролетарская улица,630114,54.9895603,83.0391601
15 к3,Кривощёковская улица,630007,55.0163078,82.9295807
21,Троллейная улица,630034,54.9846977,82.8586586
271В/2,Пролетарская улица,630114,54.9895951,83.0393521
10А,Беловежская улица,630024,54.9649200,82.8949051
7,проспект Димитрова,630004,55.0349801,82.9117852
13,улица Гоголя,630091,55.0440507,82.9233613
37,Красный проспект,630091,55.0344240,82.9188322
156,улица Немировича-Данченко,630087,54.9914431,82.9144191
"271В/1, пом. 001А",Пролетарская улица,630114,54.9891555,83.0393423
"271В/1, пом. 001",Пролетарская улица,630114,54.9892090,83.0393412
"271В, пом. 14-15",Пролетарская улица,630114,54.9894574,83.0390054
"3, 4 этаж, 44 офис",Каменская улица,630099,55.0260804,82.9283838
271В/2,Пролетарская улица,630114,54.9895744,83.0393587
2,площадь Карла Маркса,630087,54.9836631,82.8923297
40,улица Сибиряков-Гвардейцев,630048,54.9730925,82.8969339
130А,Троллейная улица,630107,54.9670746,82.8517114
83,улица Ватутина,630087,54.9762819,82.9102169
47,Первомайская улица,630046,54.9722060,83.0797681
34,Большевистская улица,630083,54.9980609,82.9611559
38/1,Выставочная улица,630073,54.9922333,82.8995350
80,Тульская улица,630087,54.9784171,82.9175711
122/3,улица Немировича-Данченко,630087,54.9783654,82.9138791
118/1,улица Немировича-Данченко,630048,54.9727192,82.9029436
30,улица Сибиряков-Гвардейцев,630048,54.9774340,82.8964626
150,улица Немировича-Данченко,630087,54.9909420,82.9141221
156,улица Немировича-Данченко,630087,54.9912669,82.9143470
271В/1,Пролетарская улица,630114,54.9893067,83.0393391
"271В, пом.5",Пролетарская улица,630114,54.9893134,83.0391359
271В/1,Пролетарская улица,630114,54.9894691,83.0393403
5А,улица Ключ-Камышенское Плато,630114,54.9885996,83.0395512
15/1,Красный проспект,630099,55.0257746,82.9211413
15/1,Красный проспект,630099,55.0257714,82.9210055
271В/1,Пролетарская улица,630114,54.9892568,83.0393334
271В,Пролетарская улица,630114,54.9893476,83.0391618
14/1,улица Ключ-Камышенское Плато,630114,54.9882712,83.0445005
55,Первомайская улица,630030,54.9763145,83.0437326
55,Первомайская улица,630030,54.9763169,83.0439835
55,Первомайская улица,630030,54.9763244,83.0434417
55,Первомайская улица,630030,54.9762760,83.0435174
55,Первомайская улица,630030,54.9763346,83.0440920
"55, 16 офис",Первомайская улица,630030,54.9763066,83.0434662
55,Первомайская улица,630030,54.9762518,83.0435542
55,Первомайская улица,630030,54.9763475,83.0439229
55,Первомайская улица,630030,54.9762970,83.0437886
55,Первомайская улица,630030,54.9762204,83.0435709
23,Каменская улица,630099,55.0323814,82.9276512
250,улица Дуси Ковальчук,630082,55.0558324,82.9037145
9А,Восточный посёлок,630108,54.9999350,82.8672451
23,Геодезическая улица,630087,54.9866489,82.9113623
23/2,Новогодняя улица,630087,54.9873255,82.9119253
7/1,улица Ключ-Камышенское Плато,630114,54.9869638,83.0408317
"271В, пом.7",Пролетарская улица,630114,54.9892744,83.0391591
5А,улица Ключ-Камышенское Плато,630114,54.9886079,83.0394916
12/1,Рябиновая улица,630126,55.0021635,83.0286073
107,улица Ватутина,630024,54.9634861,82.9357937
5,Вокзальная магистраль,630004,55.0342977,82.9048567
179/4,улица Дуси Ковальчук,630082,55.0605383,82.9138794
101,Красный проспект,630049,55.0560345,82.9120751
1,улица Курчатова,630129,55.1042683,82.9601671
2/2,проспект Дзержинского,630112,55.0466122,82.9574803
44,3-й Бронный переулок,630022,54.9450279,82.9591686
44,3-й Бронный переулок,630022,54.9449277,82.9592169
44,3-й Бронный переулок,630022,54.9449324,82.9590989
44,3-й Бронный переулок,630022,54.9450140,82.9590935
44,3-й Бронный переулок,630022,54.9450032,82.9591954
11/3,улица Ватутина,630078,54.9882549,82.8878685
5А,улица Николая Грицюка,630088,54.9366813,82.8449675
11/3,улица Ватутина,630078,54.9884123,82.8876084
11/3,улица Ватутина,630078,54.9883524,82.8877093
57,10-й Бронный переулок,630022,54.9452751,82.9517472
57,10-й Бронный переулок,630022,54.9453026,82.9517075
80,Тульская улица,630087,54.9783409,82.9167582
2,Инская улица,630102,55.0127906,82.9279910
13,Мошковский переулок,630901,55.1639269,82.9849564
26 к2,улица 9-й Гвардейской Дивизии,630045,54.9698944,82.8437344
26 к2,улица 9-й Гвардейской Дивизии,630045,54.9699791,82.8439436
52к1,улица Объединения,630029,55.0939481,82.9587262
42,Советская улица,630132,55.0396017,82.9140188
1А,улица Пришвина,630068,54.9376583,83.1197083
1А,улица Пришвина,630068,54.9375368,83.1195213
4,переулок Твардовского,630068,54.9331890,83.1252094
4,переулок Твардовского,630068,54.9331798,83.1254132
4,переулок Твардовского,630068,54.9331181,83.1254830
4,переулок Твардовского,630068,54.9330534,83.1254508
101,Сухарная улица,630001,55.0473886,82.8609894
12А,улица Александра Невского,630075,55.0757949,82.9499352
12А,улица Александра Невского,630075,55.0757252,82.9500444
12А,улица Александра Невского,630075,55.0756292,82.9499034
80,Тульская улица,630087,54.9783765,82.9165931
35,Большевистская улица,630102,55.0106988,82.9311159
35,Большевистская улица,630102,55.0107771,82.9312714
35,Большевистская улица,630102,55.0106772,82.9311690
23/2,Новогодняя улица,630064,54.9873408,82.9117825
54,Морской проспект,630090,54.8350998,83.0971266
6,улица Ильича,630090,54.8390909,83.0960710
33/1,Золотодолинская улица,630090,54.8315774,83.1055807
5 корп. 1,улица Авиастроителей,630084,55.0712056,82.9694864
5 корп. 1,улица Авиастроителей,630084,55.0711586,82.9694868
2 к2,Железнодорожная,630132,55.0413853,82.8939456
12,улица Терешковой,630090,54.8416099,83.1021646
4,улица Кузьмы Минина,630047,55.0720424,82.9356401
1\1,проспект Дзержинского,630112,55.0435442,82.9494436
156,улица Немировича-Данченко,630087,54.9914278,82.9140984
156,улица Немировича-Данченко,630087,54.9914191,82.9141435
158,Выборная улица,630126,55.0036479,83.0283193
1,Каменская улица,630007,55.0252830,82.9282735
15,улица Восход,630200,55.0174157,82.9473771
17А,Красный проспект,630099,55.0265203,82.9214571
50,Светлановская улица,630047,55.0817435,82.9328575
9,проезд Энергетиков,630108,55.0091399,82.8773641
38,улица Федосеева,630017,55.0304362,82.9745631
194/5,улица Бориса Богаткова,630017,55.0302861,82.9718144
194/9,улица Бориса Богаткова,630017,55.0298281,82.9722781
220,улица Бориса Богаткова,630089,55.0344559,82.9777352
163/5,улица Бориса Богаткова,630017,55.0326961,82.9668802
10,улица Стофато,630039,55.0312832,82.9778071
250,улица Бориса Богаткова,630089,55.0379623,82.9793504
47/1,улица Кошурникова,630089,55.0375354,82.9804599
49,улица Кошурникова,630089,55.0368592,82.9806184
51,улица Кошурникова,630089,55.0365482,82.9811183
53,улица Кошурникова,630089,55.0362324,82.9815797
254,улица Бориса Богаткова,630089,55.0384468,82.9808245
256,улица Бориса Богаткова,630089,55.0387815,82.9812656
258,улица Бориса Богаткова,630089,55.0391605,82.9817537
260,улица Бориса Богаткова,630089,55.0395030,82.9822054
197/1,улица Бориса Богаткова,630089,55.0363330,82.9725212
2,Лазурная улица,630133,55.0329527,83.0054455
6,Лазурная улица,630133,55.0320432,83.0061211
187,улица Бориса Богаткова,630017,55.0361192,82.9673844
189,улица Бориса Богаткова,630089,55.0370458,82.9668429
1А,улица Федосеева,630089,55.0371859,82.9706185
217/1,улица Бориса Богаткова,630089,55.0382431,82.9741666
55,улица Кошурникова,630089,55.0369285,82.9832087
57,улица Кошурникова,630089,55.0366419,82.9836585
28/1,улица Адриена Лежена,630089,55.0376673,82.9846442
30/1,улица Адриена Лежена,630089,55.0373594,82.9850962
28,улица Адриена Лежена,630089,55.0383138,82.9859771
30,улица Адриена Лежена,630089,55.0380340,82.9864197
24,улица Адриена Лежена,630089,55.0390450,82.9852142
26,улица Адриена Лежена,630089,55.0387160,82.9856909
7/2,улица Адриена Лежена,630089,55.0395611,82.9877517
31,улица Высоцкого,630133,55.0317249,83.0196684
10,Лазурная улица,630133,55.0326420,83.0099345
14,Лазурная улица,630133,55.0336396,83.0124189
22,Лазурная улица,630133,55.0333428,83.0166177
3,улица Высоцкого,630133,55.0308237,83.0109834
5,улица Высоцкого,630133,55.0315577,83.0108617
13,улица Высоцкого,630133,55.0307081,83.0133315
15,улица Высоцкого,630133,55.0313649,83.0138689
16/1,улица Куприна,630124,55.0403999,82.9927231
51,улица Есенина,630124,55.0399034,82.9907452
33,улица Есенина,630124,55.0454387,82.9874588
29,улица Есенина,630124,55.0474139,82.9878752
10,улица Есенина,630124,55.0493202,82.9879428
241/1,улица Бориса Богаткова,630089,55.0399403,82.9780200
194/9,улица Бориса Богаткова,630017,55.0285487,82.9744233
9,улица Стофато,630039,55.0305218,82.9774359
56/1,Каменская улица,630099,55.0360025,82.9284947
18,Советская улица,630099,55.0303619,82.9167591
29,Красный проспект,630099,55.0313703,82.9193399
11,улица Стофато,630039,55.0316801,82.9788626
13,улица Стофато,630039,55.0322341,82.9793749
15,улица Стофато,630039,55.0328406,82.9794346
17,улица Стофато,630039,55.0331989,82.9801042
18,улица Стофато,630039,55.0328066,82.9799620
12А,улица Стофато,630039,55.0319344,82.9808580
233,улица Добролюбова,630039,55.0309624,82.9825925
19,улица Стофато,630039,55.0334785,82.9806769
21,улица Стофато,630039,55.0336518,82.9810300
23,улица Стофато,630039,55.0338330,82.9813792
25,улица Стофато,630039,55.0340236,82.9817349
41,улица Гаранина,630039,55.0257053,82.9725082
61А,улица Кошурникова,630039,55.0340945,82.9849387
37А,Серебренниковская улица,630099,55.0289667,82.9245015
34,улица Шевченко,630008,55.0233953,82.9421294
6,улица Белинского,630008,55.0226646,82.9435336
3,улица Толстого,630008,55.0220545,82.9410644
3/1,улица Толстого,630008,55.0224443,82.9410797
1А,улица Белинского,630008,55.0232103,82.9428190
3,улица Белинского,630008,55.0240110,82.9445579
84,улица Тургенева,630008,55.0200281,82.9485144
9,Потанинская улица,630091,55.0342856,82.9217713
62,Красный проспект,630091,55.0393522,82.9188158
23,улица Мичурина,630091,55.0412829,82.9208002
44,Каменская улица,630099,55.0330817,82.9281725
16,Серебренниковская улица,630007,55.0231010,82.9271913
9А,улица Гоголя,630091,55.0433388,82.9185852
13,улица Достоевского,630091,55.0462862,82.9184415
26,Красный проспект,630099,55.0244286,82.9225729
50,Коммунистическая улица,630007,55.0233190,82.9243617
62,улица Щетинкина,630099,55.0284369,82.9261544
68,улица Щетинкина,630099,55.0285796,82.9281408
66,улица Щетинкина,630099,55.0284221,82.9272624
81,улица Максима Горького,630099,55.0279764,82.9272136
49,улица Щетинкина,630099,55.0290120,82.9277556
58,Депутатская улица,630099,55.0294853,82.9308553
60,Депутатская улица,630099,55.0293773,82.9321211
95,улица Максима Горького,630099,55.0286049,82.9320326
26,Каменская улица,630099,55.0290331,82.9293111
139,улица Связистов,630107,54.9652576,82.8407701
113,улица Связистов,630045,54.9681888,82.8390099
113/1,улица Связистов,630045,54.9683018,82.8396542
139/1,улица Связистов,630107,54.9645797,82.8411004
123,улица Связистов,630107,54.9672578,82.8414434
111,улица Связистов,630045,54.9686706,82.8420737
119,улица Связистов,630045,54.9680002,82.8422230
125,улица Связистов,630107,54.9674512,82.8423050
127,улица Связистов,630107,54.9668966,82.8423872
153,улица Связистов,630107,54.9630492,82.8399208
152/1,Троллейная улица,630107,54.9629621,82.8404257
154,Троллейная улица,630107,54.9628274,82.8440250
155,улица Связистов,630107,54.9635513,82.8417233
135,улица Связистов,630107,54.9659673,82.8421223
6,улица Писарева,630091,55.0479157,82.9133802
12Б,улица Мичурина,630091,55.0420023,82.9219782
41,улица Орджоникидзе,630099,55.0321455,82.9292651
37А,улица Семьи Шамшиных,630099,55.0324344,82.9307992
13,улица Державина,630091,55.0397548,82.9291397
32,улица Гоголя,630091,55.0425306,82.9281315
51/1,Каменская улица,630005,55.0460922,82.9232105
30А,улица Лермонтова,630005,55.0443858,82.9254658
87,улица Чаплыгина,630099,55.0270347,82.9268790
16,Каинская улица,630007,55.0184908,82.9263629
8Б,Каинская улица,630007,55.0181553,82.9250803
3,Колыванская улица,630007,55.0177847,82.9252399
4,Каинская улица,630007,55.0184546,82.9244934
2,Колыванская улица,630007,55.0172845,82.9251874
5,Колыванская улица,630007,55.0177699,82.9259335
7,Колыванская улица,630007,55.0177888,82.9262389
2А,Серебренниковская улица,630007,55.0152674,82.9280634
42,улица Крылова,630005,55.0412104,82.9333958
24,Красный проспект,630007,55.0239407,82.9227503
51,улица Державина,630005,55.0405458,82.9363783
64Б,улица Крылова,630005,55.0398043,82.9385362
10,улица Кошурникова,630112,55.0422446,82.9513641
33,улица Селезнёва,630112,55.0439319,82.9441802
31,улица Селезнёва,630112,55.0434425,82.9452897
89,улица Крылова,630112,55.0430552,82.9445757
29,улица Селезнёва,630112,55.0424261,82.9450190
77/4,улица Державина,630112,55.0413744,82.9438369
84,улица Некрасова,630005,55.0463630,82.9372929
35А,улица Гоголя,630005,55.0453468,82.9360853
5/1,улица Кошурникова,630112,55.0438941,82.9553518
5/2,улица Кошурникова,630112,55.0440869,82.9559544
5/3,улица Кошурникова,630112,55.0441395,82.9565821
7/1,улица Кошурникова,630112,55.0437133,82.9574137
13/2,улица Кошурникова,630112,55.0431042,82.9606539
9/1,улица Кошурникова,630112,55.0432916,82.9590156
190/1,улица Гоголя,630112,55.0441374,82.9597712
188/1,улица Гоголя,630112,55.0444842,82.9585596
184/1,улица Гоголя,630112,55.0445432,82.9558351
184,улица Гоголя,630112,55.0452553,82.9559645
186,улица Гоголя,630112,55.0450326,82.9570958
188,улица Гоголя,630112,55.0455379,82.9582312
192,улица Гоголя,630112,55.0453293,82.9601181
194,улица Гоголя,630112,55.0453960,82.9611526
66,улица Красина,630112,55.0474813,82.9613764
195,улица Гоголя,630015,55.0477322,82.9632119
59/1,улица Мира,630024,54.9646521,82.9216959
59/2,улица Мира,630024,54.9654353,82.9221091
59,улица Мира,630024,54.9660588,82.9229975
55,улица Бурденко,630024,54.9658824,82.9201506
107,улица Ватутина,630024,54.9642803,82.9362455
3,улица Аникина,630033,54.9698365,82.9566304
3,Красный проспект,630007,55.0210949,82.9217081
29,улица Сибиряков-Гвардейцев,630048,54.9720998,82.8984200
1,Обогатительная улица,630033,54.9670251,82.9518310
5,Обогатительная улица,630033,54.9660971,82.9534479
21,улица Аникина,630033,54.9676073,82.9525089
17,улица Аникина,630033,54.9680030,82.9532103
1/1,улица Урманова,630033,54.9677700,82.9590766
1,улица Мира,63024,54.9650871,82.9021173
23,Новосибирская улица,630136,54.9885256,82.8460141
19/1,Новосибирская улица,630136,54.9893328,82.8452950
25,Новосибирская улица,630136,54.9882497,82.8452491
21,Новосибирская улица,630136,54.9887980,82.8452590
15,Новосибирская улица,630136,54.9898201,82.8448583
11,Новосибирская улица,630136,54.9905274,82.8447533
7,Киевская улица,630136,54.9901468,82.8491731
9,Новосибирская улица,630136,54.9901438,82.8440011
7,Новосибирская улица,630136,54.9916125,82.8439646
20А,Троллейная улица,630136,54.9907811,82.8553982
15,Троллейная улица,630108,54.9899532,82.8586625
52,улица Котовского,630108,54.9891324,82.8595037
22,улица Котовского,630108,54.9910817,82.8661039
5/1,Вертковская улица,630047,54.9754310,82.8915549
16,Вертковская улица,630048,54.9764509,82.8874387
16,улица Котовского,630108,54.9920893,82.8688201
29,улица Титова,630054,54.9815787,82.8700071
29,улица Плахотного,630054,54.9858502,82.8748270
24,улица Титова,630054,54.9828758,82.8740367
2,улица Костычева,630054,54.9855536,82.8753194
13А,улица Станиславского,630054,54.9844435,82.8736735
6,улица Костычева,630054,54.9841350,82.8747536
4,улица Костычева,630054,54.9846741,82.8753938
10,улица Костычева,630054,54.9827866,82.8756788
8,улица Костычева,630054,54.9836314,82.8755553
8/1,улица Крашенинникова,630034,54.9830847,82.8672188
6,улица Крашенинникова,630034,54.9840710,82.8672049
51/1,улица Плахотного,630136,54.9848562,82.8614589
22,улица Титова,630054,54.9824799,82.8751071
15,улица Станиславского,630054,54.9830776,82.8723266
14,2-й переулок Крашенинникова,630054,54.9830487,82.8643929
10А,Петропавловская улица,630034,54.9823156,82.8616000
5,1-й переулок Крашенинникова,630054,54.9843479,82.8658373
12/1,2-й переулок Крашенинникова,630034,54.9830147,82.8652173
32,Большевистская улица,630083,54.9990143,82.9580516
2А,улица Аникина,630033,54.9693245,82.9540583
47,улица Ватутина,630064,54.9812950,82.9044655
51,улица Ватутина,630064,54.9809928,82.9050102
11,Новогодняя улица,630073,54.9822893,82.9021057
37,улица Ватутина,630064,54.9815074,82.9001813
14,проспект Карла Маркса,630064,54.9858260,82.9015117
23,проспект Карла Маркса,630073,54.9858331,82.9001299
16,улица Дуси Ковальчук,630001,55.0482401,82.8857728
84,Тульская улица,630087,54.9785777,82.9156479
23,Геодезическая улица,630087,54.9866603,82.9116755
9,Геодезическая улица,630073,54.9894372,82.9053487
30,проспект Карла Маркса,630087,54.9919338,82.9122454
4,Обогатительная улица,630033,54.9661441,82.9516853
13,улица Урманова,630033,54.9643237,82.9515945
11,улица Урманова,630033,54.9648590,82.9525153
6,Обогатительная улица,630033,54.9651822,82.9538317
3,Обогатительная улица,630033,54.9666785,82.9527267
12,Оловозаводская улица,630033,54.9642074,82.9537928
16,Оловозаводская улица,630033,54.9641146,82.9524664
6А,улица Чигорина,630033,54.9644500,82.9591024
8А,улица Чигорина,630033,54.9626952,82.9571732
1/4,Оловозаводская улица,630033,54.9648787,82.9581641
6,улица Чигорина,630033,54.9649848,82.9592649
1/3,Оловозаводская улица,630033,54.9640673,82.9578045
27/1,Оловозаводская улица,630033,54.9637738,82.9570219
3,Оловозаводская улица,630033,54.9637737,82.9549827
5,Оловозаводская улица,630033,54.9631767,82.9539745
7,Оловозаводская улица,630033,54.9628829,82.9544895
9,Оловозаводская улица,630033,54.9625856,82.9550488
27,Оловозаводская улица,630033,54.9635380,82.9560940
29,Оловозаводская улица,630033,54.9632208,82.9555495
31,Оловозаводская улица,630033,54.9631512,82.9565635
39,Оловозаводская улица,630033,54.9623079,82.9562021
43,Оловозаводская улица,630033,54.9617472,82.9558745
8,улица Чигорина,630033,54.9625695,82.9590788
75,улица Блюхера,630073,54.9941560,82.9038027
77,улица Блюхера,630073,54.9936383,82.9047929
5,улица Пермитина,630078,54.9914992,82.8885647
1,улица Котовского,630078,54.9922134,82.8893909
3,улица Пермитина,630078,54.9905089,82.8869171
3,улица Котовского,630073,54.9923990,82.8878857
5,улица Котовского,630078,54.9922842,82.8862670
3/1,улица Котовского,630078,54.9918573,82.8876961
5/2,улица Котовского,630078,54.9917453,82.8868681
3/1,улица Пермитина,630078,54.9907934,82.8858990
1/1,улица Пермитина,630078,54.9904273,82.8853256
3/2,улица Пермитина,630078,54.9910360,82.8866115
16А,Планировочная улица,630032,54.9946634,82.8856134
36,Выставочная улица,630073,54.9909197,82.8973495
24,улица Ватутина,630078,54.9861952,82.8905136
16,улица Ватутина,630078,54.9877160,82.8878194
9,улица Ватутина,630078,54.9862780,82.8872440
4,улица Сибиряков-Гвардейцев,630048,54.9816415,82.8890614
139,улица Немировича-Данченко,630048,54.9746533,82.9028814
139/3,улица Немировича-Данченко,630048,54.9758341,82.9000789
5/1,1-й переулок 6-й Пятилетки,630048,54.9746321,82.9008464
2,Вертковская улица,630048,54.9785521,82.9004999
30,улица Ватутина,630048,54.9797069,82.9011826
14,улица Костычева,630054,54.9813436,82.8758986
19/2,улица Станиславского,630054,54.9803915,82.8740698
19/1,улица Станиславского,630054,54.9803448,82.8734055
16/1,улица Костычева,630054,54.9804580,82.8752776
12,улица Титова,630054,54.9831475,82.8837094
4,улица Римского-Корсакова,630054,54.9841655,82.8839296
2,улица Римского-Корсакова,630054,54.9853516,82.8837728
4А,улица Римского-Корсакова,630054,54.9847003,82.8830693
16,улица Титова,630054,54.9827615,82.8810601
11,улица Плахотного,630054,54.9856185,82.8827600
44,улица Костычева,630077,54.9753914,82.8767424
28,улица Станиславского,630079,54.9755308,82.8722209
65/1,Степная улица,630079,54.9764841,82.8623676
67/1,Степная улица,630079,54.9760536,82.8624404
67,Степная улица,630079,54.9768615,82.8622874
65,Степная улица,630079,54.9771930,82.8622554
71,Степная улица,630079,54.9766133,82.8612451
41,Троллейная улица,630079,54.9767731,82.8604317
63/2,Степная улица,630079,54.9762457,82.8650870
59/2,Степная улица,630079,54.9767719,82.8654079
59/1,Степная улица,630079,54.9770448,82.8645676
63/1,Степная улица,630079,54.9765662,82.8640627
14/4,улица Немировича-Данченко,630052,54.9677382,82.8651648
20,Лазурная улица,630133,55.0326770,83.0137868
18,Лазурная улица,630133,55.0330553,83.0125344
16,Лазурная улица,630133,55.0334024,83.0114564
27,Гусинобродское шоссе,630124,55.0385205,83.0113015
19,улица Толбухина,630124,55.0408958,83.0043196
45А,Октябрьская улица,630099,55.0255643,82.9231894
52,улица Петухова,630088,54.9383427,82.9060019
16,улица Петухова,630088,54.9408633,82.8957331
87/3,Выборная улица,630126,55.0005595,83.0108093
66,улица Зорге,630106,54.9321132,82.9026996
58,улица Зорге,630106,54.9323383,82.8990098
72,улица Зорге,630106,54.9318410,82.9054996
21,улица Громова,630106,54.9324794,82.9094047
23,улица Громова,630106,54.9323759,82.9103560
78,улица Зорге,630106,54.9313320,82.9092045
80,улица Зорге,630106,54.9312286,82.9101558
22,улица Громова,630106,54.9324679,82.9071738
76,улица Зорге,630106,54.9313292,82.9069336
74,улица Зорге,630106,54.9310031,82.9049906
68,улица Зорге,630106,54.9312355,82.9021420
60,улица Зорге,630106,54.9314679,82.8992853
70,улица Зорге,630106,54.9316169,82.9039722
62,улица Зорге,630106,54.9319103,82.9005187
64,улица Зорге,630106,54.9318665,82.9011384
56,улица Зорге,630106,54.9319917,82.8977532
86,улица Зорге,630106,54.9306602,82.9095950
19,улица Зорге,630088,54.9359223,82.9019437
25,улица Зорге,630088,54.9354039,82.9025457
40,улица Зорге,630106,54.9329670,82.8993984
38,улица Зорге,630106,54.9334891,82.8987271
32,улица Зорге,630106,54.9337750,82.9031580
10,улица Зорге,630027,54.9346410,82.9030642
8,улица Зорге,630027,54.9347028,82.9019572
6,улица Зорге,630027,54.9347684,82.9008673
61,улица Сибиряков-Гвардейцев,630027,54.9335999,82.8978538
20,улица Петухова,630088,54.9393512,82.8992813
33,улица Чаплыгина,630099,55.0256055,82.9132723
6,Советская улица,630007,55.0226401,82.9187904
48,Коммунистическая улица,630007,55.0232782,82.9235252
48А,Коммунистическая улица,630007,55.0231980,82.9239205
9,улица Учёных,630090,54.8342622,83.1084508
15,Золотодолинская улица,630090,54.8356409,83.1051582
21,Золотодолинская улица,630090,54.8350373,83.1050233
23,Золотодолинская улица,630090,54.8344373,83.1048906
17,Золотодолинская улица,630090,54.8354787,83.1060684
19,Золотодолинская улица,630090,54.8354100,83.1069706
27,Золотодолинская улица,630090,54.8349694,83.1062388
25,Золотодолинская улица,630090,54.8346976,83.1056247
11,Золотодолинская улица,630090,54.8363391,83.1066622
1,Золотодолинская улица,630090,54.8378735,83.1057034
3,Золотодолинская улица,630090,54.8378533,83.1075235
5,Золотодолинская улица,630090,54.8371034,83.1073219
7,Золотодолинская улица,630090,54.8371784,83.1064415
9,Золотодолинская улица,630090,54.8371728,83.1055084
5,улица Учёных,630090,54.8343926,83.1067060
7,улица Учёных,630090,54.8339506,83.1075434
3,улица Учёных,630090,54.8341047,83.1057196
15,Морской проспект,630090,54.8390045,83.1081554
125/1,Выборная улица,630126,55.0035019,83.0206273
28,Вилюйская улица,630126,55.0003780,83.0180267
24 к1,Вилюйская улица,630126,54.9987900,83.0076077
11,Морской проспект,630090,54.8395005,83.1086538
7,Морской проспект,630090,54.8399250,83.1096041
3,Морской проспект,630090,54.8403407,83.1106372
1,Морской проспект,630090,54.8404885,83.1115498
3А,Морской проспект,630090,54.8399064,83.1104842
7А,Морской проспект,630090,54.8394764,83.1095537
34,улица Терешковой,630090,54.8398598,83.1124201
13,Морской проспект,630090,54.8387686,83.1094236
9,Морской проспект,630090,54.8391025,83.1101690
38,улица Терешковой,630090,54.8392411,83.1129830
11,Академическая улица,630090,54.8377895,83.1088234
7,Академическая улица,630090,54.8374288,83.1085555
13,Золотодолинская улица,630090,54.8362413,83.1073283
33,Сиреневая улица,630058,54.8549932,83.0456065
37,Сиреневая улица,630058,54.8548394,83.0470537
41,Сиреневая улица,630058,54.8557249,83.0475795
27,Сиреневая улица,630058,54.8542579,83.0428120
23,Сиреневая улица,630058,54.8535528,83.0421161
19,Сиреневая улица,630058,54.8538691,83.0405626
12,Шлюзовая улица,630058,54.8513399,83.0419177
6,Шлюзовая улица,630058,54.8509483,83.0405238
16,Шлюзовая улица,630058,54.8517705,83.0432373
4,Шлюзовая улица,630058,54.8503333,83.0401155
8,Шлюзовая улица,630058,54.8506742,83.0418400
18,Шлюзовая улица,630058,54.8510628,83.0431269
22,Шлюзовая улица,630058,54.8513736,83.0445404
2,Шлюзовая улица,630058,54.8499243,83.0414033
20,Шлюзовая улица,630058,54.8504864,83.0437017
3,Русская улица,630058,54.8489385,83.0427236
5,Русская улица,630058,54.8481939,83.0411622
9,Русская улица,630058,54.8468133,83.0418335
11,Русская улица,630058,54.8457870,83.0425809
11,Русская улица,630058,54.8453973,83.0434964
21,Русская улица,630058,54.8456264,83.0450050
25,Русская улица,630058,54.8458624,83.0467936
31,Русская улица,630058,54.8460982,83.0485823
13,Русская улица,630058,54.8466885,83.0437905
23,Русская улица,630058,54.8464890,83.0460772
19,Русская улица,630058,54.8460063,83.0442285
27,Русская улица,630058,54.8465967,83.0470073
29,Русская улица,630058,54.8467253,83.0479395
33,Русская улица,630058,54.8466575,83.0489257
24,Шлюзовая улица,630058,54.8521413,83.0431862
25,Сиреневая улица,630058,54.8538516,83.0430875
35,Сиреневая улица,630058,54.8546333,83.0460001
15,улица Тружеников,630058,54.8486348,83.0446024
30,Шлюзовая улица,630058,54.8516922,83.0454327
16,Русская улица,630058,54.8476719,83.0427840
26,Шлюзовая улица,630058,54.8524077,83.0445746
26А,Шлюзовая улица,630058,54.8525952,83.0454768
29,Сиреневая улица,630058,54.8547274,83.0419747
5А,улица Вахтангова,630058,54.8534692,83.0540941
3А,улица Вахтангова,630058,54.8524177,83.0538787
39,улица Вахтангова,630058,54.8527161,83.0517385
39,улица Вахтангова,630058,54.8531363,83.0517266
18А,улица Пирогова,630090,54.8478602,83.0932941
10,улица Пирогова,630090,54.8472807,83.0936361
11,улица Пирогова,630090,54.8466778,83.0939918
8,улица Тружеников,630058,54.8474054,83.0465828
37,Русская улица,630058,54.8473396,83.0516185
37,Русская улица,630058,54.8475894,83.0519809
11/1,Русская улица,630058,54.8453356,83.0428428
1Б,Русская улица,630058,54.8452929,83.0450572
35,Русская улица,630058,54.8464233,83.0517233
1/2,Оловозаводская улица,630033,54.9652878,82.9578733
32А,улица Иванова,630117,54.8682269,83.0946739
34,улица Иванова,630117,54.8685094,83.0955014
32,улица Иванова,630117,54.8689597,83.0942678
5,улица Арбузова,630117,54.8678033,83.0955029
3,улица Арбузова,630117,54.8696703,83.0991124
40,улица Иванова,630117,54.8700624,83.0986662
38,улица Иванова,630117,54.8703898,83.0982005
42,улица Иванова,630117,54.8704460,83.0999924
8,улица Арбузова,630117,54.8688249,83.1009749
30,улица Иванова,630117,54.8678029,83.0923700
28А,улица Иванова,630117,54.8671468,83.0912173
28,улица Иванова,630117,54.8676318,83.0906888
13,Российская улица,630117,54.8691387,83.0906396
15,Российская улица,630117,54.8687879,83.0899579
10,Российская улица,630117,54.8707732,83.0905099
14,Российская улица,630055,54.8699324,83.0884899
33,улица Иванова,630117,54.8702057,83.0936485
39,улица Иванова,630117,54.8709274,83.0977438
41,улица Иванова,630117,54.8713306,83.0988592
43,улица Иванова,630117,54.8717479,83.1000017
27,улица Иванова,630117,54.8686874,83.0891276
17,Российская улица,630055,54.8692973,83.0875071
19,Российская улица,630055,54.8686899,83.0875175
15,улица Иванова,630055,54.8680795,83.0875277
17,улица Иванова,630117,54.8673481,83.0878799
13,улица Иванова,630055,54.8675735,83.0862803
11,улица Иванова,630055,54.8667685,83.0861460
12,Российская улица,630055,54.8707259,83.0892760
16,улица Арбузова,630117,54.8667286,83.0975229
3,Полевая улица,630128,54.8659034,83.0992161
2,Вяземская улица,630128,54.8664082,83.1010755
8,Полевая улица,630128,54.8654324,83.1015586
1,улица Демакова,630128,54.8647220,83.1003199
6,Полевая улица,630128,54.8648263,83.1009313
8/2,Полевая улица,630128,54.8648410,83.1018756
10,Полевая улица,630128,54.8650011,83.1028544
5,улица Демакова,630128,54.8642343,83.1028734
8/1,Полевая улица,630128,54.8648472,83.1038181
12,Полевая улица,630128,54.8654286,83.1040931
14,Полевая улица,630128,54.8649816,83.1053941
9,улица Демакова,630128,54.8640570,83.1060389
18,Полевая улица,630128,54.8648118,83.1063478
20,Полевая улица,630128,54.8648134,83.1073063
16,Полевая улица,630128,54.8654064,83.1070065
22,Полевая улица,630128,54.8652809,83.1091325
13,улица Демакова,630128,54.8640377,83.1094625
17/1,улица Демакова,630128,54.8653632,83.1106880
11,Полевая улица,630128,54.8663603,83.1084443
9,Полевая улица,630128,54.8660606,83.1068191
20,улица Демакова,630128,54.8632402,83.1092919
18,улица Демакова,630128,54.8630479,83.1071104
16,улица Демакова,630128,54.8634534,83.1067111
14,улица Демакова,630128,54.8630744,83.1054044
12,улица Демакова,630128,54.8634539,83.1041302
12/1,улица Демакова,630128,54.8625642,83.1041094
10,улица Демакова,630128,54.8630801,83.1028537
8,улица Демакова,630128,54.8634633,83.1015862
6,улица Демакова,630128,54.8627319,83.1015837
2,улица Демакова,630128,54.8634630,83.0994815
2,улица Демакова,630128,54.8630449,83.0995932
2,улица Демакова,630128,54.8632600,83.0993214
3,улица Демакова,630128,54.8641721,83.1016980
3,улица Демакова,630128,54.8641292,83.1021210
7,улица Демакова,630128,54.8641441,83.1044924
7,улица Демакова,630128,54.8640685,83.1048124
11,улица Демакова,630128,54.8641415,83.1070749
30,улица Станиславского,630079,54.9731847,82.8717408
144,Троллейная улица,630107,54.9639573,82.8456762
148,Троллейная улица,630107,54.9642925,82.8444041
146,Троллейная улица,630107,54.9649859,82.8452693
142,Троллейная улица,630107,54.9632685,82.8455177
138,Троллейная улица,630107,54.9631493,82.8471665
134,Троллейная улица,630107,54.9632385,82.8481417
38,Морской проспект,630090,54.8375391,83.1026576
32,Морской проспект,630090,54.8379575,83.1036859
36,Морской проспект,630090,54.8380988,83.1023405
34,Морской проспект,630090,54.8385102,83.1032852
5А,улица Правды,630090,54.8387608,83.1014419
5,улица Правды,630090,54.8391812,83.1023821
7А,улица Правды,630090,54.8391750,83.1006346
9,улица Правды,630090,54.8397006,83.1025218
3,улица Правды,630090,54.8390919,83.1033898
30,Морской проспект,630090,54.8384599,83.1042296
40,Морской проспект,630090,54.8373876,83.1016303
7,улица Ильича,630090,54.8386347,83.0994917
3,улица Ильича,630090,54.8377711,83.1006206
1,улица Ильича,630090,54.8372421,83.1007213
5,улица Ильича,630090,54.8381138,83.0995940
28,Морской проспект,630090,54.8386121,83.1048859
4,улица Правды,630090,54.8391269,83.1042962
6,улица Правды,630090,54.8396398,83.1042489
8,улица Правды,630090,54.8400496,83.1034997
5,Детский проезд,630090,54.8392980,83.1049457
26,Морской проспект,630090,54.8388042,83.1054866
24,Морской проспект,630090,54.8391527,83.1056827
22,Морской проспект,630090,54.8391606,83.1062914
20,Морской проспект,630090,54.8394837,83.1067734
3,Детский проезд,630090,54.8395649,83.1055127
7,Детский проезд,630090,54.8401171,83.1052392
9,Детский проезд,630090,54.8401018,83.1063333
13,Детский проезд,630090,54.8410842,83.1047210
11,Детский проезд,630090,54.8407172,83.1042293
8,Детский проезд,630090,54.8413540,83.1071583
6,Детский проезд,630090,54.8408668,83.1071609
4,Детский проезд,630090,54.8401110,83.1070440
14,Морской проспект,630090,54.8403350,83.1075729
12,Морской проспект,630090,54.8405799,83.1079956
18,Морской проспект,630090,54.8396962,83.1073391
16,Морской проспект,630090,54.8399609,83.1081795
8,Морской проспект,630090,54.8407995,83.1085153
10,Морской проспект,630090,54.8403633,83.1088028
26,улица Терешковой,630090,54.8414441,83.1085296
24,улица Терешковой,630090,54.8419344,83.1088885
4,Морской проспект,630090,54.8411338,83.1092092
22,улица Терешковой,630090,54.8422686,83.1085777
12,улица Терешковой,630090,54.8409629,83.1019986
10,улица Терешковой,630090,54.8410079,83.1010070
8,улица Терешковой,630090,54.8410518,83.1000151
6,улица Терешковой,630090,54.8411000,83.0990105
4,улица Терешковой,630090,54.8419548,83.0977286
13,улица Ильича,630090,54.8399267,83.0971826
15,улица Ильича,630090,54.8404551,83.0970462
17,улица Ильича,630090,54.8410097,83.0968792
2,улица Терешковой,630090,54.8421013,83.0966783
19,улица Ильича,630090,54.8415224,83.0963814
23,улица Ильича,630090,54.8414715,83.0951189
10,улица Ильича,630090,54.8410159,83.0930242
8,улица Ильича,630090,54.8405614,83.0933930
6,Весенний проезд,630090,54.8404808,83.0916028
29,Цветной проезд,630090,54.8404105,83.0925368
27,Цветной проезд,630090,54.8398787,83.0924142
25,Цветной проезд,630090,54.8395715,83.0928211
23,Цветной проезд,630090,54.8395024,83.0937483
19,Цветной проезд,630090,54.8389786,83.0936219
17,Цветной проезд,630090,54.8386555,83.0939791
15,Цветной проезд,630090,54.8385850,83.0949738
7,Цветной проезд,630090,54.8375390,83.0963635
6,улица Ильича,630090,54.8397678,83.0945576
11,Цветной проезд,630090,54.8381182,83.0949586
13,Цветной проезд,630090,54.8377760,83.0938013
9,Цветной проезд,630090,54.8376933,83.0955261
5,Цветной проезд,630090,54.8369196,83.0951051
20,Жемчужная улица,630090,54.8376526,83.0926839
4А,Весенний проезд,630090,54.8399519,83.0902771
4,Весенний проезд,630090,54.8393544,83.0890708
28,улица Максима Горького,630099,55.0261561,82.9132484
2,Морской проспект,630090,54.8408822,83.1100922
4,Рубиновая улица,630055,54.8683288,83.0850293
6/1,проспект Академика Лаврентьева,630090,54.8511559,83.1005530
34,улица Пирогова,630090,54.8517826,83.0981578
48,улица Терешковой,630090,54.8365728,83.1158858
5,улица Челюскинцев,630132,55.0374260,82.8981884
7,проспект Димитрова,630132,55.0348717,82.9116869
3,улица Богдана Хмельницкого,630075,55.0665717,82.9351977
6,улица Менделеева,630110,55.0731218,82.9609752
11,улица 25 лет Октября,630110,55.0731665,82.9633725
28/1,улица Богдана Хмельницкого,630075,55.0719671,82.9480571
1,проспект Строителей,630055,54.8603438,83.0785575
1,улица Героев Труда,630055,54.8603101,83.0795619
27А,улица Героев Труда,630055,54.8655139,83.0791828
23,улица Героев Труда,630055,54.8650229,83.0788481
21,улица Героев Труда,630055,54.8649484,83.0797909
27,улица Героев Труда,630055,54.8660117,83.0798258
27Б,улица Героев Труда,630055,54.8662894,83.0790217
29,улица Героев Труда,630055,54.8670171,83.0788070
3,улица Иванова,630055,54.8665805,83.0817319
7,улица Иванова,630055,54.8666491,83.0828044
4,улица Иванова,630055,54.8659088,83.0827245
9,улица Иванова,630055,54.8667465,83.0841626
20,улица Героев Труда,630055,54.8670660,83.0811216
5,улица Иванова,630055,54.8672453,83.0824136
22,улица Героев Труда,630055,54.8675704,83.0810384
3,Рубиновая улица,630055,54.8676695,83.0823152
31,улица Героев Труда,630055,54.8675318,83.0791245
33,улица Героев Труда,630055,54.8680576,83.0798478
24,улица Героев Труда,630055,54.8679009,83.0808232
2,улица Героев Труда,630055,54.8603103,83.0804317
7,проспект Строителей,630055,54.8602859,83.0811789
9,проспект Строителей,630055,54.8602620,83.0819081
11,проспект Строителей,630055,54.8602461,83.0826644
13,проспект Строителей,630055,54.8602383,83.0833918
15,проспект Строителей,630055,54.8599620,83.0841549
19,проспект Строителей,630055,54.8599410,83.0851432
17,проспект Строителей,630055,54.8601473,83.0846833
15А,проспект Строителей,630055,54.8602098,83.0841164
19/1,проспект Строителей,630055,54.8604637,83.0848269
21,проспект Строителей,630055,54.8601859,83.0930431
23/2,проспект Строителей,630055,54.8611413,83.0938104
25 к2,проспект Строителей,630055,54.8598567,83.0966222
25 к1,проспект Строителей,630055,54.8598678,83.0970627
9,улица Лыкова,630055,54.8618796,83.0847309
25,проспект Строителей,630055,54.8615628,83.0973238
31/1,улица Иванова,630117,54.8694796,83.0922714
31/6,улица Иванова,630117,54.8694631,83.0931494
29,улица Иванова,630117,54.8684714,83.0910517
13А,Российская улица,630117,54.8694123,83.0896650
33А,улица Иванова,630117,54.8711226,83.0926494
35А,улица Иванова,630117,54.8716589,83.0932220
2,Шатурская улица,630055,54.8716386,83.0866403
12,улица Гнесиных,630055,54.8711307,83.0882458
10,улица Гнесиных,630055,54.8704719,83.0882399
1,Шатурская улица,630055,54.8711931,83.0866696
3,Шатурская улица,630055,54.8711927,83.0854615
5,Шатурская улица,630055,54.8711847,83.0846681
7,Истринская улица,630055,54.8708762,83.0859045
11,улица Гнесиных,630055,54.8708952,83.0870858
9,улица Гнесиных,630055,54.8702398,83.0870784
5,Истринская улица,630055,54.8702533,83.0859131
16,Российская улица,630055,54.8699147,83.0866725
18,Российская улица,630055,54.8699138,83.0855406
20,Российская улица,630055,54.8699015,83.0846729
18,Рубиновая улица,630055,54.8702090,83.0842197
20,Рубиновая улица,630055,54.8708314,83.0842138
7,Шатурская улица,630055,54.8709469,83.0827049
26,Российская улица,630055,54.8703567,83.0815006
28,Российская улица,630055,54.8703562,83.0807032
9,Шатурская улица,630055,54.8711459,83.0805744
37,улица Героев Труда,630055,54.8703573,83.0797760
11,Рубиновая улица,630055,54.8690575,83.0835660
35,Российская улица,630055,54.8693555,83.0831129
30,улица Героев Труда,630055,54.8692474,83.0807457
9,Рубиновая улица,630055,54.8686600,83.0835444
28,улица Героев Труда,630055,54.8688108,83.0807589
26,улица Героев Труда,630055,54.8683484,83.0807765
5,Рубиновая улица,630055,54.8681137,83.0817142
1,Рубиновая улица,630055,54.8681291,83.0828628
7,Рубиновая улица,630055,54.8680068,83.0835537
39,Российская улица,630055,54.8687532,83.0822377
41,Российская улица,630055,54.8690355,83.0817212
35,улица Героев Труда,630055,54.8689239,83.0797864
54 к2,Разъездная улица,630055,54.8692738,83.0777347
54,Разъездная улица,630055,54.8685135,83.0776162
54А,Разъездная улица,630055,54.8673742,83.0765134
17,Речкуновская улица,630055,54.8677797,83.0715934
7/1,Полевая улица,630128,54.8659302,83.1054512
11,проспект Академика Лаврентьева,630090,54.8487375,83.1109899
15,Речкуновская улица,630055,54.8678788,83.0733249
6А,улица Демакова,630128,54.8619980,83.1017430
15,улица Демакова,630117,54.8647150,83.1087046
10,улица Арбузова,630117,54.8683895,83.0995808
12,улица Арбузова,630117,54.8679803,83.0992308
44,улица Иванова,630117,54.8712265,83.1015217
1/1,улица Арбузова,630117,54.8717181,83.1037357
1/1 к14,улица Арбузова,630117,54.8723786,83.1038538
1/1 к4,улица Арбузова,630117,54.8720373,83.1030327
1/1,улица Арбузова,630117,54.8719007,83.1032115
1/1,улица Арбузова,630117,54.8716350,83.1049847
1/1,улица Арбузова,630117,54.8713762,83.1040242
4А,Вяземская улица,630117,54.8676252,83.1056468
7,Полевая улица,630117,54.8666516,83.1058236
25/1,улица Пирогова,630090,54.8489946,83.0904574
25/2,улица Пирогова,630090,54.8498230,83.0899509
25/3,улица Пирогова,630090,54.8507044,83.0901984
25 к1,улица Пирогова,630090,54.8503074,83.0887471
25/4,улица Пирогова,630090,54.8519715,83.0914573
25/5,улица Пирогова,630090,54.8516009,83.0900818
25/6,улица Пирогова,630090,54.8520195,83.0902461
25/7,улица Пирогова,630090,54.8529326,83.0911708
3,Лесосечная улица,630060,54.8894084,83.0842318
3/1,Лесосечная улица,630060,54.8897635,83.0852935
5,Лесосечная улица,630060,54.8896445,83.0869417
5/1,Лесосечная улица,630060,54.8902266,83.0881670
7,Лесосечная улица,630060,54.8902896,83.0897827
23А,Новоуральская улица,630900,55.1766778,82.9574511
27/1 к2,Новоуральская улица,630900,55.1767293,82.9546135
27/3,Новоуральская улица,630900,55.1774604,82.9554008
25А,Новоуральская улица,630900,55.1769262,82.9567830
23,Морской проспект,630090,54.8356918,83.1014185
20,улица Терешковой,630090,54.8427456,83.1084706
18,улица Терешковой,630090,54.8429718,83.1080178
30,Жемчужная улица,630090,54.8387498,83.0898397
32,Жемчужная улица,630090,54.8387465,83.0887711
6,Жемчужная улица,630090,54.8355441,83.0939013
8,Жемчужная улица,630090,54.8360338,83.0946676
10,Жемчужная улица,630090,54.8355724,83.0929954
62,Морской проспект,630090,54.8343584,83.0954318
64,Морской проспект,630090,54.8349159,83.0947316
48,Морской проспект,630090,54.8356672,83.0983818
4,Жемчужная улица,630090,54.8349831,83.0937639
2,Жемчужная улица,630090,54.8343801,83.0945592
14,Жемчужная улица,630090,54.8364757,83.0940945
12,Жемчужная улица,630090,54.8360574,83.0931574
58,Морской проспект,630090,54.8347829,83.0963594
60,Морской проспект,630090,54.8352232,83.0957696
56,Морской проспект,630090,54.8352970,83.0965938
3,Цветной проезд,630090,54.8365125,83.0956308
1,Цветной проезд,630090,54.8369399,83.0971517
52,Морской проспект,630090,54.8356778,83.0974482
44,Морской проспект,630090,54.8360857,83.0993244
46,Морской проспект,630090,54.8365947,83.0985795
42,Морской проспект,630090,54.8365631,83.0995134
50,Морской проспект,630090,54.8361090,83.0977885
28,улица Терешковой,630090,54.8417110,83.1093711
9,улица Ильича,630090,54.8390583,83.0983399
11,улица Ильича,630090,54.8395888,83.0982164
25,Морской проспект,630090,54.8347514,83.0989002
25,Морской проспект,630090,54.8342854,83.0994681
27,Морской проспект,630090,54.8347519,83.0979248
29,Морской проспект,630090,54.8343208,83.0969376
31,Морской проспект,630090,54.8339054,83.0960056
33,Морской проспект,630090,54.8334318,83.0958134
6,Золотодолинская улица,630090,54.8324662,83.1031953
4,Золотодолинская улица,630090,54.8331764,83.1034105
5,Академическая улица,630090,54.8360972,83.1087102
3,Академическая улица,630090,54.8356996,83.1086079
9,Академическая улица,630090,54.8360421,83.1104397
9/1,Академическая улица,630090,54.8364340,83.1101061
1,Экваторная улица,630060,54.8872644,83.0965432
4,Экваторная улица,630060,54.8873366,83.0992716
11,Экваторная улица,630060,54.8878297,83.1032395
15,Экваторная улица,630060,54.8866133,83.1004920
3,Экваторная улица,630060,54.8870282,83.0978520
20,Экваторная улица,630060,54.8859525,83.1001289
13,Экваторная улица,630060,54.8873100,83.1016478
12,Экваторная улица,630060,54.8874298,83.1027577
18,Экваторная улица,630060,54.8858230,83.1029973
14,Экваторная улица,630060,54.8856732,83.1040539
16,Экваторная улица,630060,54.8867846,83.1038669
1А,Экваторная улица,630060,54.8878926,83.1005164
2,Экваторная улица,630060,54.8878015,83.0980886
8,Экваторная улица,630060,54.8884871,83.1006186
10,Экваторная улица,630060,54.8881820,83.1019049
99А,улица Солидарности,630095,55.1516034,82.9547286
84,улица Солидарности,630095,55.1567272,82.9531663
70,улица Солидарности,630095,55.1541226,82.9575629
65А,улица Солидарности,630095,55.1557734,82.9581501
57,улица Солидарности,630095,55.1569775,82.9625494
59,улица Солидарности,630095,55.1566015,82.9618673
63,улица Солидарности,630095,55.1568031,82.9602504
79,улица Солидарности,630095,55.1593105,82.9579694
81,улица Солидарности,630095,55.1596100,82.9574541
77/1,улица Лейтенанта Амосова,630095,55.1604312,82.9573703
79/1,улица Лейтенанта Амосова,630095,55.1607877,82.9570532
85,улица Солидарности,630095,55.1539552,82.9538476
83,улица Солидарности,630095,55.1542801,82.9533247
88,улица Солидарности,630095,55.1562650,82.9522777
99,улица Солидарности,630095,55.1522947,82.9550596
93А,улица Солидарности,630095,55.1522806,82.9530055
97,улица Солидарности,630095,55.1529304,82.9539966
95,улица Солидарности,630095,55.1528909,82.9526460
89,улица Солидарности,630095,55.1533608,82.9548999
89,улица Солидарности,630095,55.1529541,82.9547535
97А,улица Солидарности,630095,55.1521807,82.9543234
95А,улица Солидарности,630095,55.1520301,82.9535488
93,улица Солидарности,630095,55.1532355,82.9535032
91,улица Солидарности,630095,55.1535703,82.9529728
87,улица Солидарности,630095,55.1536417,82.9543627
92,улица Солидарности,630095,55.1556766,82.9533203
94,улица Солидарности,630095,55.1553631,82.9538348
78,улица Солидарности,630095,55.1557737,82.9547262
76,улица Солидарности,630095,55.1553542,82.9552054
96,улица Солидарности,630095,55.1550502,82.9543752
90,улица Солидарности,630095,55.1559611,82.9527700
82,улица Солидарности,630095,55.1564000,82.9536867
80,улица Солидарности,630095,55.1560829,82.9541968
74,улица Солидарности,630095,55.1549916,82.9557777
72,улица Солидарности,630095,55.1546288,82.9562639
81А,улица Солидарности,630095,55.1588263,82.9566953
63А,улица Солидарности,630095,55.1547707,82.9591665
61А,улица Солидарности,630095,55.1555039,82.9603885
61,улица Солидарности,630095,55.1562439,82.9612039
55,улица Лейтенанта Амосова,630095,55.1575835,82.9631292
69,улица Лейтенанта Амосова,630095,55.1594767,82.9598285
73,улица Лейтенанта Амосова,630095,55.1597665,82.9593111
62,улица Лейтенанта Амосова,630095,55.1596506,82.9625288
65,улица Солидарности,630095,55.1575376,82.9609902
67,улица Лейтенанта Амосова,630095,55.1581254,82.9620582
65А/1,улица Солидарности,630095,55.1585969,82.9619232
67А,улица Лейтенанта Амосова,630095,55.1593480,82.9606599
71,улица Солидарности,630095,55.1588386,82.9587156
75,улица Лейтенанта Амосова,630095,55.1600670,82.9587925
77,улица Лейтенанта Амосова,630095,55.1603841,82.9582999
66,улица Лейтенанта Амосова,630095,55.1604798,82.9607468
68,улица Лейтенанта Амосова,630095,55.1608574,82.9601296
53,улица Лейтенанта Амосова,630095,55.1571964,82.9637135
60,улица Лейтенанта Амосова,630095,55.1586993,82.9637153
58,улица Лейтенанта Амосова,630095,55.1582871,82.9644847
64,улица Лейтенанта Амосова,630095,55.1597820,82.9615860
79/2,улица Солидарности,630095,55.1626173,82.9562677
17,улица Демакова,630128,54.8646032,83.1104174
31,проспект Карла Маркса,630064,54.9873699,82.8997014
15,Владимировская улица,630003,55.0368948,82.8886717
1,Владимировская улица,630003,55.0315893,82.8921874
55,Фабричная улица,630061,55.0230304,82.9034831
6А,Ветлужская улица,630056,54.8525775,82.9765061
6,Ветлужская улица,630056,54.8524452,82.9756012
8,Ветлужская улица,630056,54.8526997,82.9749597
12,Ветлужская улица,630056,54.8528584,82.9759969
14,Ветлужская улица,630056,54.8533367,82.9758537
10,Ветлужская улица,630056,54.8532250,82.9745614
4,Ветлужская улица,630056,54.8522607,82.9769439
4,Новоморская улица,630056,54.8517420,82.9774130
2,Новоморская улица,630056,54.8521401,82.9777249
2,Ветлужская улица,630056,54.8515825,82.9766973
33,Приморская улица,630098,54.8606047,82.9894705
17,Приморская улица,630056,54.8576037,82.9850470
19,Приморская улица,630056,54.8579038,82.9857038
9,Приморская улица,630056,54.8566573,82.9831344
43,улица Орджоникидзе,630099,55.0321284,82.9304198
2,улица Академика Ржанова,630090,54.8458491,83.1141431
16,проспект Академика Лаврентьева,630090,54.8438773,83.1108725
5/3,улица Мухачёва,630056,54.8490740,82.9689350
22,Ветлужская улица,630056,54.8549618,82.9723288
20,Ветлужская улица,630056,54.8547040,82.9718676
24,Ветлужская улица,630056,54.8548625,82.9745217
1А,Софийская улица,630056,54.8546074,82.9756978
1,Софийская улица,630056,54.8543459,82.9747392
9,Ветлужская улица,630056,54.8524486,82.9745017
2,Красноуфимская улица,630056,54.8519429,82.9748999
6,Красноуфимская улица,630056,54.8514588,82.9737474
5,Софийская улица,630056,54.8522315,82.9726589
4,Красноуфимская улица,630056,54.8519437,82.9738009
7,Софийская улица,630056,54.8517103,82.9717262
9,Софийская улица,630056,54.8511779,82.9707503
11,Софийская улица,630056,54.8506817,82.9697699
8,Софийская улица,630056,54.8532095,82.9712300
18,Ветлужская улица,630056,54.8543817,82.9732331
16,Ветлужская улица,630056,54.8540507,82.9729182
19,Ветлужская улица,630056,54.8544842,82.9712526
17,Ветлужская улица,630056,54.8541872,82.9717289
15,Ветлужская улица,630056,54.8539248,82.9721629
13,Ветлужская улица,630056,54.8535170,82.9728173
2,Софийская улица,630056,54.8530430,82.9730041
4,Софийская улица,630056,54.8526119,82.9722033
6,Софийская улица,630056,54.8529116,82.9717280
10,Софийская улица,630056,54.8536185,82.9708970
4,Софийская улица,630056,54.8527377,82.9736228
3,Ветлужская улица,630056,54.8514954,82.9760462
11,улица Динамовцев,630098,54.8624119,82.9801537
32,Ветлужская улица,630056,54.8572790,82.9705950
30,Ветлужская улица,630056,54.8568250,82.9719988
22А,Ветлужская улица,630056,54.8564953,82.9709882
28,Ветлужская улица,630056,54.8555003,82.9739560
26,Ветлужская улица,630056,54.8551530,82.9731112
22Б,Ветлужская улица,630056,54.8556640,82.9710438
54,Гидромонтажная улица,630098,54.8628974,82.9784632
23,Барьерная улица,630098,54.8635484,82.9784912
1,Барьерная улица,630098,54.8631717,82.9897012
3,Барьерная улица,630098,54.8629198,82.9888893
5,Барьерная улица,630098,54.8627956,82.9881324
7,Барьерная улица,630098,54.8626428,82.9873712
9,Барьерная улица,630098,54.8629761,82.9859361
19,Барьерная улица,630098,54.8631807,82.9811901
17,Барьерная улица,630098,54.8631634,82.9819914
7,улица Динамовцев,630098,54.8623554,82.9838599
15,Барьерная улица,630098,54.8628510,82.9837017
9,улица Динамовцев,630098,54.8623869,82.9820166
13,Барьерная улица,630098,54.8632355,82.9837304
11,Барьерная улица,630098,54.8636276,82.9837304
21,Барьерная улица,630098,54.8633911,82.9800635
1,улица Динамовцев,630098,54.8621438,82.9895841
3,улица Динамовцев,630098,54.8617669,82.9885926
5,улица Динамовцев,630098,54.8621064,82.9858450
17,Часовая улица,630098,54.8651071,82.9834118
15,Часовая улица,630098,54.8650954,82.9841182
30,улица Пирогова,630090,54.8553796,83.0960592
200,улица Чехова,630008,55.0111293,82.9671487
184,Ленинградская улица,630008,55.0095615,82.9659604
119,Зыряновская улица,630102,55.0094000,82.9430419
24,улица Бориса Богаткова,630102,55.0104102,82.9437464
5,улица Кочубея,630061,55.1072095,82.9561793
3,улица Земнухова,630061,55.1075331,82.9533251
1,улица Тюленина,630129,55.1055607,82.9538074
1,улица Кочубея,630061,55.1057220,82.9550383
3,улица Кочубея,630061,55.1069503,82.9550727
1/2,улица Тюленина,630061,55.1066845,82.9534674
9,улица Кочубея,630061,55.1087289,82.9573478
9/1,улица Кочубея,630061,55.1100548,82.9574812
3,улица Родники,630061,55.1128251,82.9526353
7,улица Свечникова,630061,55.1130998,82.9480703
11,улица Земнухова,630061,55.1103996,82.9550396
1/1,улица Родники,630061,55.1106465,82.9506074
3/1,улица Родники,630061,55.1121508,82.9517507
6,улица Родники,630061,55.1120298,82.9498813
6/1,улица Родники,630061,55.1125510,82.9490144
7,улица Кочубея,630061,55.1084816,82.9562272
5,улица Земнухова,630061,55.1081393,82.9535161
7,улица Земнухова,630061,55.1089219,82.9538973
9,улица Земнухова,630061,55.1096196,82.9546565
7/1,улица Земнухова,630061,55.1093955,82.9557377
13,улица Земнухова,630061,55.1111316,82.9557914
10,улица Родники,630061,55.1133171,82.9504236
96,Обская улица,630083,54.9985147,82.9549823
34,Большевистская улица,630083,54.9980642,82.9609798
171,Большевистская улица,630083,54.9959321,82.9691672
153,Большевистская улица,630083,54.9964260,82.9676293
3,1-я Механическая улица,630025,54.9644100,83.0527627
5А,1-я Механическая улица,630025,54.9636161,83.0538543
1,1-я Механическая улица,630025,54.9643560,83.0518592
2,1-я Механическая улица,630025,54.9638417,83.0521950
4А,1-я Механическая улица,630025,54.9639081,83.0529164
16,1-я Механическая улица,630025,54.9635697,83.0552483
18,1-я Механическая улица,630025,54.9631121,83.0555591
5,1-я Механическая улица,630025,54.9649686,83.0531821
13,1-я Механическая улица,630025,54.9654857,83.0542061
10,1-я Механическая улица,630045,54.9649790,83.0549989
7,1-я Механическая улица,630025,54.9649187,83.0541171
2А,Ученическая улица,630068,54.9421131,83.1277958
4,улица Пришвина,630068,54.9383316,83.1166154
8,Ученическая улица,630068,54.9404203,83.1192552
19,улица Одоевского,630068,54.9421508,83.1249426
2Б,Ученическая улица,630068,54.9417546,83.1260124
5/2,улица Шукшина,630068,54.9375821,83.1240103
1,улица Шукшина,630068,54.9396284,83.1270339
54,улица Молодости,630057,54.8612484,82.9684898
46,улица Молодости,630057,54.8616615,82.9655963
11,Варшавская улица,630057,54.8617667,82.9668986
15,Варшавская улица,630057,54.8622646,82.9677120
15А,Варшавская улица,630057,54.8625145,82.9670565
16А,Абаканская улица,630057,54.8626505,82.9663278
16,Абаканская улица,630057,54.8626505,82.9655034
4,Абаканская улица,630057,54.8622132,82.9649855
10,Варшавская улица,630057,54.8613795,82.9675958
44,улица Молодости,630057,54.8608670,82.9679627
1,улица Печатников,630057,54.8602281,82.9695099
3,улица Печатников,630057,54.8604424,82.9705106
5,улица Бердышева,630057,54.8625639,82.9696940
70,улица Энгельса,630057,54.8620279,82.9698021
48,улица Молодости,630057,54.8607683,82.9697245
52,улица Молодости,630057,54.8609757,82.9691954
5,улица Печатников,630057,54.8611435,82.9701465
7,улица Печатников,630057,54.8613386,82.9716213
23/1,улица Энгельса,630057,54.8602835,82.9722313
47,Гидромонтажная улица,630057,54.8597219,82.9749184
23,улица Энгельса,630057,54.8599689,82.9729968
10,улица Печатников,630057,54.8614697,82.9746540
8,улица Печатников,630057,54.8611802,82.9739053
14,улица Энгельса,630057,54.8609437,82.9753549
48,Гидромонтажная улица,630098,54.8601833,82.9787518
16,улица Динамовцев,630098,54.8612991,82.9794504
12,улица Энгельса,630098,54.8604217,82.9798959
50,Гидромонтажная улица,630098,54.8608189,82.9784992
6,улица Сердюкова,630098,54.8600699,82.9885268
2,улица Энгельса,630098,54.8599722,82.9860058
10,улица Энгельса,630098,54.8600096,82.9816453
14,улица Динамовцев,630098,54.8612577,82.9817309
8,улица Энгельса,630098,54.8608557,82.9816062
10А,улица Энгельса,630098,54.8603996,82.9816693
4,улица Динамовцев,630098,54.8611318,82.9882788
6,улица Динамовцев,630098,54.8605562,82.9885427
8,улица Динамовцев,630098,54.8611357,82.9865189
10,улица Динамовцев,630098,54.8607286,82.9864860
4,улица Энгельса,630098,54.8603603,82.9862315
22,улица Молодости,630056,54.8585284,82.9794840
17,улица Энгельса,630056,54.8594560,82.9800254
46,Гидромонтажная улица,630056,54.8589779,82.9784968
21,улица Молодости,630056,54.8578155,82.9789875
18,улица Молодости,630056,54.8585118,82.9821788
3,Смоленская улица,630056,54.8590678,82.9847750
5,улица Энгельса,630056,54.8590497,82.9824954
5,улица 40 лет Комсомола,630056,54.8590455,82.9806540
3,улица 40 лет Комсомола,630056,54.8587313,82.9812611
4,улица 40 лет Комсомола,630056,54.8587250,82.9819282
20,улица Молодости,630056,54.8584881,82.9808383
6,улица Молодости,630056,54.8584726,82.9836544
3,улица Молодости,630056,54.8579084,82.9840101
7,улица Энгельса,630056,54.8594975,82.9837137
23,Приморская улица,630098,54.8588786,82.9870897
10,улица Челюскинцев,630004,55.0367940,82.9024716
12,улица Челюскинцев,630004,55.0369806,82.9030480
13,Сибирская улица,630004,55.0360010,82.9031489
6,улица Челюскинцев,630004,55.0363748,82.9012857
8,улица Челюскинцев,630004,55.0365840,82.9018366
41,Сибирская улица,630132,55.0367572,82.9085854
40,Сибирская улица,630004,55.0357621,82.9084137
44,Сибирская улица,630004,55.0361794,82.9096301
32,Сибирская улица,630004,55.0354844,82.9079878
26,Сибирская улица,630004,55.0349439,82.9047835
28,Сибирская улица,630004,55.0349841,82.9057869
13,проспект Димитрова,630004,55.0351041,82.9093907
11,проспект Димитрова,630004,55.0350429,82.9100764
9,проспект Димитрова,630004,55.0349030,82.9106963
17,улица Челюскинцев,630132,55.0407546,82.9074725
35/1,Русская улица,630058,54.8474138,83.0533769
159,Красный проспект,630049,55.0603480,82.9111216
1,Солнечногорская улица,630116,54.8085798,83.0957231
3,Солнечногорская улица,630116,54.8085332,83.0963258
5,Солнечногорская улица,630116,54.8084915,83.0969253
15,Солнечногорская улица,630116,54.8089454,83.0954736
13,Солнечногорская улица,630116,54.8090897,83.0961059
11,Солнечногорская улица,630116,54.8092095,83.0967890
9,Солнечногорская улица,630116,54.8089042,83.0967358
13,улица Боровая Партия,630116,54.8116634,83.0953496
7,Узорная улица,630059,54.9241024,83.0808222
1,Узорная улица,630059,54.9251316,83.0851729
1Б,Газонная улица,630068,54.9497168,83.1154457
1А,Газонная улица,630068,54.9488726,83.1160005
6/1,Комсомольская улица,630066,54.9563778,82.9689152
20,улица Герцена,630066,54.9579937,82.9683009
6,улица Герцена,630066,54.9603367,82.9692916
4,Комсомольская улица,630066,54.9562844,82.9677467
8,улица Герцена,630066,54.9593945,82.9669341
8,Комсомольская улица,630066,54.9566708,82.9680188
8/2,улица Герцена,630066,54.9570822,82.9676969
8/1,улица Герцена,630066,54.9570199,82.9669515
14,Комсомольская улица,630066,54.9574935,82.9664068
4,Комсомольская улица,630066,54.9574003,82.9653477
8,улица Герцена,630066,54.9588217,82.9661513
8,улица Герцена,630066,54.9598560,82.9678983
6,улица Герцена,630066,54.9603774,82.9682272
6,Комсомольская улица,630066,54.9565233,82.9697562
6/1,улица Герцена,630066,54.9592521,82.9699189
20/1,улица Чигорина,630033,54.9607192,82.9573645
12/1,улица Чигорина,630033,54.9595657,82.9574932
16,улица Чигорина,630033,54.9592412,82.9590195
41,Оловозаводская улица,630033,54.9618198,82.9572345
20,улица Чигорина,630033,54.9605660,82.9564904
10/1,улица Чигорина,630033,54.9620570,82.9581681
10,улица Чигорина,630033,54.9617186,82.9593946
12/2,улица Чигорина,630033,54.9615335,82.9585467
20/2,улица Чигорина,630033,54.9610020,82.9581008
14/1,улица Чигорина,630033,54.9598864,82.9583756
14/2,улица Чигорина,630033,54.9603668,82.9579819
14,улица Чигорина,630033,54.9600473,82.9596385
12,улица Чигорина,630033,54.9609509,82.9598125
2,улица Чигорина,630033,54.9647571,82.9602144
4,улица Чигорина,630033,54.9636146,82.9597154
102,Выборная улица,630126,54.9977574,83.0047313
24,Вилюйская улица,630126,54.9979022,83.0077710
124,Выборная улица,630126,54.9977339,83.0105311
106/1,Выборная улица,630126,54.9954730,83.0067761
106,Выборная улица,630126,54.9961261,83.0063140
116,Выборная улица,630126,54.9966687,83.0081713
108,Выборная улица,630126,54.9972446,83.0067028
104,Выборная улица,630126,54.9966165,83.0056078
124/1,Выборная улица,630126,54.9968482,83.0115322
124/2,Выборная улица,630126,54.9973924,83.0121829
110,Выборная улица,630126,54.9981171,83.0062189
122/1,Выборная улица,630126,54.9980156,83.0118016
122,Выборная улица,630126,54.9991485,83.0106472
122,Выборная улица,630126,54.9993499,83.0097889
122,Выборная улица,630126,54.9988568,83.0095877
122/2,Выборная улица,630126,54.9996971,83.0111139
130,Выборная улица,630126,54.9987290,83.0138274
91,Выборная улица,630126,55.0028352,83.0126554
89/3,Выборная улица,630126,55.0010214,83.0127275
93,Выборная улица,630126,55.0030199,83.0133390
95,Выборная улица,630126,55.0031708,83.0139219
127,Выборная улица,630126,55.0043404,83.0243299
89/1,Выборная улица,630126,55.0023404,83.0145268
89,Выборная улица,630126,55.0026762,83.0142829
117/2,Выборная улица,630126,55.0028612,83.0181333
101/1,Выборная улица,630126,55.0049625,83.0189649
101/2,Выборная улица,630126,55.0054081,83.0183758
101/3,Выборная улица,630126,55.0055743,83.0189899
101/5,Выборная улица,630126,55.0057609,83.0200598
97,Выборная улица,630126,55.0033296,83.0144964
99,Выборная улица,630126,55.0037018,83.0134651
113/1,Выборная улица,630126,55.0049006,83.0171820
101,Выборная улица,630126,55.0053985,83.0205901
101/5,Выборная улица,630126,55.0061600,83.0198953
129,Выборная улица,630126,55.0048001,83.0265211
129/2,Выборная улица,630126,55.0048647,83.0274853
131,Выборная улица,630126,55.0054328,83.0269704
131/1,Выборная улица,630126,55.0058484,83.0267002
23/1,проспект Строителей,630055,54.8612541,83.0934916
69,улица Петухова,630088,54.9426768,82.9055148
12,улица Ленина,630099,55.0297503,82.9134216
3/1,улица Палласа,630088,54.9456534,82.8815198
35,улица Палласа,630088,54.9463348,82.8805935
23,улица Палласа,630088,54.9476545,82.8788502
8,улица Палласа,630088,54.9466673,82.8783495
17,улица Палласа,630088,54.9466351,82.8789770
6/1,улица Палласа,630088,54.9460530,82.8784486
6,улица Палласа,630088,54.9456959,82.8784036
1/2,улица Палласа,630088,54.9456261,82.8793446
3/2,улица Палласа,630088,54.9460183,82.8815494
5/1,улица Палласа,630088,54.9464652,82.8814337
5,улица Палласа,630088,54.9465573,82.8822976
39,улица Палласа,630088,54.9468951,82.8803955
259/1,улица Зорге,630119,54.9289368,82.9239005
221А,улица Зорге,630106,54.9294608,82.9205275
47/2,улица Зорге,630106,54.9350218,82.9138084
82/2,улица Петухова,630106,54.9396062,82.9179626
86,улица Петухова,630106,54.9388764,82.9146586
146,улица Петухова,630119,54.9363338,82.9327110
133,улица Зорге,630119,54.9348399,82.9253344
149,улица Зорге,630119,54.9357646,82.9280811
124,улица Петухова,630119,54.9381726,82.9267759
122,улица Петухова,630119,54.9388630,82.9275559
120,улица Петухова,630119,54.9388682,82.9259282
120/1,улица Петухова,630119,54.9384566,82.9256240
21,улица Зорге,630088,54.9377255,82.9020179
39,улица Зорге,630088,54.9374917,82.9053713
15,улица Терешковой,630090,54.8437297,83.1068986
31,Золотодолинская улица,630090,54.8324302,83.1044584
10,улица Учёных,630090,54.8332386,83.1077150
15,Детский проезд,630090,54.8414073,83.1051097
17,Детский проезд,630090,54.8419277,83.1055753
4/1,Институтская улица,630090,54.8468542,83.1160898
31 к3,улица Терешковой,630090,54.8381323,83.1179401
29 к4,улица Терешковой,630090,54.8389803,83.1161421
15/2,проспект Академика Лаврентьева,630090,54.8404229,83.1144409
3,Пасечная улица,630128,54.8633715,83.1151586
1А,Пасечная улица,630128,54.8637943,83.1143732
39,Русская улица,630058,54.8462707,83.0548248
41,Русская улица,630058,54.8470136,83.0575001
43,Русская улица,630058,54.8469923,83.0596102
41А,Русская улица,630058,54.8481934,83.0565188
50,Русская улица,630058,54.8459617,83.0641593
47,улица Иванова,630117,54.8721146,83.0976625
45,улица Иванова,630117,54.8722907,83.0984295
49/1,улица Иванова,630117,54.8726341,83.0996582
49/2,улица Иванова,630117,54.8724404,83.0990707
49,улица Иванова,630117,54.8759096,83.1001696
7,проспект Академика Коптюга,630090,54.8436864,83.1025294
11,улица Терешковой,630090,54.8435770,83.1060690
9,улица Терешковой,630090,54.8435169,83.1056808
1,улица Терешковой,630090,54.8432157,83.1040225
3,улица Терешковой,630090,54.8433071,83.1044228
7,улица Терешковой,630090,54.8434359,83.1052524
5,улица Терешковой,630090,54.8433582,83.1048352
13,улица Терешковой,630090,54.8436540,83.1064849
37,улица Селезнёва,630112,55.0467789,82.9445639
48А,улица Селезнёва,630112,55.0468078,82.9455858
32,Ипподромская улица,630112,55.0465734,82.9422507
32/1,Ипподромская улица,630112,55.0461393,82.9435758
48,улица Селезнёва,630112,55.0461876,82.9458903
32/2,Ипподромская улица,630112,55.0467603,82.9434048
30,Ипподромская улица,630112,55.0457788,82.9436262
50,улица Селезнёва,630112,55.0478138,82.9452903
34,Ипподромская улица,630112,55.0476130,82.9419769
39,улица Селезнёва,630112,55.0478121,82.9442858
34/1,Ипподромская улица,630112,55.0473735,82.9432384
37,Часовая улица,630057,54.8655740,82.9727051
6,Универсальная улица,630057,54.8647942,82.9741472
33,Часовая улица,630057,54.8652526,82.9744356
9,улица Печатников,630057,54.8640817,82.9728966
4,Универсальная улица,630057,54.8645083,82.9733295
8,Универсальная улица,630057,54.8647734,82.9726768
12,Универсальная улица,630057,54.8650404,82.9720387
35,Часовая улица,630057,54.8654393,82.9735105
11,улица Печатников,630057,54.8645508,82.9754753
13,улица Печатников,630057,54.8651101,82.9757632
16,Барьерная улица,630098,54.8640539,82.9793892
1,Приморская улица,630056,54.8567163,82.9785562
29,Часовая улица,630098,54.8652310,82.9784224
27,Часовая улица,630098,54.8652160,82.9794101
18,Барьерная улица,630098,54.8643957,82.9783793
13,Приморская улица,630056,54.8572052,82.9843485
11,Приморская улица,630056,54.8568813,82.9836968
11,улица Молодости,630056,54.8580636,82.9826135
15,улица Молодости,630056,54.8579418,82.9815615
19,улица Молодости,630056,54.8581061,82.9804381
54,улица 40 лет Комсомола,630098,54.8645935,82.9822185
52,улица 40 лет Комсомола,630098,54.8641001,82.9823183
21,Часовая улица,630098,54.8651529,82.9823927
25,Часовая улица,630098,54.8652119,82.9801757
55,улица 40 лет Комсомола,630098,54.8651949,82.9809118
10,Барьерная улица,630098,54.8642421,82.9845845
19,Часовая улица,630098,54.8653804,82.9827672
2,улица Михаила Перевозчикова,630049,55.0605257,82.9098543
6,улица Михаила Перевозчикова,630049,55.0607978,82.9083507
34,Дачная улица,630082,55.0586548,82.9060200
36,Дачная улица,630082,55.0595995,82.9058759
10,улица Михаила Перевозчикова,630049,55.0610142,82.9061123
25,Дачная улица,630082,55.0621846,82.9028149
83,улица Тимирязева,630082,55.0579609,82.8974029
79,улица Тимирязева,630082,55.0582719,82.8949601
73,улица Тимирязева,630082,55.0577077,82.8925864
121,улица Жуковского,630082,55.0577713,82.8918581
119,улица Жуковского,630082,55.0584209,82.8918490
117,улица Жуковского,630082,55.0591143,82.8919872
75,улица Тимирязева,630082,55.0576588,82.8933212
87,улица Тимирязева,630082,55.0578281,82.9000439
85,улица Тимирязева,630082,55.0578934,82.8987520
23/3,Дачная улица,630082,55.0607969,82.8995049
113,улица Жуковского,630082,55.0606427,82.8923179
113/1,улица Жуковского,630082,55.0606581,82.8930055
113/2,улица Жуковского,630082,55.0606128,82.8936675
113/3,улица Жуковского,630082,55.0605715,82.8943273
113/4,улица Жуковского,630082,55.0605413,82.8949943
35,улица Дмитрия Донского,630082,55.0627575,82.8974148
23/2,Дачная улица,630082,55.0607640,82.9010818
117/1,улица Жуковского,630082,55.0587875,82.8926691
115,улица Жуковского,630082,55.0598594,82.8921515
115/1,улица Жуковского,630082,55.0597457,82.8927997
115/2,улица Жуковского,630082,55.0597020,82.8934693
115/3,улица Жуковского,630082,55.0596569,82.8941600
115/4,улица Жуковского,630082,55.0596097,82.8948166
111,улица Жуковского,630082,55.0614050,82.8924961
49,улица Дмитрия Донского,630082,55.0616583,82.8931535
47,улица Дмитрия Донского,630082,55.0614776,82.8941692
45,улица Дмитрия Донского,630082,55.0616950,82.8947147
43,улица Дмитрия Донского,630082,55.0619121,82.8952686
39,улица Дмитрия Донского,630082,55.0623442,82.8963125
37,улица Дмитрия Донского,630082,55.0625412,82.8968373
83/1,улица Тимирязева,630082,55.0582962,82.8981402
85/1,улица Тимирязева,630082,55.0582232,82.8994879
21/3,Дачная улица,630082,55.0602730,82.9008361
25/1,Дачная улица,630082,55.0618993,82.9020595
25/2,Дачная улица,630082,55.0616525,82.9013303
25/3,Дачная улица,630082,55.0613842,82.9006001
25/5,Дачная улица,630082,55.0614973,82.8988210
31/1,улица Дмитрия Донского,630082,55.0622983,82.8989756
29/1,улица Дмитрия Донского,630082,55.0625585,82.8996737
27/1,улица Дмитрия Донского,630082,55.0628477,82.9003801
23/1,Дачная улица,630082,55.0611211,82.9021568
157,Красный проспект,630049,55.0583292,82.9115700
23,Дачная улица,630082,55.0614722,82.9030967
161,Красный проспект,630049,55.0614187,82.9112842
163,Красный проспект,630049,55.0625484,82.9108918
127,улица Кропоткина,630105,55.0565958,82.9232335
1,Рельсовая улица,630105,55.0529302,82.9231305
47/1,Линейная улица,630105,55.0525771,82.9223506
47/2,Линейная улица,630105,55.0522753,82.9213688
33/1,Линейная улица,630049,55.0494720,82.9065019
35,Линейная улица,630049,55.0494075,82.9081714
37/2,Линейная улица,630049,55.0498285,82.9098608
33/3,Линейная улица,630049,55.0518272,82.9076445
35/4,Линейная улица,630049,55.0510661,82.9082125
33,Линейная улица,630049,55.0490340,82.9069778
33/2,Линейная улица,630049,55.0514769,82.9059806
35/1,Линейная улица,630049,55.0500505,82.9073757
3,улица Галущака,630049,55.0516205,82.9041137
37/1,Линейная улица,630049,55.0512771,82.9096566
98/1,улица Кропоткина,630049,55.0523411,82.9105837
83/1,Красный проспект,630049,55.0520485,82.9122813
92,Красный проспект,630049,55.0520542,82.9152753
47,Линейная улица,630105,55.0519120,82.9221860
98,улица Кропоткина,630049,55.0528661,82.9112255
96,улица Кропоткина,630049,55.0529382,82.9105470
92,улица Кропоткина,630049,55.0533233,82.9089260
94,улица Кропоткина,630049,55.0534269,82.9100731
92/1,улица Кропоткина,630049,55.0529493,82.9080692
94/1,улица Кропоткина,630049,55.0529871,82.9094822
119/2,улица Кропоткина,630105,55.0563666,82.9195251
119,улица Кропоткина,630105,55.0552179,82.9204131
96,Красный проспект,630049,55.0534829,82.9148899
110,улица Кропоткина,630105,55.0536972,82.9210054
119/1,улица Кропоткина,630105,55.0559449,82.9204153
102/4,Красный проспект,630105,55.0571839,82.9201646
136,улица Кропоткина,630111,55.0568865,82.9467404
265,улица Кропоткина,630111,55.0578323,82.9303958
269/2,улица Кропоткина,630111,55.0581696,82.9346057
120/1,улица Кропоткина,630111,55.0552660,82.9312670
118/3,улица Кропоткина,630111,55.0543693,82.9295347
118/4,улица Кропоткина,630111,55.0539262,82.9292338
261,улица Кропоткина,630111,55.0563946,82.9283206
225,Линейная улица,630111,55.0535461,82.9309152
126/1,улица Кропоткина,630111,55.0563873,82.9329501
124/1,улица Кропоткина,630111,55.0556663,82.9337291
263,улица Кропоткина,630111,55.0567620,82.9313553
132/2,улица Кропоткина,630111,55.0563925,82.9445142
65Б,улица Дуси Ковальчук,630082,55.0516894,82.8916962
18,улица Дуси Ковальчук,630001,55.0492457,82.8883232
61,улица Дуси Ковальчук,630001,55.0498882,82.8873411
14,Разъездная улица,630055,54.8709980,83.0783350
12,Разъездная улица,630055,54.8715898,83.0783562
43,Российская улица,630055,54.8693550,83.0813712
10,Разъездная улица,630055,54.8714169,83.0791134
21,Приморская улица,630056,54.8584472,82.9865085
2,улица Молодости,630056,54.8584086,82.9859283
2,Смоленская улица,630056,54.8585326,82.9854575
6к1,Часовая улица,630098,54.8668183,82.9836859
124,улица Бердышева,630057,54.8676184,82.9508383
8,Народная улица,630075,55.0636576,82.9378790
28/1,Народная улица,630110,55.0743521,82.9581482
12/1,Народная улица,630075,55.0647226,82.9413583
16/1,Народная улица,630075,55.0661026,82.9446167
13/2,Народная улица,630075,55.0666469,82.9415433
13/1,Народная улица,630075,55.0669843,82.9411590
11,Народная улица,630075,55.0660734,82.9407434
7,Народная улица,630075,55.0649047,82.9394705
8,улица Богдана Хмельницкого,630075,55.0670534,82.9378408
14/1,Народная улица,630075,55.0653478,82.9430545
35/1,Народная улица,630075,55.0716108,82.9489900
35,Народная улица,630075,55.0714667,82.9495237
37,Народная улица,630075,55.0722203,82.9504011
30,улица Богдана Хмельницкого,630075,55.0722554,82.9492010
48,Учительская улица,630110,55.0800486,82.9677630
57,Народная улица,630110,55.0770552,82.9608306
28,улица 25 лет Октября,630110,55.0771280,82.9591889
57/1,Народная улица,630110,55.0773633,82.9602479
55,Народная улица,630110,55.0767149,82.9599110
31,Театральная улица,630110,55.0786198,82.9620712
59,Народная улица,630110,55.0773921,82.9614614
58,улица Богдана Хмельницкого,630110,55.0780004,82.9603654
61,Народная улица,630110,55.0776612,82.9619968
56,улица Богдана Хмельницкого,630110,55.0781162,82.9593529
62,улица Богдана Хмельницкого,630110,55.0790440,82.9613453
60,улица Богдана Хмельницкого,630110,55.0787408,82.9604285
54,улица Богдана Хмельницкого,630110,55.0775962,82.9585084
67,Народная улица,630110,55.0794509,82.9646301
74,улица Богдана Хмельницкого,630110,55.0814043,82.9668092
65/1,улица Богдана Хмельницкого,630110,55.0832756,82.9673308
27/2,улица Макаренко,630027,55.1021471,82.9681809
31,улица Объединения,630027,55.0982958,82.9682643
31/1,улица Объединения,630027,55.0991031,82.9687028
21,улица Объединения,630027,55.0967663,82.9615778
17,улица Объединения,630027,55.0962288,82.9595929
4,улица Макаренко,630027,55.0966870,82.9582618
2,улица Макаренко,630027,55.0964753,82.9575603
11,улица Объединения,630027,55.0951741,82.9577340
19,улица Объединения,630027,55.0960511,82.9610840
13,улица Объединения,630027,55.0957997,82.9582081
15,улица Объединения,630027,55.0954564,82.9591616
82/2,улица Объединения,630027,55.0950462,82.9643186
9,улица Макаренко,630027,55.0985527,82.9573726
20,улица Столетова,630027,55.1017900,82.9646863
23,улица Столетова,630027,55.1019554,82.9610186
21/2,улица Столетова,630027,55.1016935,82.9589150
13,улица Макаренко,630027,55.0975626,82.9572441
22,улица Макаренко,630027,55.0990842,82.9675806
14,улица Макаренко,630027,55.0981058,82.9627289
23,улица Объединения,630027,55.0966735,82.9626384
18,улица Столетова,630027,55.1009108,82.9633841
19,улица Макаренко,630027,55.0989656,82.9623641
19/1,улица Макаренко,630027,55.0995154,82.9618338
7/1,улица Макаренко,630027,55.0990036,82.9594213
10,улица Макаренко,630027,55.0976222,82.9611429
15,улица Макаренко,630027,55.0975174,82.9586588
12,улица Макаренко,630027,55.0978567,82.9619215
6,улица Макаренко,630027,55.0969009,82.9589546
11,улица Макаренко,630027,55.0982706,82.9587312
19/1,улица Объединения,630027,55.0967263,82.9604521
21/1,улица Столетова,630027,55.1013792,82.9594728
21,улица Столетова,630027,55.1012774,82.9605396
5,улица Макаренко,630027,55.1002898,82.9589699
19,улица Столетова,630027,55.1007790,82.9612786
17/1,улица Столетова,630027,55.1001507,82.9612214
7,улица Макаренко,630027,55.0996238,82.9588309
2,улица Столетова,630027,55.0985678,82.9666447
16,улица Столетова,630027,55.1006603,82.9643904
23/1,улица Макаренко,630027,55.1006474,82.9660418
16/1,улица Столетова,630027,55.1010628,82.9656451
21,улица Макаренко,630027,55.0998343,82.9651553
23,улица Макаренко,630027,55.1002310,82.9664264
18/1,улица Столетова,630027,55.1014644,82.9652760
14,улица Столетова,630027,55.1000643,82.9642137
24,улица Макаренко,630027,55.0997241,82.9675102
25,улица Столетова,630027,55.1023146,82.9592851
20/1,улица Столетова,630027,55.1023386,82.9667395
20/2,улица Столетова,630027,55.1025723,82.9681498
11,улица Дунаевского,630027,55.1018976,82.9736658
31,улица Макаренко,630027,55.1022249,82.9715033
33/1,улица Объединения,630027,55.0993841,82.9695822
100,улица Объединения,630027,55.0987358,82.9718022
33,улица Объединения,630027,55.0988890,82.9701538
98,улица Объединения,630027,55.0984523,82.9709886
96,улица Объединения,630027,55.0981689,82.9701749
35/2,улица Объединения,630027,55.1002503,82.9721464
35/1,улица Объединения,630027,55.0995862,82.9704567
27,улица Макаренко,630027,55.1013066,82.9698868
27/1,улица Макаренко,630027,55.1017093,82.9695075
29,улица Макаренко,630027,55.1016825,82.9711071
39,улица Объединения,630027,55.0994375,82.9750873
39/1,улица Объединения,630027,55.1000815,82.9750913
21,улица Дунаевского,630027,55.1035241,82.9743882
17,улица Дунаевского,630027,55.1028641,82.9742284
19,улица Дунаевского,630027,55.1032149,82.9743767
13,улица Дунаевского,630027,55.1021870,82.9738650
15,улица Дунаевского,630027,55.1025394,82.9740213
13/1,улица Дунаевского,630027,55.1023136,82.9731187
17А,улица Дунаевского,630027,55.1028389,82.9733452
31/2,улица Макаренко,630027,55.1027530,82.9694743
33,улица Макаренко,630027,55.1025008,82.9723479
27/3,улица Макаренко,630027,55.1022525,82.9692725
31/1,улица Макаренко,630027,55.1026428,82.9705484
11,улица Курчатова,630129,55.1058480,82.9691118
11/4,улица Курчатова,630129,55.1069474,82.9693952
7,Рассветная улица,630129,55.1089935,82.9690220
2А,Рассветная улица,630129,55.1099075,82.9685149
2/3,Рассветная улица,630129,55.1109364,82.9687948
11/3,улица Курчатова,630129,55.1074811,82.9677329
37,улица Курчатова,630129,55.1076839,82.9629970
7/6,улица Курчатова,630129,55.1072958,82.9661782
5/1,улица Земнухова,630061,55.1079184,82.9545912
1/1,улица Тюленина,630061,55.1063375,82.9542028
37/2,улица Курчатова,630129,55.1066634,82.9628724
3,улица Курчатова,630129,55.1049434,82.9630930
3/3,улица Курчатова,630129,55.1060445,82.9628766
3/1,улица Курчатова,630129,55.1052822,82.9633159
3/2,улица Курчатова,630129,55.1056522,82.9622067
11/2,улица Курчатова,630129,55.1070702,82.9670648
5/1,улица Курчатова,630129,55.1063703,82.9646421
7/4,улица Курчатова,630129,55.1062387,82.9669565
7,улица Курчатова,630129,55.1051279,82.9666920
7/3,улица Курчатова,630129,55.1067611,82.9652970
11/5,улица Курчатова,630129,55.1066988,82.9683289
5,улица Курчатова,630129,55.1055128,82.9645259
5/2,улица Курчатова,630129,55.1059980,82.9657513
11/1,улица Кочубея,630129,55.1112915,82.9572672
3/2,улица Родники,630061,55.1113768,82.9519944
8,улица Земнухова,630061,55.1104186,82.9526990
1,улица Родники,630061,55.1098927,82.9508369
4,улица Земнухова,630061,55.1089281,82.9515570
4,улица Родники,630129,55.1112765,82.9493606
9/3,улица Кочубея,630061,55.1094456,82.9565727
5/1,улица Кочубея,630061,55.1079043,82.9553964
12,улица Земнухова,630061,55.1118675,82.9538094
10,улица Земнухова,630061,55.1108949,82.9531635
15,улица Земнухова,630061,55.1119498,82.9564051
9,улица Свечникова,630061,55.1137924,82.9485910
1/1,Рассветная улица,630129,55.1078922,82.9651514
5,Рассветная улица,630129,55.1083695,82.9678927
7/7,улица Курчатова,630129,55.1079562,82.9665887
1,улица Красных Зорь,630129,55.1106856,82.9679297
5/1,Рассветная улица,630129,55.1088541,82.9669308
1,Рассветная улица,630129,55.1085405,82.9654148
11,улица Кочубея,630061,55.1102774,82.9586205
17,улица Курчатова,630129,55.1074243,82.9756417
15/1,улица Курчатова,630129,55.1074943,82.9727956
13,улица Курчатова,630129,55.1064234,82.9716040
15,улица Курчатова,630129,55.1068773,82.9736157
2,Рассветная улица,630129,55.1102236,82.9712627
2/2,Рассветная улица,630129,55.1102928,82.9692326
8,Рассветная улица,630129,55.1098944,82.9741450
4,Рассветная улица,630129,55.1101280,82.9722816
6,Рассветная улица,630129,55.1099998,82.9731873
14,Рассветная улица,630129,55.1116050,82.9754726
12,Рассветная улица,630129,55.1104452,82.9777371
15,Рассветная улица,630129,55.1086409,82.9745154
9,Рассветная улица,630129,55.1080996,82.9726950
3,Рассветная улица,630129,55.1087254,82.9707077
3/1,Рассветная улица,630129,55.1082585,82.9701347
2/5,Рассветная улица,630129,55.1099351,82.9706575
3,улица Красных Зорь,630129,55.1121346,82.9696598
2/4,Рассветная улица,630129,55.1109447,82.9701836
4/1,Рассветная улица,630129,55.1106035,82.9727509
2/1,Рассветная улица,630129,55.1107070,82.9717514
16,Рассветная улица,630129,55.1114994,82.9738838
7,улица Красных Зорь,630129,55.1124937,82.9728321
5,улица Красных Зорь,630129,55.1121381,82.9711386
3/2,улица Красных Зорь,630129,55.1114838,82.9706539
6/1,Рассветная улица,630129,55.1104763,82.9736815
18,Рассветная улица,630129,55.1115041,82.9724447
3/1,улица Красных Зорь,630129,55.1116686,82.9697096
17/1,Рассветная улица,630129,55.1082322,82.9751309
17,Рассветная улица,630129,55.1084788,82.9759504
10/1,Рассветная улица,630129,55.1104001,82.9761618
10/2,Рассветная улица,630129,55.1114424,82.9751497
26,Тайгинская улица,630129,55.1125716,82.9746065
13А,бульвар Молодёжи,630055,54.8643083,83.0851621
29А,улица Героев Труда,630055,54.8672292,83.0785740
12,улица Гнесиных,630055,54.8710438,83.0882034
15,улица Лескова,630008,55.0250879,82.9449450
3,Воинская улица,630017,55.0260083,82.9618125
7,улица Гаранина,630017,55.0282146,82.9641018
31,Комсомольская улица,630066,54.9568511,82.9581515
31,Комсомольская улица,630066,54.9567062,82.9564453
1/1,улица Вересаева,630068,54.9545016,83.1090790
120/1,Первомайская улица,630080,54.9698602,83.1081940
122,Первомайская улица,630080,54.9675614,83.1061164
130,Первомайская улица,630080,54.9681882,83.1060846
114,Первомайская улица,630080,54.9673054,83.1073314
106,Первомайская улица,630080,54.9671281,83.1085019
104,Первомайская улица,630080,54.9669072,83.1097706
100,Первомайская улица,630080,54.9666687,83.1109858
102,Первомайская улица,630080,54.9670923,83.1106374
132,Первомайская улица,630080,54.9689083,83.1066052
124,Первомайская улица,630080,54.9690429,83.1074784
120А,Первомайская улица,630080,54.9693009,83.1081700
118,Первомайская улица,630080,54.9684715,83.1074714
116,Первомайская улица,630080,54.9679550,83.1068984
110,Первомайская улица,630080,54.9675941,83.1079535
