House number,Street name,Postal code,Latitude,Longitude
1,Huopalahdentie,00330,60.1966400,24.8856567
8,Lapinlahdenpolku,00180,60.1675866,24.9131925
1,Kaivokatu,00100,60.1717794,24.9413548
9,Televisiokatu,00240,60.2075815,24.9212392
4,Sammaltori,00730,60.2624633,25.0285605
2,Professorintie,00330,60.2004403,24.8765878
2,Linnanrakentajantie,00880,60.1950787,25.0335278
2,Kettutie,00800,60.2045788,25.0342252
2,Kettutie,00800,60.2045034,25.0339461
36,Hiihtomäentie,00800,60.2038839,25.0327312
6,Siilitie,00800,60.2068899,25.0413665
4,Siilitie,00800,60.2066210,25.0426000
2,Insinöörinkatu,00880,60.1941800,25.0340011
13,Hiihtomäentie,00810,60.1945690,25.0302310
14,Hiihtomäentie,00810,60.1953248,25.0305688
12,Linnanrakentajantie,00810,60.1903848,25.0421622
2,Roihuvuorentie,00820,60.1945206,25.0528138
2,Ukko-Pekan porras,00570,60.1888358,25.0081192
14,Hiihtomäentie,00800,60.1949788,25.0298686
14,Hiihtomäentie,00810,60.1952818,25.0304721
1 A,Laivalahdenkatu,00810,60.1934957,25.0370747
3,Karavaanisilta,00980,60.2053626,25.1215783
50,Sahaajankatu,00800,60.2063168,25.0520591
2,Myllyaukio,00920,60.2250101,25.0757494
2,Insinöörinkatu,00880,60.1942147,25.0336548
1-7 / Floors -1 & -2,Itäkatu,00930,60.2109680,25.0818893
1-7,Itäkatu,00930,60.2111196,25.0823424
20,Kontulantie,00940,60.2359519,25.0836317
8,Mellunmäentie,00970,60.2391975,25.1111530
4,Abraham Wetterin tie,00810,60.1931084,25.0423111
24,Suolakivenkatu,00810,60.1879777,25.0303723
11,Siilitie,00800,60.2122338,25.0387770
4,John Stenbergin ranta,00530,60.1771570,24.9515812
20,Sörnäisten rantatie,00500,60.1849871,24.9672839
11,Hakaniemenranta,00530,60.1776124,24.9582690
5,Elielinaukio,00100,60.1723842,24.9394894
5,Myllypurontie,00920,60.2242145,25.0765168
1,Tallberginkatu,00180,60.1618280,24.9024440
1 C,Itämerenkuja,00180,60.1625836,24.9143167
15,Myllypurontie,00920,60.2282828,25.0650613
15,Myllypurontie,00920,60.2282789,25.0647489
22,Myllypurontie,00920,60.2235837,25.0595398
3,Jauhokuja,00920,60.2243031,25.0777342
1,Orpaanporras,00920,60.2241391,25.0747428
18,Mikonkatu,00100,60.1721106,24.9449953
1,Laippatie,00880,60.2096224,25.0543806
1,Pulttitie,00880,60.2107746,25.0533204
21,Itämerenkatu,00180,60.1635872,24.9108980
21,Itämerenkatu,00180,60.1635083,24.9099552
46,Runeberginkatu,00260,60.1794724,24.9230866
2,Vähänkyröntie,00610,60.2076291,24.9461960
46,Mannerheimintie,00260,60.1789344,24.9279086
12,Lapinlahdenkatu,00180,60.1672470,24.9242236
12,Punavuorenkatu,00150,60.1609681,24.9377224
6,Hietalahdenranta,00120,60.1605736,24.9296765
10,Museokatu,00100,60.1740595,24.9315706
22,Nordenskiöldinkatu,00240,60.1929058,24.9304985
4,Eteläinen Rautatiekatu,00100,60.1705978,24.9326073
39,Mechelininkatu,00250,60.1835086,24.9159034
6,Säästöpankinranta,00530,60.1789120,24.9472739
2,Korkeavuorenkatu,00140,60.1599267,24.9464208
4,Ostostie,00940,60.2368392,25.0820171
4,Ostostie,00940,60.2375033,25.0834903
4,Ostostie,00940,60.2371058,25.0839167
4,Ostostie,00940,60.2377166,25.0851575
4,Keinulaudankuja,00940,60.2364474,25.0843025
4,Keinulaudankuja,00940,60.2363258,25.0841642
25,Mechelininkatu,00100,60.1743560,24.9192024
29,Vanha viertotie,00380,60.2136891,24.8801151
37,Pihlajamäentie,00700,60.2410992,25.0211661
39,Kivikonkaari,00940,60.2330996,25.0616429
12,Kivikonkaari,00940,60.2397656,25.0683236
8,Kaivolahdenkatu,00810,60.1880550,25.0374021
42,Laivalahdenkaari,00810,60.1867618,25.0304858
17,Mechelininkatu,00100,60.1725874,24.9201499
13,Mechelininkatu,00100,60.1719895,24.9204769
1-3,Vaakalinnuntie,00610,60.2134830,24.9424265
14,Turunlinnantie,00930,60.2105009,25.0783340
14,Turunlinnantie,00930,60.2106792,25.0784856
4,Tallinnanaukio,00930,60.2107169,25.0791628
6,Tallinnanaukio,00930,60.2107901,25.0795455
12,Turunlinnantie,00930,60.2108123,25.0795282
8,Turunlinnantie,00930,60.2112694,25.0810647
6,Turunlinnantie,00930,60.2121992,25.0824078
1-7,Itäkatu,00930,60.2130344,25.0843498
1,Itäkatu,00930,60.2129127,25.0850149
1,Itäkatu,00930,60.2110099,25.0806853
2,Korsholmantie,00900,60.2138652,25.0824434
2,Kastelholmantie,00900,60.2129500,25.0801296
1 B,Mannerheiminaukio,00100,60.1713362,24.9376471
6,Hietalahdenranta,00120,60.1606889,24.9292836
5,Vuosaarentie,00980,60.2085650,25.1413753
45,Vuotie,00980,60.2072601,25.1452682
45,Vuotie,00980,60.2073108,25.1447728
"45, level T",Vuotie,00980,60.2073540,25.1448332
45,Vuotie,00980,60.2074392,25.1451623
45,Vuotie,00980,60.2067496,25.1454165
"1, level T",Valkopaadentie,00980,60.2065814,25.1455115
45,Vuotie,00980,60.2066445,25.1459571
"45, level A",Vuotie,00980,60.2069311,25.1457414
45,Vuotie,00980,60.2068009,25.1458653
11 D,Meripellontie,00910,60.2075734,25.1069660
11 D,Meripellontie,00910,60.2074721,25.1065583
4,Vuotie,00980,60.2051691,25.1196960
1,Messuaukio,00520,60.2017710,24.9373402
11,Ratapihantie,00520,60.2004352,24.9344691
2,Itämerenkatu,00180,60.1633794,24.9206903
2,Veturitori,00520,60.1997317,24.9375965
3,Veturitori,00520,60.1998398,24.9360668
3,Ratapihankatu,00520,60.1972948,24.9359116
3,Ratavartijankatu,00520,60.1975977,24.9362945
6,Säästöpankinranta,00530,60.1790197,24.9476688
5,Paasivuorenkatu,00530,60.1785669,24.9475741
20,Helsinginkatu,00530,60.1867726,24.9517696
3-5,Kaarlenkatu,00530,60.1848357,24.9517632
23,Pohjoinen Rautatiekatu,00100,60.1697850,24.9271007
7,Kanavaranta,00160,60.1688290,24.9591777
38,Albertinkatu,00120,60.1650820,24.9319375
36,Kalevankatu,00100,60.1650117,24.9316791
40,Bulevardi,00120,60.1626526,24.9331385
2 b,Varikkotie,00880,60.2104066,25.0616810
1,Lirokuja,00940,60.2337966,25.0803802
4,Ostostie,00940,60.2368383,25.0837604
1 A,Kontulankaari,00940,60.2364635,25.0846893
14,Kaarelantie,00430,60.2443792,24.8987969
18-20,Siltasaarenkatu,00530,60.1800389,24.9486930
18-20,Siltasaarenkatu,00530,60.1802596,24.9491087
18-20,Siltasaarenkatu,00530,60.1805553,24.9491836
18-20,Siltasaarenkatu,00530,60.1805527,24.9485642
18,Siltasaarenkatu,00530,60.1801840,24.9494912
18,Siltasaarenkatu,00530,60.1801596,24.9494202
1,Porthaninkatu,00530,60.1811024,24.9500711
11,Siltasaarenkatu,00530,60.1807902,24.9499012
14,Siltasaarenkatu,00530,60.1792089,24.9495553
2,Säästöpankinranta,00530,60.1794166,24.9493339
39,Koskelantie,00610,60.2148574,24.9681040
8,Käpyläntie,00600,60.2159840,24.9580840
1,Mäkitorpantie,00620,60.2217879,24.9480051
23,Mikonkatu,00100,60.1721370,24.9457455
3,Ratavartijankatu,00520,60.1974903,24.9358092
2,Kraputie,00890,60.2510356,25.1740155
1,Visbynkatu,00930,60.2101679,25.0884417
1,Visbynkatu,00930,60.2102811,25.0887255
10,Kauppakartanonkatu,00930,60.2091436,25.0881984
3,Kauppakartanonkatu,00930,60.2094802,25.0863080
1-5,Itäkatu,00930,60.2113539,25.0816404
5,Kauppakartanonkatu,00930,60.2085967,25.0841136
24,Roihuvuorentie,00820,60.2019265,25.0592150
10,Roihuvuorentie,00820,60.1979502,25.0551057
8,Käpyläntie,00600,60.2159390,24.9582486
29,Mäkelänkatu,00550,60.1947995,24.9570740
31,Mäkelänkatu,00550,60.1950072,24.9565826
31,Mäkelänkatu,00550,60.1951144,24.9567546
45,Mäkelänkatu,00550,60.1972187,24.9511653
2,Vähänkyröntie,00610,60.2075477,24.9465024
9,Koskelantie,00610,60.2088171,24.9477937
5,Osmontie,00610,60.2106492,24.9502180
19,Koskelantie,00610,60.2105474,24.9522462
54,Koskelantie,00610,60.2120349,24.9541838
11,Panuntie,00620,60.2219379,24.9487751
14,Läkkisepäntie,00620,60.2200334,24.9404329
1,Huokotie,00770,60.2614867,25.0758282
2,Jakomäenkuja,00770,60.2610705,25.0762445
4,Jakomäenkuja,00770,60.2611450,25.0760622
1,Huokotie,00770,60.2619712,25.0760378
1,Ratavallintie,00720,60.2410490,24.9957870
3,Meripihkatie,00710,60.2341403,25.0110236
2,Säterintie,00720,60.2432044,24.9936953
1,Eskolantie,00720,60.2437763,24.9947743
4 E,Ratavartijankatu,00520,60.1969783,24.9375880
2,Kampinkuja,00120,60.1681411,24.9306796
7,Kumpulantie,00520,60.1966039,24.9442292
52,Mäkelänkatu,00510,60.1966274,24.9512148
58-60,Mäkelänkatu,00510,60.1973100,24.9494295
38,Mäkelänkatu,00510,60.1951566,24.9548625
29,Sturenkatu,00510,60.1940976,24.9569826
22,Mäkelänkatu,00510,60.1937384,24.9579215
20,Mäkelänkatu,00510,60.1935688,24.9582287
15,Mäkelänkatu,00550,60.1926100,24.9612206
11,Mäkelänkatu,00550,60.1917726,24.9620781
20,Vilhonvuorenkatu,00500,60.1869667,24.9655967
22,Läkkisepäntie,00620,60.2209299,24.9425369
3,Viikintori,00790,60.2275152,25.0096967
3,Viikintori,00790,60.2274424,25.0092966
2,Hiihtäjäntie,00810,60.1944206,25.0283195
2,Laulukuja,00420,60.2377502,24.8890086
14,Itämerenkatu,00180,60.1632015,24.9155624
14,Itämerenkatu,00180,60.1629399,24.9143769
14,Itämerenkatu,00180,60.1627954,24.9145001
14,Itämerenkatu,00180,60.1628621,24.9142608
2,Itämerenkuja,00180,60.1627664,24.9142663
2,Itämerenkuja,00180,60.1626674,24.9143055
1,Itämerenkuja,00180,60.1625752,24.9138908
1,Kaapeliaukio,00180,60.1625551,24.9075649
30,Itämerenkatu,00180,60.1629160,24.9061594
26,Itämerenkatu,00180,60.1629670,24.9082156
11,Itämerenkatu,00180,60.1635455,24.9152812
4,Selkämerenkatu,00180,60.1632382,24.9157111
8,Kirkkoherrantie,00650,60.2252261,24.9725545
8,Kirkkoherrantie,00650,60.2251124,24.9724961
2,Postikuja,00100,60.1723942,24.9376545
19,Pitäjänmäentie,00370,60.2242525,24.8592157
28,Fredrikinkatu,00120,60.1645227,24.9364905
25,Annankatu,00100,60.1672949,24.9365563
23,Annankatu,00100,60.1672061,24.9366771
7,Bulevardi,00120,60.1648670,24.9381002
9,Bulevardi,00120,60.1647366,24.9377736
41,Fredrikinkatu,00120,60.1651791,24.9360783
30,Fredrikinkatu,00120,60.1651499,24.9356242
16 D,Lönnrotinkatu,00120,60.1650012,24.9350977
22,Lönnrotinkatu,00120,60.1646178,24.9338521
25,Lönnrotinkatu,00180,60.1647048,24.9334065
31,Albertinkatu,00180,60.1650020,24.9325500
111,Hämeentie,00560,60.2025587,24.9678310
24,Roihuvuorentie,00820,60.2020838,25.0588153
26,Roihuvuorentie,00820,60.2021509,25.0587758
28,Roihuvuorentie,00820,60.2024342,25.0591379
28,Roihuvuorentie,00820,60.2025025,25.0591379
30,Roihuvuorentie,00820,60.2027264,25.0589836
30,Roihuvuorentie,00820,60.2030085,25.0590099
1,Turunlinnantie,00930,60.2099223,25.0769067
7 E 45,Itäkatu,00930,60.2100916,25.0794793
5,Itäkatu,00930,60.2114399,25.0824150
1,Hiihtäjäntie,00810,60.1948075,25.0280286
3,Vanhaistentie,00420,60.2414314,24.8853962
5,Luutnantintie,00410,60.2480455,24.8636118
8,Puustellinpolku,00410,60.2464887,24.8612058
4,Malminkartanonaukio,00410,60.2473185,24.8617892
3,Puustellinrinne,00410,60.2477935,24.8621414
5,Luutnantinaukio,00410,60.2480864,24.8637724
5,Kantelettarentie,00420,60.2382969,24.8885509
7,Klaneettitie,00420,60.2393548,24.8754538
1,Piianpolku,00410,60.2434977,24.8589281
7,Klaneettitie,00420,60.2391972,24.8746960
5,Klaneettitie,00420,60.2387865,24.8759076
13,Hitsaajankatu,00810,60.1928099,25.0311014
22,Kiskontie,00280,60.2023251,24.9051911
170,Mannerheimintie,00300,60.2034572,24.8983071
30,Albertinkatu,00120,60.1627768,24.9351916
96,Mannerheimintie,00250,60.1879827,24.9181038
15,Hitsaajankatu,00810,60.1929028,25.0316180
6,Laivalahdenportti,00810,60.1911289,25.0344154
19,Siltavoudintie,00640,60.2345501,24.9663898
4,Kaupintie,00440,60.2324917,24.8873685
25,Helsinginkatu,00510,60.1866842,24.9482193
111,Hämeentie,00560,60.2028056,24.9681306
7,Toinen linja,00530,60.1813054,24.9494741
19,Mechelininkatu,00100,60.1730093,24.9198984
7,Klaneettitie,00420,60.2394535,24.8758537
3d,Vanhaistentie,00420,60.2428432,24.8855676
3c,Vanhaistentie,00420,60.2426029,24.8855732
7,Klaneettitie,00420,60.2391325,24.8748900
10,Luutnantintie,00410,60.2477628,24.8640307
6,Hämeentie,00530,60.1807291,24.9517548
42,Hämeentie,00500,60.1856417,24.9607687
23,Hämeentie,00500,60.1865653,24.9616258
25,Hämeentie,00500,60.1870650,24.9617547
29,Hämeentie,00500,60.1874674,24.9623511
29,Hämeentie,00500,60.1874043,24.9620591
31,Hämeentie,00500,60.1877320,24.9634139
5,Vilhonvuorenkatu,00500,60.1873382,24.9647677
46,Hiihtomäentie,00800,60.2066468,25.0342398
21,Vihdintie,00320,60.2132972,24.8863790
14,Pajamäentie,00360,60.2184769,24.8551720
25,Intiankatu,00560,60.2084991,24.9664618
7A,Takkatie,00370,60.2229535,24.8549773
1,Arinatie,00370,60.2222357,24.8533482
8,Runeberginkatu,00100,60.1705523,24.9252845
6,Mannerheimintie,00100,60.1671516,24.9419614
8,Strömbergintie,00380,60.2207307,24.8641909
4,Korppaanmäentie,00300,60.2032695,24.8973829
1,Raumantie,00350,60.2060603,24.8767098
22,Huopalahdentie,00350,60.2068643,24.8790879
1,Raumantie,00350,60.2058344,24.8771099
39,Eerikinkatu,00180,60.1642200,24.9261944
6 A,Opastinsilta,00520,60.1992062,24.9404431
5,Ratamestarinkatu,00520,60.1992888,24.9403143
4,Metsäpurontie,00630,60.2311911,24.9331620
50,Bulevardi,00120,60.1610451,24.9316657
3,Eerikinkatu,00100,60.1677068,24.9363589
2,Eerikinkatu,00100,60.1677885,24.9372757
30,Yrjönkatu,00100,60.1676913,24.9377756
8,Kirkkoherrantie,00650,60.2250867,24.9721357
2,Oulunkyläntie,00600,60.2206440,24.9624147
42,Isokaari,00200,60.1612278,24.8595820
1,Roihuvuorentie,00820,60.1969340,25.0546411
9,Isokaari,00200,60.1570348,24.8684967
27,Itälahdenkatu,00210,60.1536767,24.8805383
2,Kiviaidankatu,00210,60.1537539,24.8833373
1,Nahkahousuntie,00210,60.1510912,24.8855999
55a,Runeberginkatu,00260,60.1794287,24.9238507
7,Tykistönkatu,00260,60.1793389,24.9253451
6,Töölöntorinkatu,00260,60.1786171,24.9246978
5,Pohjoinen Hesperiankatu,00260,60.1777972,24.9276191
25,Museokatu,00100,60.1754592,24.9223099
21,Eerikinkatu,00120,60.1658412,24.9309581
29,Annankatu,00100,60.1678963,24.9357110
3,Ruoholahdenranta,00180,60.1619785,24.9244835
14,Linnankoskenkatu,00250,60.1848690,24.9155921
102,Mannerheimintie,00250,60.1890333,24.9169815
1-3,Toivonkatu,00250,60.1843259,24.9244059
32-34,Sturenkatu,00550,60.1955285,24.9586197
43,Pohjolankatu,00610,60.2163774,24.9532757
1,Helsinginkatu,00500,60.1877983,24.9601076
1,Helsinginkatu,00500,60.1878943,24.9601747
4,Vaasankatu,00500,60.1882090,24.9588731
10,Vaasankatu,00500,60.1882459,24.9571399
18,Helsinginkatu,00530,60.1868222,24.9528341
1,Helsinginkatu,00500,60.1877247,24.9596560
2,Töölönlahdenkatu,00100,60.1721939,24.9383393
1,Kaasutehtaankatu,00540,60.1867373,24.9728695
12,Kaivokatu,00100,60.1699967,24.9393383
3,Kauppakartanonkatu,00930,60.2097924,25.0855125
2,Kastelholmantie,00900,60.2138999,25.0826035
4-6,Hansakuja,00930,60.2098417,25.0813835
2,Kyösti Kallion tie,00570,60.1863214,25.0081392
1,Svinhufvudintie,00570,60.1863800,25.0077905
17 C,Pohjoinen Hesperiankatu,00260,60.1772904,24.9228060
30,Linnavuorentie,00950,60.2234006,25.1154379
30,Linnavuorentie,00950,60.2232842,25.1151161
33,Takomotie,00380,60.2177798,24.8696240
9,Eteläreimarintie,00980,60.2080230,25.1737480
1,Raumantie,00350,60.2059785,24.8764395
21,Aleksanterinkatu,00100,60.1689067,24.9414031
34,Yrjönkatu,00100,60.1682197,24.9366147
12,Simonkatu,00100,60.1686407,24.9354605
25,Yrjönkatu,00100,60.1679499,24.9379584
20,Mannerheimintie,00100,60.1691342,24.9379041
2,Simonkatu,00100,60.1693833,24.9378281
1,Merisotilaantori,00160,60.1680199,24.9749938
1,Kantelettarentie,00420,60.2374735,24.8929566
14,Näyttelijäntie,00400,60.2300409,24.8955485
14,Näyttelijäntie,00400,60.2299690,24.8956544
14,Näyttelijäntie,00400,60.2296432,24.8956122
14,Näyttelijäntie,00400,60.2296059,24.8968375
14,Näyttelijäntie,00400,60.2296028,24.8964490
8,Aino Acktén tie,00400,60.2258397,24.8951557
27,Sturenkatu,00510,60.1937284,24.9558688
2,Itämerenkatu,00180,60.1633697,24.9200544
1 A 24,Urho Kekkosen katu,00100,60.1695115,24.9328813
14,Metsolantie,00610,60.2135833,24.9509885
43,Yhdyskunnantie,00680,60.2486246,24.9584449
8,Käpyläntie,00600,60.2161443,24.9585223
1,Harakka,00140,60.1520023,24.9578620
1,Pohjoinen Uunisaari,00140,60.1538214,24.9521030
68,Hämeentie,00500,60.1906374,24.9642158
3,Sitratori,00420,60.2394841,24.8763266
7,Klaneettitie,00420,60.2392108,24.8751903
7,Klaneettitie,00420,60.2394777,24.8757099
2,Kinaporinkatu,00500,60.1883645,24.9605564
12,Valokaari,00750,60.2809658,25.0179860
2,Malminkartanonaukio,00410,60.2475332,24.8625985
2,Lastenkodinkuja,00180,60.1661420,24.9250083
32,Lauttasaarentie,00200,60.1602971,24.8812772
19,Lapinlahdenkatu,00180,60.1671168,24.9268804
6,Lapinlahdenkatu,00180,60.1668082,24.9266758
16,Hietalahdenkatu,00180,60.1644328,24.9257844
17,Pitäjänmäentie,00370,60.2241352,24.8599412
150,Hämeentie,00560,60.2103751,24.9763854
135 A,Hämeentie,00560,60.2085089,24.9780825
135,Hämeentie,00560,60.2088972,24.9758780
31,Hämeentie,00500,60.1878114,24.9631850
16,Ilmarinkatu,00100,60.1740973,24.9215413
26,Runeberginkatu,00100,60.1742788,24.9218869
27,Museokatu,00100,60.1755167,24.9214686
32,Runeberginkatu,00100,60.1762380,24.9218369
25,Museokatu,00100,60.1754304,24.9224023
46,Museokatu,00100,60.1750490,24.9190949
44,Runeberginkatu,00260,60.1785660,24.9224456
105,Mannerheimintie,00280,60.2045050,24.8998283
14,Paciuksenkaari,00270,60.1956174,24.8937226
1a,Kiskontie,00280,60.1986172,24.9022403
21,Runeberginkatu,00100,60.1710013,24.9253696
5,Sammatintie,00550,60.1973401,24.9601780
3a,Oksasenkatu,00100,60.1745885,24.9241986
6,Oksasenkatu,00100,60.1748960,24.9234044
32,Oulunkyläntie,00640,60.2287473,24.9634355
1,Käpylänkuja,00610,60.2148830,24.9569068
29,Käpyläntie,00600,60.2215565,24.9618255
35,Sturenkatu,00550,60.1950172,24.9584950
13,Aurorankatu,00100,60.1722049,24.9301239
17,Arkadiankatu,00100,60.1713531,24.9278825
15,Arkadiankatu,00100,60.1713296,24.9285498
19,Malminkaari,00700,60.2520103,25.0144843
13,Vihdintie,00320,60.2115180,24.8879283
3,Merikannontie,00260,60.1771889,24.9140230
1,Hiekkarannantie,00100,60.1755009,24.9145025
13,Runeberginkatu,00100,60.1699006,24.9270000
48,Fredrikinkatu,00100,60.1696151,24.9291719
10,Maanmittarintie,00680,60.2436143,24.9534496
42,Kansantie,00680,60.2392751,24.9504788
22,Koskelantie,00610,60.2071527,24.9377109
6,Pasilankatu,00240,60.1970342,24.9282796
2,Esterinportti,00240,60.1971341,24.9282438
17,Pohjoinen Hesperiankatu,00260,60.1773557,24.9235208
1,Caloniuksenkatu,00100,60.1736058,24.9197621
10,Caloniuksenkatu,00100,60.1750599,24.9212002
2,Caloniuksenkatu,00100,60.1741653,24.9197180
12,Siltavoudintie,00640,60.2313779,24.9671917
8,Käpyläntie,00600,60.2162709,24.9586512
9,Siltavoudintie,00640,60.2311858,24.9682783
22,Paloheinäntie,00670,60.2493050,24.9412671
8,Kaivokatu,00100,60.1701475,24.9417929
11,Ratapihantie,00520,60.2006890,24.9343167
15,Koulumestarintie,00680,60.2480596,24.9526747
7,Eino Leinon katu,00250,60.1839217,24.9185844
2,Fredriksberginkatu,00240,60.1979142,24.9274249
2,Esterinportti,00240,60.1971487,24.9278577
5,Pasilanraitio,00240,60.1976459,24.9271200
2,Esterinportti,00240,60.1970657,24.9273857
3,Maistraatinportti,00240,60.1988686,24.9255666
4,Pasilankatu,00240,60.1963487,24.9285329
8,Pasilankatu,00240,60.1974527,24.9279772
4b,Helsinginkatu,00500,60.1873527,24.9591034
4,Helsinginkatu,00500,60.1874067,24.9596245
19,Hämeentie,00500,60.1855506,24.9614684
40,Hämeentie,00500,60.1852411,24.9605326
38,Hämeentie,00500,60.1849206,24.9602001
7,Viides linja,00530,60.1830613,24.9542452
7,Hämeentie,00530,60.1816981,24.9555196
2,Neljäs linja,00530,60.1816369,24.9539999
9,Metsäläntie,00620,60.2210371,24.9162233
11,Mäkitorpantie,00620,60.2243577,24.9518736
5,Ruoholahdenranta,00180,60.1626583,24.9235119
2,Itämerentori,00180,60.1638926,24.9142374
23,Metsäpurontie,00630,60.2280285,24.9267515
32,Alkutie,00660,60.2377182,24.9365857
29,Saarnaajantie,00660,60.2369517,24.9369221
13,Saarnaajantie,00660,60.2376611,24.9433997
15,Jakokunnantie,00660,60.2405533,24.9441492
8,Kyläkunnantie,00660,60.2411919,24.9388426
37,Töölönkatu,00260,60.1820950,24.9229938
29,Töölönkatu,00260,60.1809357,24.9243360
50,Töölönkatu,00250,60.1834777,24.9202215
47,Töölönkatu,00250,60.1832481,24.9212211
3,Vartiokyläntie,00950,60.2186076,25.1031272
9,Mannerheimintie,00100,60.1706546,24.9386883
9,Mannerheimintie,00100,60.1707589,24.9389467
1,Humalistonkatu,00250,60.1850874,24.9208553
3,Maistraatinportti,00240,60.1990604,24.9255663
18,Tuomarinkyläntie,00690,60.2554716,24.9707791
36,Merimiehenkatu,00150,60.1591529,24.9332335
35,Sturenkatu,00550,60.1949911,24.9584324
33,Autotallintie,00770,60.2622432,25.0551695
15,Autotallintie,00770,60.2591846,25.0510365
24,Akkutie,00770,60.2614991,25.0565859
36,Rattitie,00770,60.2630909,25.0526169
65,Fredrikinkatu,00100,60.1692860,24.9304147
19,Kasarmikatu,00130,60.1653073,24.9482923
71,Fredrikinkatu,00100,60.1709714,24.9280495
67,Fredrikinkatu,00100,60.1703491,24.9288885
1,Myllypurontie,00920,60.2241709,25.0770390
8,Annankatu,00120,60.1638240,24.9409540
28,Helsinginkatu,00510,60.1863364,24.9479755
19,Mannerheimintie,00250,60.1841971,24.9240183
2,Hämeentie,00530,60.1801406,24.9500072
21,Veturitie,00240,60.2060465,24.9288394
45,Vuotie,00980,60.2074640,25.1446361
1,Messuaukio,00520,60.2030468,24.9350139
2,Varikkotie,00880,60.2096352,25.0618250
7,Itäkatu,00930,60.2106133,25.0809001
18,Malmin kauppatie,00700,60.2516300,25.0102962
14,Siltasaarenkatu,00530,60.1790796,24.9498288
8,Salomonkatu,00100,60.1685261,24.9299885
1a,Runeberginkatu,00100,60.1683736,24.9297380
1,Ruusulankatu,00260,60.1814546,24.9257174
17,Aurorankatu,00100,60.1716188,24.9287701
19,Aurorankatu,00100,60.1714390,24.9287459
16,Aurorankatu,00100,60.1718986,24.9301499
3,Nervanderinkatu,00100,60.1720270,24.9312504
4,Ainonkatu,00100,60.1717628,24.9318507
1,Nervanderinkatu,00100,60.1715118,24.9319830
6,Arkadiankatu,00100,60.1709214,24.9339219
6,Työmiehenkatu,00180,60.1671240,24.9241367
11,Työmiehenkatu,00180,60.1668274,24.9245512
2,Työmiehenkatu,00180,60.1665525,24.9237461
4,Työmiehenkatu,00180,60.1668256,24.9238975
31,Lapinlahdenkatu,00180,60.1675119,24.9239836
9,Lastenkodinkatu,00180,60.1661225,24.9242444
3,Lastenkodinkatu,00180,60.1659179,24.9262277
5,Lastenkodinkatu,00180,60.1660139,24.9257985
4,Lapinrinne,00180,60.1672421,24.9270901
3,Lapinrinne,00100,60.1675278,24.9279031
6,Lapinrinne,00100,60.1677495,24.9273444
5,Malminkatu,00100,60.1683230,24.9252584
40,Malminkatu,00100,60.1681609,24.9244037
2,Antinkatu,00100,60.1704638,24.9322772
1,Antinkatu,00100,60.1704563,24.9316512
48,Fredrikinkatu,00100,60.1694543,24.9293977
2,Annanaukio,00100,60.1692284,24.9342016
1,Simonkatu,00100,60.1697538,24.9377422
1,Freesenkatu,00100,60.1718868,24.9290586
5,Freesenkatu,00100,60.1723384,24.9283332
6,Freesenkatu,00100,60.1721231,24.9280230
14,Dagmarinkatu,00100,60.1721351,24.9277248
16,Arkadiankatu,00100,60.1711150,24.9268410
12,Klaneettitie,00420,60.2389635,24.8741792
21,Mannerheimintie,00250,60.1842992,24.9237222
12,Lapinlahdenkatu,00180,60.1672261,24.9240861
16,Valhallankatu,00250,60.1852885,24.9124272
1-3,Toivonkatu,00250,60.1844098,24.9245065
2,Ruusulankatu,00260,60.1812624,24.9252614
16,Dagmarinkatu,00100,60.1719626,24.9271575
1,Puistolantori,00760,60.2746207,25.0450793
1,Puistolantori,00760,60.2747324,25.0448597
4 A,Köydenpunojankatu,00180,60.1623144,24.9259094
7,Tammasaarenkatu,00180,60.1616470,24.9066157
5,Meilahdentie,00250,60.1921861,24.8861921
3,Lokkalantie,00330,60.1997595,24.8838632
2,Lokkalantie,00330,60.1995735,24.8846452
80,Mannerheimintie,00250,60.1858934,24.9207291
7,Humalistonkatu,00250,60.1846647,24.9196104
13,Bulevardi,00120,60.1643572,24.9365768
32,Bulevardi,00120,60.1632772,24.9344244
23,Latokartanonkaari,00790,60.2336876,25.0327619
1,Haartmaninkatu,00290,60.1895943,24.9109048
100,Mannerheimintie,00250,60.1885400,24.9176091
114,Mannerheimintie,00250,60.1908657,24.9131435
2,Päivärinnankatu,00250,60.1886719,24.9172551
96,Mannerheimintie,00250,60.1880703,24.9180812
76,Mannerheimintie,00250,60.1850570,24.9218182
12,Ruoholahdenkatu,00180,60.1655631,24.9277851
35,Eerikinkatu,00180,60.1645933,24.9275053
33,Eerikinkatu,00180,60.1647377,24.9279132
2,Sandelsinkatu,00260,60.1785917,24.9245263
6,Sandelsinkatu,00260,60.1786540,24.9234247
1a,Töölöntorinkatu,00260,60.1776572,24.9253687
55,Runeberginkatu,00260,60.1796809,24.9239896
68,Mannerheimintie,00260,60.1829788,24.9249434
4,Kalevankatu,00100,60.1677906,24.9398332
2,Kalevankatu,00100,60.1679639,24.9403736
29,Kalevankatu,00100,60.1658722,24.9334037
47,Fredrikinkatu,00100,60.1663214,24.9345968
47,Fredrikinkatu,00100,60.1662718,24.9346027
40,Fredrikinkatu,00100,60.1667827,24.9333624
38,Fredrikinkatu,00100,60.1664191,24.9338106
11,Eerikinkatu,00100,60.1670266,24.9342502
12,Itämerenkatu,00180,60.1632233,24.9160972
6,Selkämerenkatu,00180,60.1622565,24.9158879
10,Selkämerenkatu,00180,60.1613270,24.9160007
5,Messitytönkatu,00180,60.1606170,24.9139815
1,Messitytönkatu,00180,60.1610190,24.9150892
2,Lapuankatu,00100,60.1709154,24.9235255
26,Eteläinen Hesperiankatu,00100,60.1762225,24.9215056
21,Pohjoinen Hesperiankatu,00260,60.1773010,24.9218524
2,Malmin raitti,00700,60.2524973,25.0067876
40,Sturenkatu,00550,60.1962572,24.9600835
5,Pasilanraitio,00240,60.1977242,24.9270746
9,Pasilanraitio,00240,60.1994043,24.9253822
4,Maistraatinportti,00240,60.1982901,24.9258865
8a,Köydenpunojankatu,00180,60.1635824,24.9241717
4,Jaalaranta,00180,60.1607669,24.9141867
5,Keskuskatu,00100,60.1692005,24.9432328
16,Sturenkatu,00510,60.1927103,24.9521155
46,Runeberginkatu,00260,60.1796891,24.9232411
3,Kartanontie,00330,60.1943942,24.8804316
12,Kartanontie,00330,60.1940344,24.8802387
6-10,Kartanontie,00330,60.1936652,24.8805440
4,Kartanontie,00330,60.1932010,24.8809450
12,Tammitie,00330,60.1945413,24.8796163
5,Saunalahdentie,00330,60.1932340,24.8779367
3,Saunalahdentie,00330,60.1930848,24.8783443
1,Saunalahdentie,00330,60.1928485,24.8789238
2,Kartanontie,00330,60.1928584,24.8814149
5,Hirvilahdenkuja,00430,60.1890118,24.8679308
3,Lönnrotin puistikko,00100,60.1669948,24.9385194
5,Lönnrotin puistikko,00100,60.1665825,24.9381382
7,Lönnrotinkatu,00100,60.1664105,24.9381917
35,Merimiehenkatu,00150,60.1598948,24.9366505
1a,Ratakatu,00120,60.1638205,24.9457852
1b,Ratakatu,00120,60.1637092,24.9454557
19,Kasarmikatu,00130,60.1649677,24.9481858
13,Pohjoinen Rautatiekatu,00100,60.1713798,24.9314520
2,Nummitie,00760,60.2693521,25.0639360
47,Kirkonkyläntie,00780,60.2585567,24.9945292
9,Caloniuksenkatu,00100,60.1745981,24.9213358
2,Sammonkatu,00100,60.1730461,24.9235095
2b,Oksasenkatu,00100,60.1739740,24.9240338
23,Arkadiankatu,00100,60.1715140,24.9245947
28,Malminkatu,00100,60.1676671,24.9280754
24,Malminkatu,00100,60.1675268,24.9292314
18,Malminkatu,00100,60.1673432,24.9306785
7,Lapinlahdenkatu,00180,60.1666933,24.9301057
3,Lapinlahdenkatu,00180,60.1665578,24.9312981
1a,Lapinlahdenkatu,00180,60.1664082,24.9322511
15-17,Eerikinkatu,00100,60.1665840,24.9330650
51-53,Fredrikinkatu,00100,60.1670097,24.9335709
18,Eerikinkatu,00100,60.1664594,24.9335419
55,Fredrikinkatu,00100,60.1672278,24.9332361
57,Fredrikinkatu,00100,60.1673727,24.9330328
1a,Kansakoulukatu,00100,60.1683142,24.9344394
35,Annankatu,00100,60.1688243,24.9346024
2,Urho Kekkosen katu,00100,60.1687572,24.9337184
8,Urho Kekkosen katu,00100,60.1682664,24.9322322
2,Kampinkuja,00100,60.1682905,24.9305051
102,Mannerheimintie,00250,60.1891320,24.9168206
30,Laajalahdentie,00330,60.2014797,24.8766060
9,Munkkiniemen puistotie,00330,60.1974453,24.8811753
33,Solnantie,00330,60.1978737,24.8796515
3,Salomonkatu,00100,60.1704434,24.9340000
56,Fredrikinkatu,00100,60.1703707,24.9282706
28,Solnantie,00330,60.1980106,24.8790618
25,Kadetintie,00330,60.1977457,24.8822615
10,Perustie,00330,60.1979872,24.8835675
2,Hietaniemenkatu,00100,60.1696539,24.9260801
12,Huopalahdentie,00330,60.1991775,24.8831149
12,Linnankoskenkatu,00250,60.1850728,24.9169713
1,Raumantie,00350,60.2060107,24.8770543
1,Linnankoskenkatu,00250,60.1858214,24.9206029
5,Linnankoskenkatu,00250,60.1856617,24.9196952
8,Itämerenkatu,00180,60.1633201,24.9181866
69,Mannerheimintie,00250,60.1912480,24.9136136
39,Mannerheimintie,00250,60.1873462,24.9196893
19,Mannerheimintie,00250,60.1843366,24.9239272
20,Mannerheimintie,00100,60.1694785,24.9378326
24,Laajalahdentie,00330,60.1992355,24.8765863
26,Laajalahdentie,00330,60.1996714,24.8768365
17,Laajalahdentie,00330,60.1994080,24.8774604
3,Munkkiniemen puistotie,00330,60.1969900,24.8832904
30,Solnantie,00330,60.1983675,24.8794514
11,Tukholmankatu,00270,60.1914500,24.9068215
5,Huopalahdentie,00330,60.1980000,24.8846699
7,Huopalahdentie,00330,60.1985010,24.8844066
9,Huopalahdentie,00330,60.1989918,24.8842185
11,Huopalahdentie,00330,60.1993035,24.8840604
4,Lokkalantie,00330,60.1994114,24.8840934
14,Rakuunantie,00330,60.2000339,24.8845365
7,Perustie,00330,60.1982691,24.8834682
20,Kadetintie,00330,60.1977991,24.8814197
16,Kadetintie,00330,60.1969024,24.8808945
10,Kalastajatorpantie,00330,60.1935362,24.8752686
7,Saunalahdentie,00330,60.1934070,24.8774639
20,Hollantilaisentie,00330,60.1941269,24.8736209
18,Hollantilaisentie,00330,60.1940367,24.8736505
6,Hollantilaisentie,00330,60.1933800,24.8738635
2,Näätäkuja,00800,60.2041123,25.0392740
1,Näätäkuja,00800,60.2043669,25.0393143
37,Solnantie,00330,60.1988887,24.8805775
2,Munkkiniemen puistotie,00330,60.1963696,24.8838679
13,Saunalahdentie,00330,60.1945510,24.8734167
6,Apajapolku,00330,60.1999287,24.8636281
36,Tiilimäki,00330,60.1995111,24.8640070
34,Tiilimäki,00330,60.1993966,24.8643766
15,Tuulaspolku,00330,60.1993599,24.8644135
1,Tuulaspolku,00330,60.1994163,24.8687311
10,Nuottapolku,00330,60.1994644,24.8688730
7,Nuottapolku,00330,60.1988225,24.8687780
11,Nuottapolku,00330,60.1992326,24.8694046
9,Nuottapolku,00330,60.1990067,24.8689671
9,Nuottapolku,00330,60.1992318,24.8692168
25,Tiilimäki,00330,60.1987771,24.8688345
11,Tiilimäki,00330,60.1974301,24.8717699
9,Tiilimäki,00330,60.1972319,24.8719331
7,Tiilimäki,00330,60.1968274,24.8720718
10,Uimarinpolku,00330,60.1948639,24.8723965
28,Perustie,00330,60.1990069,24.8774774
26,Perustie,00330,60.1988465,24.8780598
24,Perustie,00330,60.1986434,24.8787437
22,Perustie,00330,60.1984849,24.8794423
16,Perustie,00330,60.1978998,24.8814659
16,Ilvestie,00800,60.2039085,25.0369019
17,Ilvestie,00800,60.2041070,25.0369433
2,Ilvestie,00800,60.2033367,25.0398020
1,Näätätie,00800,60.2036229,25.0393727
2,Näätätie,00800,60.2037124,25.0390407
5,Ilvestie,00800,60.2036778,25.0389388
3,Ilvestie,00800,60.2035802,25.0393899
1,Ilvestie,00800,60.2035019,25.0399795
4,Näätätie,00800,60.2040577,25.0393250
6,Näätätie,00800,60.2043869,25.0394108
30,Oravatie,00800,60.2035259,25.0400787
1,Tietokuja,00330,60.2023732,24.8760574
1,Uudenkaupungintie,00350,60.2037202,24.8688932
4,Uudenkaupungintie,00350,60.2031867,24.8677899
6,Uudenkaupungintie,00350,60.2033399,24.8663424
7,Uudenkaupungintie,00350,60.2040673,24.8645560
8,Uudenkaupungintie,00350,60.2036650,24.8647668
2,Professorintie,00330,60.2006344,24.8762405
10,Lokkalantie,00330,60.1993368,24.8821172
9,Lokkalantie,00330,60.1996345,24.8809641
6,Lokkalantie,00330,60.1992722,24.8829432
16,Tammitie,00330,60.1950633,24.8811840
2,Tallikuja,00330,60.1952109,24.8810972
4,Riihitie,00330,60.1949239,24.8827321
1,Riihitie,00330,60.1946763,24.8839838
7,Riihitie,00330,60.1956922,24.8824051
18,Tammitie,00330,60.1954103,24.8818322
10,Riihitie,00330,60.1960039,24.8809219
12,Riihitie,00330,60.1962088,24.8798750
14,Riihitie,00330,60.1964397,24.8787103
16,Riihitie,00330,60.1965861,24.8777289
10,Perämiehenkatu,00150,60.1587690,24.9344426
7,Lokkalantie,00330,60.1996369,24.8817682
1,Hirvitie,00800,60.2009827,25.0374770
3,Hirvitie,00800,60.2013600,25.0370479
5,Hirvitie,00800,60.2015186,25.0366724
7,Hirvitie,00800,60.2016245,25.0362346
9,Hirvitie,00800,60.2016735,25.0357474
1,Oravatie,00800,60.2010454,25.0374421
2,Oravatie,00800,60.2013605,25.0371428
28,Oravatie,00800,60.2032694,25.0398155
1,Porintie,00350,60.2040629,24.8711124
3,Teljäntie,00350,60.2091648,24.8694697
5,Teljäntie,00350,60.2090148,24.8702831
21,Solnantie,00330,60.1950824,24.8780656
23,Solnantie,00330,60.1953369,24.8779371
25,Solnantie,00330,60.1956908,24.8780622
27,Solnantie,00330,60.1964546,24.8784246
31,Solnantie,00330,60.1972481,24.8790781
26,Solnantie,00330,60.1972678,24.8785271
19,Riihitie,00330,60.1968087,24.8781151
20,Solnantie,00330,60.1961852,24.8776092
7,Tammitie,00330,60.1941141,24.8788416
32,Solnantie,00330,60.1988031,24.8797779
34,Solnantie,00330,60.1990768,24.8799281
6,Paciuksenkaari,00270,60.1961783,24.8974504
25,Munkkiniemen puistotie,00330,60.1991428,24.8735552
45,Topeliuksenkatu,00270,60.1914855,24.9110313
3,Reijolankatu,00250,60.1899141,24.9170025
2,Laajalahdentie,00330,60.1952238,24.8713582
1,Rantapolku,00330,60.1955397,24.8719278
7a,Rantapolku,00330,60.1963973,24.8709016
31,Munkkiniemenranta,00330,60.1987926,24.8651177
25,Munkkiniemenranta,00330,60.1982798,24.8669359
23,Munkkiniemenranta,00330,60.1980017,24.8672186
33,Munkkiniemenranta,00330,60.1990620,24.8640696
35,Munkkiniemenranta,00330,60.1992061,24.8636313
37,Munkkiniemenranta,00330,60.1993498,24.8626836
1,Apajapolku,00330,60.1992587,24.8635041
4,Ritokalliontie,00330,60.2000707,24.8619620
2,Ritokalliontie,00330,60.1999756,24.8635851
10,Tuulaspolku,00330,60.1995581,24.8662941
8,Tuulaspolku,00330,60.1995501,24.8667828
6,Tuulaspolku,00330,60.1993390,24.8672716
4,Tuulaspolku,00330,60.1992554,24.8678726
2,Tuulaspolku,00330,60.1991877,24.8685697
20,Mannerheimintie,00100,60.1693328,24.9382903
1,Mäntylahdenkuja,00430,60.1837120,24.8601911
2-4,Mäntylahdenkuja,00430,60.1839963,24.8608102
3,Solnantie,00330,60.1931378,24.8797369
1,Solnantie,00330,60.1930216,24.8798400
4-6,Solnantie,00330,60.1935337,24.8787175
8,Solnantie,00330,60.1939650,24.8784097
10,Solnantie,00330,60.1943460,24.8781362
10,Dosentintie,00330,60.2011418,24.8719077
12,Dosentintie,00330,60.2016392,24.8729155
21-23,Mannerheimintie,00250,60.1848009,24.9231214
9,Mannerheimintie,00100,60.1703221,24.9389201
26,Aleksanterinkatu,00170,60.1689130,24.9517450
1,Strömsinlahdenkuja,00820,60.2012145,25.0664959
2,Itäinen Brahenkatu,00510,60.1894367,24.9489384
17,Tammitie,00330,60.1952399,24.8822069
19,Tammitie,00330,60.1955013,24.8830198
21,Kadetintie,00330,60.1967778,24.8813161
17,Kadetintie,00330,60.1960572,24.8807352
15,Kadetintie,00330,60.1956640,24.8803396
13,Kadetintie,00330,60.1954234,24.8796554
11,Kadetintie,00330,60.1952620,24.8787345
23,Kadetintie,00330,60.1973554,24.8818545
18,Laajalahdentie,00330,60.1982042,24.8754414
16,Laajalahdentie,00330,60.1979408,24.8750907
14,Laajalahdentie,00330,60.1976146,24.8748162
1,Kartanontie,00330,60.1943327,24.8812784
14,Kartanontie,00330,60.1942940,24.8798796
13,Riihitie,00330,60.1964704,24.8803200
11,Riihitie,00330,60.1964153,24.8811033
2,Eino Leinon katu,00250,60.1835938,24.9235046
4,Eino Leinon katu,00250,60.1835992,24.9230030
1,Raumantie,00350,60.2061692,24.8787415
1,Raumantie,00350,60.2056755,24.8782530
1,Raumantie,00350,60.2057143,24.8779276
38,Töölönkatu,00260,60.1807368,24.9240079
36,Töölönkatu,00260,60.1803193,24.9246968
33,Töölönkatu,00260,60.1815473,24.9236558
31,Töölönkatu,00260,60.1811971,24.9240731
32a,Töölönkatu,00260,60.1794220,24.9253855
8,Tykistönkatu,00260,60.1790831,24.9254225
21,Ruusulankatu,00250,60.1835018,24.9228260
17,Ruusulankatu,00250,60.1830947,24.9234195
14,Ruusulankatu,00250,60.1829123,24.9229664
20,Ruusulankatu,00250,60.1835058,24.9221126
11-15,Töölönkatu,00100,60.1768589,24.9292281
5,Dagmarinkatu,00100,60.1734960,24.9294604
9,Nervanderinkatu,00100,60.1731310,24.9298582
7,Nervanderinkatu,00100,60.1728698,24.9301914
26,Sturenkatu,00510,60.1941350,24.9557861
25,Temppelikatu,00100,60.1725468,24.9240880
21-23,Temppelikatu,00100,60.1728545,24.9238438
8,Dagmarinkatu,00100,60.1733289,24.9298764
19,Arkadiankatu,00100,60.1713896,24.9267799
77,Fredrikinkatu,00100,60.1718234,24.9269889
1,Raumantie,00350,60.2056880,24.8775857
17,Temppelikatu,00100,60.1736943,24.9239927
16,Cygnaeuksenkatu,00100,60.1762806,24.9304379
14,Cygnaeuksenkatu,00100,60.1761421,24.9299942
12,Nervanderinkatu,00100,60.1739636,24.9277875
10,Nervanderinkatu,00100,60.1737928,24.9280735
7,Dagmarinkatu,00100,60.1728321,24.9282960
10,Dagmarinkatu,00100,60.1727242,24.9287949
64,Fredrikinkatu,00100,60.1715207,24.9267310
23,Sturenkatu,00510,60.1931493,24.9547121
3,Professorintie,00330,60.2013531,24.8758279
4,Kankurinkatu,00150,60.1589315,24.9373703
2,Kankurinkatu,00150,60.1587023,24.9376942
15,Sepänkatu,00150,60.1584819,24.9374784
17,Sepänkatu,00150,60.1583221,24.9369922
19,Sepänkatu,00150,60.1581990,24.9366179
39,Merimiehenkatu,00150,60.1597276,24.9356217
37,Merimiehenkatu,00150,60.1598037,24.9362060
18,Eteläranta,00130,60.1668040,24.9522041
1,Helsinginkatu,00500,60.1879130,24.9611466
1,Tallinnanaukio,00930,60.2098586,25.0784471
1,Tallinnanaukio,00930,60.2098418,25.0784226
48-50,Iso Roobertinkatu,00120,60.1614202,24.9364947
19,Sepänkatu,00150,60.1580840,24.9362680
4,Mustapuronpolku,00900,60.2170372,25.0810815
49,Fredrikinkatu,00100,60.1665671,24.9341532
22,Annankatu,00100,60.1666444,24.9369664
4,Mustapuronpolku,00900,60.2175252,25.0819614
29,Vuorimiehenkatu,00140,60.1593999,24.9455415
22,Punavuorenkatu,00150,60.1600791,24.9343947
2,Punavuorenkatu,00120,60.1616281,24.9397201
46,Iso Roobertinkatu,00120,60.1617924,24.9375602
15,Albertinkatu,00120,60.1615746,24.9374052
13,Pursimiehenkatu,00150,60.1599450,24.9390359
3,Kankurinkatu,00150,60.1590821,24.9376151
27,Pursimiehenkatu,00150,60.1586615,24.9350173
14,Pursimiehenkatu,00150,60.1593844,24.9381219
10,Pursimiehenkatu,00150,60.1597889,24.9392571
8,Pursimiehenkatu,00150,60.1600481,24.9400880
6,Pursimiehenkatu,00150,60.1602395,24.9404997
5,Pursimiehenkatu,00150,60.1605386,24.9408019
1,Pursimiehenkatu,00150,60.1607931,24.9415393
3,Pursimiehenkatu,00150,60.1606554,24.9411403
4B,Pursimiehenkatu,00150,60.1603211,24.9407423
20,Annankatu,00100,60.1663657,24.9373841
18,Annankatu,00120,60.1658212,24.9381701
14,Kalevankatu,00100,60.1666872,24.9366207
14,Arkadiankatu,00100,60.1710876,24.9282937
8,Arkadiankatu,00100,60.1710498,24.9305496
1,Perhonkatu,00100,60.1700637,24.9251621
7,Perhonkatu,00100,60.1705490,24.9242585
34,Runeberginkatu,00260,60.1773345,24.9221329
2,Dunckerinkatu,00260,60.1783787,24.9285243
28,Merimiehenkatu,00150,60.1597764,24.9369036
26,Merimiehenkatu,00150,60.1598674,24.9371605
31,Merimiehenkatu,00150,60.1600720,24.9371453
22,Merimiehenkatu,00150,60.1601031,24.9378252
20,Merimiehenkatu,00150,60.1602147,24.9381399
18,Merimiehenkatu,00150,60.1605345,24.9390492
25,Merimiehenkatu,00120,60.1606699,24.9388750
15,Merimiehenkatu,00120,60.1613302,24.9407742
8,Merimiehenkatu,00150,60.1611496,24.9407972
10,Merimiehenkatu,00150,60.1610378,24.9404537
3,Ratakatu,00120,60.1633913,24.9445551
2,Kirkkokatu,00170,60.1708829,24.9587773
6,Pohjoisranta,00170,60.1712111,24.9598782
8,Pohjoisranta,00170,60.1714909,24.9600165
9,Rauhankatu,00170,60.1717578,24.9568963
10,Bulevardi,00120,60.1655098,24.9409701
43,Laivurinkatu,00150,60.1606142,24.9422669
22,Unioninkatu,00130,60.1663716,24.9509965
9-11,Fabianinkatu,00130,60.1642818,24.9501287
87,Mäkelänkatu,00610,60.2090246,24.9462344
15,Kalevankatu,00100,60.1669141,24.9363579
4a,Runeberginkatu,00100,60.1686171,24.9282629
44,Albertinkatu,00180,60.1659469,24.9306720
46,Albertinkatu,00180,60.1661848,24.9303625
36,Fredrikinkatu,00100,60.1661456,24.9342526
36,Fredrikinkatu,00100,60.1662313,24.9341140
28,Eerikinkatu,00180,60.1657982,24.9316134
30,Kalevankatu,00100,60.1655100,24.9330776
28,Kalevankatu,00100,60.1656714,24.9336786
31,Kalevankatu,00100,60.1656500,24.9329285
34,Kalevankatu,00180,60.1652621,24.9324094
32,Kalevankatu,00100,60.1654007,24.9328671
19,Annankatu,00100,60.1664027,24.9378131
25,Annankatu,00100,60.1673971,24.9364265
23,Annankatu,00100,60.1671133,24.9367989
26,Annankatu,00100,60.1672311,24.9361894
27,Annankatu,00100,60.1677030,24.9360309
28,Annankatu,00100,60.1675834,24.9356223
24,Annankatu,00100,60.1670502,24.9364464
31-33,Annankatu,00100,60.1683518,24.9351251
16,Malminkatu,00100,60.1671872,24.9316205
63,Fredrikinkatu,00100,60.1681081,24.9320577
7,Urho Kekkosen katu,00100,60.1684516,24.9319206
5,Urho Kekkosen katu,00100,60.1687467,24.9326816
12,Simonkatu,00100,60.1685489,24.9354046
10,Simonkatu,00100,60.1687353,24.9359406
3,Arkadiankatu,00100,60.1712630,24.9342073
2,Jaakonkatu,00100,60.1697184,24.9308889
30,Linnavuorentie,00950,60.2233043,25.1149746
1,Pohjolankatu,00610,60.2130639,24.9439246
13,Annankatu,00120,60.1646181,24.9403257
7,Eerikinkatu,00100,60.1673153,24.9351761
5,Eerikinkatu,00100,60.1674522,24.9356068
8,Eerikinkatu,00100,60.1672732,24.9359253
1,Eerikinkatu,00100,60.1679769,24.9370671
6,Eerikinkatu,00100,60.1675197,24.9365504
4,Eerikinkatu,00100,60.1676511,24.9369597
2,Eerikinkatu,00100,60.1677805,24.9374258
38,Yrjönkatu,00100,60.1687552,24.9362050
32,Yrjönkatu,00100,60.1681114,24.9371714
3,Asemapäällikönkatu,00520,60.1991582,24.9416121
17,Köydenpunojankatu,00180,60.1646215,24.9232820
21,Ruoholahdenkatu,00180,60.1644962,24.9241155
3,Väärämäentie,00700,60.2431032,25.0294792
29,Pursimiehenkatu,00150,60.1584709,24.9341353
52,Aleksanterinkatu,00100,60.1686928,24.9417986
25,Runeberginkatu,00100,60.1719812,24.9240467
23,Runeberginkatu,00100,60.1716260,24.9243741
53,Runeberginkatu,00260,60.1786082,24.9231615
1,Mäkipellonaukio,00320,60.2199116,24.9010963
1,Kaivokatu,00100,60.1707093,24.9408728
7,Agricolankatu,00530,60.1848360,24.9532716
9,Castréninkatu,00530,60.1850968,24.9470977
1,Huopalahdentie,00330,60.1967467,24.8859975
1,Huopalahdentie,00330,60.1966957,24.8861051
1,Kivitorpantie,00330,60.1997257,24.8816647
12,Lokkalantie,00330,60.1992342,24.8815592
20,Lokkalantie,00330,60.1996253,24.8777491
10,Huopalahdentie,00330,60.1988363,24.8832758
8,Huopalahdentie,00330,60.1984671,24.8834341
11,Kaarlenkatu,00530,60.1860127,24.9516876
3,Huopalahdentie,00330,60.1975163,24.8849064
1,Huopalahdentie,00330,60.1968350,24.8853191
5,Porthaninkatu,00530,60.1818092,24.9512706
9,Fleminginkatu,00530,60.1852470,24.9531873
56,Runeberginkatu,00260,60.1810930,24.9252673
11,Kaivokatu,00100,60.1701695,24.9410430
8,Kaivokatu,00100,60.1701983,24.9423457
3,Bulevardi,00120,60.1662504,24.9421005
1,Bulevardi,00100,60.1664396,24.9426476
45,Unioninkatu,00170,60.1754489,24.9506139
37,Hämeentie,00500,60.1889379,24.9642836
17,Museokatu,00100,60.1751955,24.9252461
15,Museokatu,00100,60.1751527,24.9257459
8,Ruusulankatu,00260,60.1822047,24.9239451
13,Huopalahdentie,00330,60.1998613,24.8837696
15,Huopalahdentie,00330,60.2005012,24.8834619
22,Porvoonkatu,00510,60.1917384,24.9428653
94,Hämeentie,00550,60.1967368,24.9619756
64,Hämeentie,00500,60.1889534,24.9635322
54,Hämeentie,00500,60.1878745,24.9619225
36,Hämeentie,00530,60.1844507,24.9595473
2,Hämeentie,00530,60.1802853,24.9505630
43,Eerikinkatu,00180,60.1637156,24.9249580
31,Eerikinkatu,00180,60.1649924,24.9286331
21,Eerikinkatu,00180,60.1657706,24.9307773
40,Eerikinkatu,00180,60.1648083,24.9288867
10,Sofianlehdonkatu,00610,60.2050567,24.9475583
12,Rakuunantie,00330,60.1995011,24.8847745
10,Tehtaankatu,00140,60.1585856,24.9506649
17,Perustie,00330,60.1987470,24.8797053
15,Perustie,00330,60.1984827,24.8806900
19,Laajalahdentie,00330,60.1995861,24.8776266
23,Perustie,00330,60.1993501,24.8774728
1,"Asemahalli, Kaivokatu",00100,60.1711182,24.9414937
15,Vuorikatu,00100,60.1724494,24.9477012
5,Mannerheimintie,00100,60.1695180,24.9396710
25,Perustie,00330,60.1995044,24.8768401
15,Laajalahdentie,00330,60.1989534,24.8771378
21,Laajalahdentie,00330,60.2003581,24.8775745
11,Leppäsuonkatu,00100,60.1693664,24.9217758
13,Laajalahdentie,00330,60.1986875,24.8768838
11,Laajalahdentie,00330,60.1977230,24.8758133
22,Munkkiniemen puistotie,00330,60.1977367,24.8763333
24,Munkkiniemen puistotie,00330,60.1982754,24.8753538
21,Munkkiniemen puistotie,00330,60.1986077,24.8768436
22,Tammitie,00330,60.1961766,24.8836305
14,Tammitie,00330,60.1947147,24.8802933
1,Kadetintie,00330,60.1959724,24.8741628
1,"Asemahalli, Kaivokatu",00100,60.1710850,24.9409680
1,"Asemahalli, Kaivokatu",00100,60.1710822,24.9413945
13,Solnantie,00330,60.1943664,24.8787692
16,Solnantie,00330,60.1953296,24.8773230
1,Laajalahdentie,00330,60.1951277,24.8721949
3,Laajalahdentie,00330,60.1954922,24.8729859
7,Laajalahdentie,00330,60.1959617,24.8737654
2,Huopalahdentie,00330,60.1969178,24.8843629
2,Apajapolku,00330,60.1993336,24.8628770
3,Apajapolku,00330,60.1995056,24.8639038
33,Hämeentie,00500,60.1880799,24.9637333
24,Kasarmikatu,00130,60.1631475,24.9479298
4,Vilhonkatu,00100,60.1719845,24.9469400
2,Ilmalankuja,00240,60.2068279,24.9165265
1,Dosentintie,00330,60.2000194,24.8754421
40,Perustie,00330,60.2004758,24.8722981
30,Perustie,00330,60.1993365,24.8763875
29,Perustie,00330,60.1999154,24.8754208
14,Vuorikatu,00100,60.1715671,24.9472798
8,Mikonkatu,00100,60.1695581,24.9451580
3,Kaisaniemenkatu,00100,60.1710739,24.9468593
1,Munkinpolku,00330,60.1976755,24.8747089
2,Tunturikatu,00100,60.1740676,24.9275778
14,Tunturikatu,00100,60.1741823,24.9248082
38,Mannerheimintie,00100,60.1765963,24.9302179
40,Mannerheimintie,00100,60.1768818,24.9298727
11,Lokkalantie,00330,60.1998829,24.8785886
43,Fredrikinkatu,00120,60.1655667,24.9355353
45,Fredrikinkatu,00100,60.1659368,24.9350242
30,Fredrikinkatu,00120,60.1650550,24.9357583
34,Fredrikinkatu,00100,60.1658459,24.9346485
16,Yrjönkatu,00120,60.1654046,24.9421703
15,Aleksanterinkatu,00100,60.1690373,24.9448353
15,Aleksanterinkatu,00100,60.1690033,24.9453202
50,Aleksanterinkatu,00100,60.1687340,24.9437168
3,Keskuskatu,00100,60.1687377,24.9438462
2,Mannerheimintie,00100,60.1666318,24.9427476
2,Pohjoisesplanadi,00130,60.1675678,24.9434978
9,Aleksanterinkatu,00100,60.1692964,24.9482089
6,Simonkatu,00100,60.1691711,24.9369690
1,Malminkatu,00100,60.1678577,24.9288538
17,Abrahaminkatu,00180,60.1653897,24.9278263
15,Abrahaminkatu,00180,60.1650000,24.9284122
15,Uudenmaankatu,00120,60.1645778,24.9406522
5,Annankatu,00120,60.1635692,24.9417780
20,Fredrikinkatu,00120,60.1627682,24.9389704
30,Iso Roobertinkatu,00120,60.1626788,24.9400891
32,Iso Roobertinkatu,00120,60.1625820,24.9399008
23,Iso Roobertinkatu,00120,60.1628613,24.9400583
13,Iso Roobertinkatu,00120,60.1633330,24.9414103
11,Annankatu,00120,60.1642018,24.9408574
34,Mannerheimintie,00100,60.1748740,24.9320083
2-4,Bulevardi,00120,60.1662351,24.9429278
6,Bulevardi,00120,60.1659610,24.9421521
16,Bulevardi,00120,60.1648128,24.9389839
21,Bulevardi,00180,60.1637198,24.9347648
25,Albertinkatu,00120;00180,60.1638257,24.9342535
19,Bulevardi,00120,60.1638640,24.9352219
17,Bulevardi,00120,60.1640349,24.9356795
15,Bulevardi,00120,60.1641604,24.9360442
5,Bulevardi,00120,60.1651672,24.9388178
11,Bulevardi,00120,60.1645775,24.9371853
7,Bulevardi,00120,60.1650045,24.9383955
9,Bulevardi,00120,60.1648400,24.9378959
24,Bulevardi,00120,60.1641303,24.9368394
46 A,Aleksanterinkatu,00100,60.1687808,24.9451524
16,Lapinlahdenkatu,00180,60.1674505,24.9223061
26,Fredrikinkatu,00120,60.1640136,24.9372221
35,Fredrikinkatu,00120,60.1638126,24.9379476
22,Fredrikinkatu,00120,60.1631645,24.9383852
20,Fredrikinkatu,00120,60.1625776,24.9392000
26,Iso Roobertinkatu,00120,60.1628600,24.9405960
28,Iso Roobertinkatu,00120,60.1627739,24.9403456
21,Iso Roobertinkatu,00120,60.1630411,24.9405585
19,Iso Roobertinkatu,00120,60.1630945,24.9407029
15,Iso Roobertinkatu,00120,60.1632288,24.9411170
13,Annankatu,00120,60.1646812,24.9402394
29,Lapinlahdenkatu,00180,60.1674531,24.9244236
25,Lapinlahdenkatu,00180,60.1673090,24.9255287
31,Lapinlahdenkatu,00180,60.1675385,24.9237368
61,Runeberginkatu,00260,60.1805235,24.9248720
56,Mannerheimintie,00260,60.1814092,24.9270102
41,Fredrikinkatu,00120,60.1653175,24.9358778
21,Aleksanterinkatu,00100,60.1689344,24.9411909
21,Museokatu,00100,60.1753058,24.9238843
6,Merimiehenkatu,00120,60.1615731,24.9420422
11,Merimiehenkatu,00120,60.1617350,24.9419150
13,Merimiehenkatu,00120,60.1615853,24.9414917
7,Punavuorenkatu,00120,60.1613121,24.9380443
18,Albertinkatu,00120,60.1614818,24.9368401
13,Kalevankatu,00100,60.1671535,24.9370522
37,Uudenmaankatu,00120,60.1626898,24.9352747
23,Iso Roobertinkatu,00120,60.1628557,24.9399960
3,Rahapajankatu,00160,60.1683307,24.9622162
9,Linnankatu,00160,60.1658016,24.9697727
29,Yrjönkatu,00100,60.1685618,24.9370830
36 A,Yrjönkatu,00100,60.1686236,24.9364026
23,Kalevankatu,00100,60.1663584,24.9347522
12,Kalevankatu,00100,60.1669434,24.9373557
6,Kalevankatu,00100,60.1675135,24.9389815
7,Hietalahdenranta,00120,60.1611945,24.9303656
6,Kankurinkatu,00150,60.1592681,24.9368855
1a,Ratakatu,00120,60.1636579,24.9454495
61,Runeberginkatu,00260,60.1805236,24.9249959
10,Pohjoisranta,00170,60.1719814,24.9602590
2,Otavantie,00200,60.1567797,24.8785109
16,Koillisväylä,00200,60.1633280,24.8869440
16,Mannerheimintie,00100,60.1687396,24.9389090
37,Pohjoinen Hesperiankatu,00260,60.1765939,24.9148187
18,Yrjönkatu,00120,60.1656450,24.9418474
16,Yrjönkatu,00120,60.1652620,24.9423685
27,Runeberginkatu,00100,60.1725111,24.9235910
29,Runeberginkatu,00100,60.1727950,24.9233766
22,Eteläinen Hesperiankatu,00100,60.1766008,24.9231984
14,Malmin kauppatie,00700,60.2509496,25.0107602
40,Pitäjänmäentie,00370,60.2232138,24.8605808
6,Ratamestarinkatu,00520,60.1991110,24.9395512
11,Vironkatu,00170,60.1723893,24.9538626
12,Mariankatu,00170,60.1710953,24.9563614
13,Mariankatu,00170,60.1711233,24.9569040
13,Ohrahuhdantie,00680,60.2529668,24.9503095
15,Mariankatu,00170,60.1718620,24.9567885
16,Kristianinkatu,00170,60.1754612,24.9554177
15,Rauhankatu,00170,60.1716900,24.9541231
13,Mariankatu,00170,60.1715619,24.9567948
17,Kotasuontie,00680,60.2431211,24.9536706
4,Sakarinkatu,00530,60.1847609,24.9591180
8,Kuortaneenkatu,00510,60.1959988,24.9445523
11,Sofianlehdonkatu,00610,60.2073121,24.9474260
21,Liisankatu,00170,60.1742038,24.9534009
21,Liisankatu,00170,60.1741999,24.9532942
16,Snellmaninkatu,00170,60.1742447,24.9528392
45,Unioninkatu,00170,60.1752328,24.9506220
27,Liisankatu,00170,60.1741764,24.9519230
43,Unioninkatu,00170,60.1749692,24.9505340
18,Liisankatu,00170,60.1740328,24.9534171
3,Miina Sillanpään katu,00530,60.1799549,24.9532409
14,Hämeentie,00530,60.1814744,24.9538296
8,Jyrängöntie,00560,60.2051617,24.9546377
42,Koskelantie,00610,60.2103900,24.9500931
44,Koskelantie,00610,60.2105359,24.9504447
32,Bulevardi,00120,60.1632799,24.9344398
5,Bulevardi,00120,60.1651262,24.9388484
2,Varikkotie,00880,60.2099657,25.0622130
2,Varikkotie,00880,60.2097326,25.0627321
6-10,Siltasaarenkatu,00530,60.1779666,24.9496702
3,Väinö Auerin katu,00560,60.2083455,24.9661281
4,Jyrängöntie,00560,60.2047858,24.9553590
9,Koskelantie,00610,60.2088625,24.9479158
1,Untamontie,00610,60.2102566,24.9485491
1,Untamontie,00610,60.2100233,24.9480491
3,Untamontie,00610,60.2104644,24.9490926
3,Untamontie,00610,60.2106840,24.9496259
4,Untamontie,00610,60.2109543,24.9497910
2,Vähänkyröntie,00610,60.2074166,24.9466118
44-46C9,Limingantie,00560,60.2073567,24.9601568
6,Jyrängöntie,00560,60.2049987,24.9549667
25,Intiankatu,00560,60.2087861,24.9658726
6,Kangasalantie,00550,60.1960823,24.9589738
6,Kangasalantie,00550,60.1960314,24.9590874
4,Lintulahdenkuja,00530,60.1831470,24.9613680
10,Lintulahdenkatu,00500,60.1840584,24.9621952
11,Siltasaarenkatu,00530,60.1802597,24.9499873
21,Mannerheimintie,00250,60.1830363,24.9256677
70,Mannerheimintie,00250,60.1833142,24.9239847
72,Mannerheimintie,00250,60.1835365,24.9237218
17,Ratapihantie,00520,60.2040817,24.9333912
1,Messuaukio,00520,60.2021746,24.9361625
13,Fleminginkatu,00500,60.1861933,24.9534644
21b,Fleminginkatu,00500,60.1880949,24.9532893
32,Fleminginkatu,00510,60.1901391,24.9525065
27,Fleminginkatu,00510,60.1905179,24.9530904
11,Vironkatu,00170,60.1723891,24.9539811
19,Liisankatu,00170,60.1742073,24.9540393
2,Kustaankatu,00500,60.1875328,24.9558470
78-82,Mäkelänkatu,00610,60.2092514,24.9445497
2,Kajaaninkatu,00510,60.1913636,24.9451490
25,Topeliuksenkatu,00250,60.1850199,24.9170349
4,Krogiuksentie,00340,60.1859981,24.8670433
10,Nuijamiestentie,00320,60.2183757,24.9070003
1a,Torpparinmäentie,00690,60.2570008,24.9459972
26,Urheilukatu,00250,60.1875697,24.9207100
24,Urheilukatu,00250,60.1871771,24.9211871
111,Hämeentie,00560,60.2029061,24.9676947
111,Hämeentie,00560,60.2029607,24.9688995
109-111,Hämeentie,00560,60.2025173,24.9679399
26,Koskelantie,00610,60.2078996,24.9400628
24,Koskelantie,00610,60.2073170,24.9383392
22as1,Marjatantie,00610,60.2086471,24.9382914
17b,Marjatantie,00610,60.2090151,24.9394038
19,Marjatantie,00610,60.2089793,24.9389487
18,Marjatantie,00610,60.2088155,24.9396607
20,Marjatantie,00610,60.2087084,24.9391021
1,Saimaankatu,00520,60.1945084,24.9375768
36,Tehtaankatu,00150,60.1576732,24.9350074
25,Tehtaankatu,00150,60.1579654,24.9356841
25,Tehtaankatu,00150,60.1579505,24.9355791
1,Kantelettarentie,00420,60.2370808,24.8915040
36,Kolmas linja,00530,60.1850796,24.9420749
1,Mäkitorpantie,00620,60.2219646,24.9485436
4,Veturitallinkuja,00520,60.1959847,24.9324656
68,Hämeentie,00550,60.1904666,24.9640785
1,Takoraudantie,00700,60.2444081,25.0429916
5,Jokisuuntie,00560,60.2181942,24.9876389
56,Hämeentie,00500,60.1878754,24.9625070
17,Urakkatie,00680,60.2399896,24.9548518
3,Bulevardi,00120,60.1661533,24.9418558
1,Vanhanlinnantie,00900,60.2136617,25.0887669
1,Vanhanlinnantie,00900,60.2139826,25.0874491
2,Tilkankatu,00300,60.2036272,24.8955685
5,Meripuistotie,00200,60.1602179,24.8887810
50 e (2.krs.),Lauttasaarentie,00200,60.1612702,24.8679460
7,Annankatu,00120,60.1638043,24.9416078
1,Annankatu,00120,60.1628210,24.9427987
1,Annankatu,00120,60.1628713,24.9427302
29 A,Teollisuuskatu,00510,60.1955102,24.9448883
53,Karhutie,00800,60.2038805,25.0367438
31,Karhutie,00800,60.2017138,25.0356705
2,Peuratie,00800,60.2016490,25.0363166
1,Peuratie,00800,60.2015732,25.0366723
23,Porvoonkatu,00510,60.1912010,24.9448683
19,Porvoonkatu,00510,60.1908661,24.9460869
4,Hirvitie,00800,60.1997440,25.0365777
6,Hirvitie,00800,60.1999910,25.0369272
2,Tallinnanaukio,00930,60.2099882,25.0773613
55,Karhutie,00800,60.2041708,25.0369576
21,Laippatie,00800,60.2109075,25.0479561
19,Laippatie,00800,60.2107454,25.0487638
17,Laippatie,00800,60.2106918,25.0490364
15,Laippatie,00800,60.2105306,25.0497997
13,Laippatie,00800,60.2104950,25.0499822
11,Laippatie,00800,60.2103430,25.0507921
9,Laippatie,00800,60.2102635,25.0511617
7,Laippatie,00800,60.2101321,25.0517619
5,Laippatie,00800,60.2100833,25.0520071
3,Laippatie,00800,60.2099173,25.0528203
2,Laippakuja,00800,60.2103401,25.0469112
1,Laippatie,00800,60.2096256,25.0545635
4 A,Laippatie,00800,60.2092907,25.0542664
4 B,Laippatie,00800,60.2094920,25.0534042
4 C,Laippatie,00800,60.2096672,25.0524489
1,Marjatantie,00610,60.2091295,24.9431410
3,Vipusentie,00610,60.2089992,24.9417804
2,Linnankoskenkatu,00250,60.1853774,24.9205559
12,Siltasaarenkatu,00530,60.1786637,24.9498698
1,Hakaniemenranta,00530,60.1778891,24.9504865
29 B,Teollisuuskatu,00510,60.1952611,24.9455310
12,Opastinsilta,00520,60.1988665,24.9358236
46,Hiihtomäentie,00800,60.2066872,25.0342636
16,Portimopolku,00800,60.2066359,25.0341558
42,Sahaajankatu,00800,60.2042556,25.0494149
1,Marjatantie,00610,60.2091442,24.9432777
9,Sahaajankatu,00800,60.2025129,25.0481243
5,Sahaajankatu,00800,60.2015171,25.0479943
14,Sahaajankatu,00800,60.1980925,25.0470779
12,Sahaajankatu,00800,60.1974528,25.0470612
3,Siltasaarenkatu,00530,60.1773389,24.9504634
2,Punavuorenkatu,00120,60.1616639,24.9398243
16,Fredrikinkatu,00120,60.1614688,24.9408081
36,Fredrikinkatu,00100,60.1662457,24.9340908
10,Laivurinkatu,00150,60.1606229,24.9416739
10,Kauppakartanonkatu,00930,60.2091536,25.0873986
1,Kirkonkyläntie,00700,60.2502772,25.0092448
5,Ajurinaukio,00750,60.2747573,25.0341745
1,Maatullinaukio,00750,60.2749894,25.0345772
10,Hermannin rantatie,00580,60.1907677,24.9784174
15,Sorvaajankatu,00800,60.1970514,25.0437329
3,Viikintori,00790,60.2272575,25.0086941
7,Salmisaarenranta,00180,60.1631623,24.9003077
14,Eteläesplanadi,00130,60.1669578,24.9472796
14,Pasilankatu,00240,60.1997780,24.9269829
12,Pasilankatu,00240,60.1991625,24.9272751
13-15,Sahaajankatu,00800,60.2030102,25.0487454
6,Radiokatu,00240,60.2023100,24.9229929
2,Maistraatinportti,00240,60.1984474,24.9273680
10,Pasilankatu,00240,60.1982766,24.9277198
8a,Pasilankatu,00240,60.1976082,24.9280416
8,Ratavallintie,00720,60.2401687,24.9904895
2,Jarrumiehenkatu,00520,60.2013693,24.9411194
35,Hiihtomäentie,00800,60.2032606,25.0330165
29,Hiihtomäentie,00800,60.2020992,25.0321281
18,Susitie,00800,60.2015513,25.0326737
1,Majavatie,00800,60.2015799,25.0325995
9,Susitie,00800,60.1999864,25.0338706
18,Karhutie,00800,60.1999651,25.0340251
16,Karhutie,00800,60.1995549,25.0337287
8,Susitie,00800,60.1996914,25.0338403
11,Mäyrätie,00800,60.2021909,25.0304500
8,Majavatie,00800,60.2022592,25.0305959
1a,Messeniuksenkatu,00250,60.1879371,24.9177632
11,Messeniuksenkatu,00250,60.1884418,24.9134693
20,Pulttitie,00800,60.2114843,25.0480373
18,Pulttitie,00800,60.2112828,25.0490308
16,Pulttitie,00800,60.2112071,25.0494020
14,Pulttitie,00800,60.2110621,25.0500887
12,Pulttitie,00800,60.2109939,25.0505007
10,Pulttitie,00800,60.2108447,25.0511358
8,Pulttitie,00800,60.2107583,25.0515628
6,Pulttitie,00800,60.2106698,25.0521400
4,Pulttitie,00800,60.2105983,25.0524709
2,Pulttitie,00800,60.2104737,25.0531357
3,Levytie,00800,60.2114453,25.0479519
2,Pallaksentie,00970,60.2380960,25.1105807
4,Pallaksentie,00970,60.2385493,25.1100607
48-50,Iso Roobertinkatu,00120,60.1613728,24.9363921
36,Albertinkatu,00120,60.1645366,24.9327511
1,Sandelsinkatu,00260,60.1788957,24.9234786
46,Runeberginkatu,00260,60.1797009,24.9233551
27,Töölönkatu,00260,60.1803689,24.9249583
2,Caloniuksenkatu,00100,60.1740712,24.9196649
5,Uudenkaupungintie,00350,60.2036515,24.8664628
9,Helsinginkatu,00500,60.1874906,24.9570501
5,Lönnrotin puistikko,00120,60.1667090,24.9380037
30,Albertinkatu,00120,60.1631924,24.9346129
3,Joukolantie,00610,60.2137468,24.9562775
3,Joukolantie,00610,60.2141379,24.9558668
1b,Joukolantie,00610,60.2134339,24.9566760
1a,Joukolantie,00610,60.2131800,24.9570778
19,Osmontie,00610,60.2124212,24.9477517
3,Huovitie,00400,60.2222283,24.9051818
2,Siilitie,00800,60.2052524,25.0440144
7,Vanhanlinnantori,00900,60.2148278,25.0912994
1,Helsinginkatu,00500,60.1865586,24.9590827
12,Vuorikatu,00100,60.1727636,24.9486006
13,Hiihtomäentie,00810,60.1948687,25.0310940
13,Hiihtomäentie,00810,60.1949904,25.0308594
14,Itämerenkatu,00180,60.1631634,24.9142377
9,Taiteentekijäntie,00350,60.2075183,24.8569792
24,Malminkaari,00730,60.2574369,25.0357393
12,Lainlukijantie,00690,60.2601512,24.9554167
1,Hakamäenkuja,00280,60.2072933,24.9057436
6,Lumikintie,00820,60.2037136,25.0566339
23,Fredrikinkatu,00120,60.1620945,24.9403448
23,Fredrikinkatu,00120,60.1620091,24.9405138
96,Mannerheimintie,00250,60.1881357,24.9180564
98,Mannerheimintie,00250,60.1882703,24.9179587
41,Tattariharjuntie,00770,60.2529475,25.0633385
2,Pursimiehenkatu,00150,60.1605882,24.9414203
3,Sitratori,00420,60.2395515,24.8762568
3,Sitratie,00420,60.2398508,24.8744678
1,Soittajantie,00420,60.2400288,24.8738321
13,Klaneettitie,00420,60.2395859,24.8733920
11,Klaneettitie,00420,60.2394443,24.8740181
9,Klaneettitie,00420,60.2393557,24.8742683
6,Sitrakuja,00420,60.2392858,24.8748096
15,Katariina Saksilaisen katu,00560,60.2146958,24.9853218
18,Intiankatu,00560,60.2073198,24.9686854
5,Nordenskiöldinkatu,00250,60.1873730,24.9183103
5,Pietarinkatu,00140,60.1576697,24.9497538
21,Tehtaankatu,00150,60.1581535,24.9414424
3,Annankatu,00120,60.1631809,24.9423082
1,Tiilipolku,00330,60.1969309,24.8722973
2,Tiilipolku,00330,60.1971815,24.8721124
5,Alppikatu,00530,60.1851414,24.9418367
6,Pihkatie,00410,60.2518113,24.8585682
5,Tyynylaavantie,00980,60.2081021,25.1458593
45,Vuotie,00980,60.2067506,25.1459713
20,Vanha Helsingintie,00700,60.2485243,25.0089895
12,Kirkonkyläntie,00700,60.2523510,25.0052762
18,Malmin kauppatie,00700,60.2514886,25.0097706
10,Sahaajankatu,00800,60.1963772,25.0462820
16,Sahaajankatu,00800,60.1987277,25.0471232
20,Sahaajankatu,00800,60.1998965,25.0470803
1,Sahaajankatu,00800,60.1996942,25.0477931
1a,Sahaajankatu,00800,60.2001165,25.0478274
1b,Sahaajankatu,00800,60.1999672,25.0485570
3,Sahaajankatu,00800,60.2005345,25.0481364
26,Sahaajankatu,00800,60.2013826,25.0472231
24,Sahaajankatu,00800,60.2006284,25.0472502
28,Sahaajankatu,00800,60.2017367,25.0472574
7,Sahaajankatu,00800,60.2021035,25.0479183
11,Sahaajankatu,00800,60.2028030,25.0485020
36,Sahaajankatu,00800,60.2032423,25.0481243
34,Sahaajankatu,00800,60.2024515,25.0472433
17,Sahaajankatu,00800,60.2033216,25.0494063
19,Sahaajankatu,00800,60.2035732,25.0494578
21,Sahaajankatu,00800,60.2037566,25.0497067
23,Sahaajankatu,00800,60.2039699,25.0499127
25,Sahaajankatu,00800,60.2041490,25.0501444
2,Asentajankatu,00800,60.1982073,25.0468571
1,Asentajankatu,00800,60.1985486,25.0468657
7,Teollisuusneuvoksenkatu,00800,60.2006562,25.0465339
5,Teollisuusneuvoksenkatu,00800,60.2000085,25.0467099
1,Sahaajankuja,00800,60.2008946,25.0484621
2,Sahaajankuja,00800,60.2013638,25.0481532
27,Sahaajankatu,00800,60.2043495,25.0503848
2,Muuntajankatu,00800,60.2044177,25.0494749
4,Muuntajankatu,00800,60.2045798,25.0491145
1,Muuntajankatu,00800,60.2047333,25.0499213
3,Muuntajankatu,00800,60.2049252,25.0493548
29,Sahaajankatu,00800,60.2045414,25.0506079
31,Sahaajankatu,00800,60.2047061,25.0509116
33,Sahaajankatu,00800,60.2048121,25.0514979
49,Sahaajankatu,00800,60.2067591,25.0538437
1,Pikkupurontie,00800,60.2067591,25.0539467
3,Pikkupurontie,00800,60.2066056,25.0542214
5,Pikkupurontie,00800,60.2063966,25.0545132
2,Pikkupurontie,00800,60.2067890,25.0545905
52,Sahaajankatu,00800,60.2065672,25.0524104
50,Sahaajankatu,00800,60.2062303,25.0521357
48,Sahaajankatu,00800,60.2058251,25.0514920
46,Sahaajankatu,00800,60.2053688,25.0508740
44,Sahaajankatu,00800,60.2050361,25.0504620
27,Sturenkatu,00510,60.1938190,24.9560195
1,Kaarlenkatu,00530,60.1845266,24.9517991
5,Porthaninkatu,00530,60.1819446,24.9514344
5,Porthaninkatu,00530,60.1818784,24.9513550
11,Siltasaarenkatu,00530,60.1804470,24.9500093
48,Leikosaarentie,00990,60.2053086,25.1558151
2,Meri-Rastilan kuja,00980,60.2040804,25.1191910
13,Hitsaajankatu,00810,60.1927291,25.0305546
13 A 1,Agricolankatu,00530,60.1843048,24.9521264
14,Viides linja,00530,60.1836377,24.9519610
10,Viides linja,00530,60.1833282,24.9528193
10,Viides linja,00530,60.1832719,24.9528927
15,Siltasaarenkatu,00530,60.1826161,24.9497277
10,Kolmas linja,00530,60.1822440,24.9491491
4,Suonionkatu,00530,60.1828657,24.9470354
13,Toinen linja,00530,60.1821191,24.9474973
11,Toinen linja,00530,60.1819698,24.9477895
28,Kolmas linja,00530,60.1840570,24.9446296
4,Porthaninkatu,00530,60.1820329,24.9508157
4,Rahtarinkatu,00980,60.2243531,25.1702583
4,Rahtarinkatu,00980,60.2245675,25.1705130
4,Rahtarinkatu,00980,60.2246650,25.1706281
4,Heikkiläntie,00210,60.1545463,24.8804491
13,Aleksanterinkatu,00100,60.1690305,24.9467270
4,Sofiankatu,00170,60.1684753,24.9520340
44,Kasarmikatu,00130,60.1662395,24.9475220
10,Aurinkoranta,00990,60.2014718,25.1509612
10,Hallkullanniemi,00990,60.1957935,25.1741242
1,Urheilukalastajankuja,00990,60.2026162,25.1596722
5,Solvikinkatu,00990,60.2014154,25.1532408
50,Sampsantie,00610,60.2170683,24.9457756
57,Pitäjänmäentie,00370,60.2218589,24.8425786
13,Kaupintie,00440,60.2304201,24.8812112
10,Työpajankatu,00580,60.1883510,24.9769950
9,Katariina Saksilaisen katu,00560,60.2161035,24.9850075
3,Meripihkatie,00710,60.2342500,25.0108485
3,Satamaradankatu,00510,60.1909415,24.9532844
3b,Teollisuuskatu,00510,60.1916691,24.9539980
3,Akseli,00750,60.2857037,25.0171990
7,Pakarituvantie,00410,60.2437305,24.8643412
9,Pakarituvantie,00410,60.2438929,24.8649850
4,Parivaljakontie,00410,60.2439165,24.8658040
6,Parivaljakontie,00410,60.2444485,24.8648739
2,Klaavuntie,00910,60.2089539,25.0986532
33,Takomotie,00380,60.2176349,24.8695051
13,Kaivonkatsojantie,00980,60.2027804,25.1366723
155,Hämeentie,00560,60.2120457,24.9784919
111,Hämeentie,00560,60.2026642,24.9672163
109-111,Hämeentie,00560,60.2027476,24.9685203
109-111,Hämeentie,00560,60.2026943,24.9683994
17,Laamannintie,00690,60.2753793,24.9544653
21,Topeliuksenkatu,00250,60.1844753,24.9176662
5,Urheilukatu,00250,60.1873363,24.9218792
1,Mäntymäentie,00250,60.1836284,24.9289655
9-11,Vanha kelkkamäki,00570,60.1830960,25.0064452
65,Kymintie,00560,60.2099580,24.9638467
44,Kymintie,00560,60.2098553,24.9631648
4,Gadolininkatu,00560,60.2062228,24.9656796
4,Gadolininkatu,00560,60.2065022,24.9661736
4,Gadolininkatu,00560,60.2063209,24.9652012
4,Gadolininkatu,00560,60.2065099,24.9648376
10,Väinö Auerin katu,00560,60.2066865,24.9647962
10d,Väinö Auerin katu,00560,60.2067562,24.9656785
10,Väinö Auerin katu,00560,60.2069857,24.9652314
10,Väinö Auerin katu,00560,60.2069736,24.9649035
4,Gadolininkatu,00560,60.2063500,24.9661715
14,Tunnelitie,00320,60.2157525,24.8985670
11,Toukolankatu,00560,60.2022496,24.9684118
2,Rusthollarintie,00910,60.2124665,25.0965180
1,Käpyläntie,00610,60.2139969,24.9590798
8,Sankaritie,00320,60.2149721,24.9013867
152,Hämeentie,00560,60.2107179,24.9766282
18,Kullervonkatu,00610,60.2164016,24.9552566
22,Sturenkatu,00510,60.1937496,24.9548788
9,Kulosaarentie,00570,60.1840153,25.0048219
6,Nilsiänkatu,00510,60.1940531,24.9528154
3-5,Lemuntie,00510,60.1961380,24.9510171
25,Meritullinkatu,00170,60.1743638,24.9583995
14,Liisankatu,00170,60.1740007,24.9549192
8,Hämeentie,00530,60.1809490,24.9523935
8,Hämeentie,00530,60.1810012,24.9525173
9,Hämeentie,00530,60.1817895,24.9557913
20,Hämeentie,00530,60.1821206,24.9554532
2,Rusthollarintie,00910,60.2125988,25.0966320
16,Klaavuntie,00910,60.2131281,25.0947205
6,Untamontie,00610,60.2120365,24.9500281
6,Untamontie,00610,60.2119207,24.9498112
6,Untamontie,00610,60.2119004,24.9495616
6,Untamontie,00610,60.2119693,24.9497979
7,Topeliuksenkatu,00250,60.1820240,24.9202846
34,Topeliuksenkatu,00270,60.1914811,24.9099376
4,Viljatie,00700,60.2533125,25.0115460
6,Untamontie,00610,60.2116197,24.9498746
6,Untamontie,00610,60.2116852,24.9500994
6,Untamontie,00610,60.2117549,24.9503384
6,Untamontie,00610,60.2113946,24.9503822
6,Untamontie,00610,60.2114625,24.9506071
6,Untamontie,00610,60.2113226,24.9501438
99,Hämeentie,00550,60.1977862,24.9624254
7-9,Ruusulankatu,00260,60.1821387,24.9248107
11-13,Ruusulankatu,00260,60.1823894,24.9244166
10,Ruusulankatu,00260,60.1823489,24.9236451
8,Ruusulankatu,00260,60.1820915,24.9240420
15,Ruusulankatu,00260,60.1827187,24.9239322
4,Sibeliuksenkatu,00260,60.1828014,24.9241495
2,Sibeliuksenkatu,00260,60.1829702,24.9246249
2,Ruusankatu,00250,60.1867247,24.9193547
3,Sallinkatu,00250,60.1855697,24.9222837
18,Kolmas linja,00530,60.1830860,24.9471461
2,Kampinkuja,00100,60.1682014,24.9307903
8,Paasivuorenkatu,00530,60.1780141,24.9472466
2,Aurinkolahden puistotie,00990,60.2037935,25.1487446
11,Kinaporinkatu,00500,60.1890427,24.9633230
12,Aleksis Kiven katu,00500,60.1891901,24.9581655
22,Aleksis Kiven katu,00500,60.1892104,24.9550684
56,Koskelantie,00610,60.2131593,24.9571361
47,Konalantie,00390,60.2394485,24.8460837
3,Riihipellonkuja,00390,60.2376438,24.8460304
3,Riihipellonkuja,00390,60.2376480,24.8462632
47,Konalantie,00390,60.2396815,24.8466391
33,Teollisuuskatu,00510,60.1958667,24.9442666
7-9,Hatuntekijänkuja,00750,60.2774502,25.0327272
2,Kurjenkellonkuja,00940,60.2293177,25.0727537
2,Mosaiikkitori,00980,60.2088023,25.1435848
7,Jokisuuntie,00560,60.2178295,24.9861833
42,Fredrikinkatu,00100,60.1670915,24.9325559
6,Hietalahdenranta,00120,60.1606987,24.9295218
50,Mäkelänkatu,00510,60.1962931,24.9519981
28,Koskelantie,00610,60.2083597,24.9415554
20,Munkkiniemen puistotie,00330,60.1976628,24.8773064
22,Nordenskiöldinkatu,00240,60.1930029,24.9304444
95,Pakilantie,00670,60.2479930,24.9232439
95,Pakilantie,00670,60.2477895,24.9232308
11,Aleksis Kiven katu,00510,60.1897846,24.9524033
1,Teerisuonkuja,00700,60.2512609,25.0257572
23,Leikosaarentie,00990,60.2041303,25.1490576
2,Kastelholmantie,00900,60.2140343,25.0832165
12,Siltasaarenkatu,00530,60.1787593,24.9496169
35,Satamakaari,00980,60.2140948,25.1813478
36,Urheilukatu,00250,60.1889217,24.9190040
1,Malminkartanontie,00390,60.2442526,24.8482237
24,Isonnevantie,00320,60.2175343,24.8897346
7,Viilarintie,00880,60.2138482,25.0598478
3,Jousimiehentie,00740,60.2750469,24.9894960
4,Jalopeurantie,00740,60.2750681,24.9891243
3,Jousimiehentie,00740,60.2748965,24.9892333
8,Laajasuontie,00320,60.2169549,24.9037346
1,Ajomiehentie,00390,60.2389150,24.8499414
1,Ajomiehentie,00390,60.2388762,24.8493301
1,Ajomiehentie,00390,60.2388476,24.8490457
34,Karhusaarentie,00890,60.2502436,25.2386288
16b,Eteläinen Rautatiekatu,00100,60.1685039,24.9251413
10,Pakilantie,00630,60.2316628,24.9329614
56,Pakilantie,00660,60.2380984,24.9279024
10,Porthaninkatu,00530,60.1831699,24.9527730
19,Topeliuksenkatu,00250,60.1842459,24.9180973
10,Laivurinkatu,00150,60.1603006,24.9417030
5,Jaalaranta,00180,60.1614099,24.9143632
11,Somerontie,00550,60.1965931,24.9597144
6,Sammatintie,00550,60.1971028,24.9594051
13,Köydenpunojankatu,00180,60.1637913,24.9245648
1a,Ratakatu,00120,60.1638299,24.9459116
1a,Ratakatu,00120,60.1638475,24.9459660
5,Ruusulankatu,00260,60.1818253,24.9251891
56,Mannerheimintie,00260,60.1812791,24.9271994
1,Huokotie,00770,60.2609839,25.0765187
7,Kellosilta,00520,60.2007895,24.9371532
4,Kellosilta,00520,60.2009168,24.9398363
2,Ulappasaarentie,00980,60.2100097,25.1374848
1,Päivärinnankatu,00250,60.1889346,24.9169277
32,Jakomäentie,00770,60.2545548,25.0794334
8,Kankurinkatu,00150,60.1595621,24.9364592
7,Pursimiehenkatu,00150,60.1604131,24.9404385
21,Pursimiehenkatu,00150,60.1593779,24.9374496
6,Untamontie,00610,60.2117362,24.9505321
17,Snellmaninkatu,00170,60.1723868,24.9535144
16,Snellmaninkatu,00170,60.1744676,24.9527926
17,Eerikinkatu,00100,60.1666444,24.9332539
38,Fredrikinkatu,00100,60.1664968,24.9336850
1,Keiteleentie,00550,60.1930619,24.9606042
8-10,Eurantie,00550,60.1956087,24.9607891
11,Hämeentie,00530,60.1831961,24.9587105
15a,Hämeentie,00500,60.1845594,24.9606500
15b,Hämeentie,00500,60.1847937,24.9607952
1,Von Daehnin katu,00790,60.2325562,25.0472089
5,Isonniitynkatu,00520,60.2012244,24.9496983
3,Tyynylaavankuja,00980,60.2078945,25.1399845
4,Puotilan metrotori,00900,60.2144931,25.0948045
6,Valokaari,00750,60.2833592,25.0178683
18,Malmin kauppatie,00700,60.2520968,25.0103537
50,Mannerheimintie,00260,60.1799932,24.9266731
14,Välskärinkatu,00260,60.1804524,24.9188548
9,Sibeliuksenkatu,00250,60.1823348,24.9215117
7,Sibeliuksenkatu,00250,60.1826215,24.9223781
5,Sibeliuksenkatu,00250,60.1827629,24.9228661
3,Sibeliuksenkatu,00250,60.1830656,24.9236418
1,Sibeliuksenkatu,00250,60.1831817,24.9240384
6,Eino Leinon katu,00250,60.1835858,24.9217853
3,Sallinkatu,00250,60.1856220,24.9223301
4,Savilankatu,00250,60.1870545,24.9202429
3,Savilankatu,00250,60.1873029,24.9199425
2,Savilankatu,00250,60.1872038,24.9206855
1a,Savilankatu,00250,60.1875185,24.9205755
4,Sallinkatu,00250,60.1853974,24.9226443
1,Sallinkatu,00250,60.1857729,24.9228179
2,Lääkärinkatu,00250,60.1913214,24.9134786
20-22,Iso Roobertinkatu,00120,60.1630325,24.9411461
2,Kaikukatu,00530,60.1830927,24.9589482
6a,Airoparintie,00980,60.2107588,25.1330311
11,Seulastentie,00740,60.2755337,24.9973891
3,Jousimiehentie,00740,60.2748471,24.9895977
3,Jousimiehentie,00740,60.2749286,24.9893261
1,Raumantie,00350,60.2061416,24.8770359
2,Orioninkatu,00550,60.1936436,24.9661207
115,Hämeentie,00560,60.2052035,24.9720580
4a,Oksasenkatu,00100,60.1744501,24.9236946
9,Oksasenkatu,00100,60.1758949,24.9234000
5,Kirkkokatu,00170,60.1710710,24.9577282
14,Liisankatu,00170,60.1740329,24.9548453
9,Liisankatu,00170,60.1743061,24.9574842
9,Liisankatu,00170,60.1743261,24.9580160
13,Meritullinkatu,00170,60.1724262,24.9586072
3,Maneesikatu,00170,60.1734420,24.9584438
2,Liisankatu,00170,60.1741343,24.9592887
3,Liisankatu,00170,60.1743747,24.9595642
5,Liisankatu,00170,60.1743607,24.9588995
8-12,Maurinkatu,00170,60.1745908,24.9594921
7,Kaisaniemenkatu,00100,60.1717388,24.9479740
29,Liisankatu,00170,60.1741517,24.9513411
1,Olympiaranta,00140,60.1605118,24.9591308
21,Itämerenkatu,00180,60.1637019,24.9113502
7,Hietalahdenranta,00120,60.1612198,24.9306180
3,"Kaivopiha, Mannerheimintie",00100,60.1701121,24.9405126
26,Iso Roobertinkatu,00120,60.1628421,24.9406193
15,Iso Roobertinkatu,00120,60.1632942,24.9412669
13,Iso Roobertinkatu,00120,60.1633238,24.9413519
18,Iso Roobertinkatu,00120,60.1632279,24.9417447
9,Ratakatu,00120,60.1631234,24.9438213
42,Kasarmikatu,00130,60.1659889,24.9475818
5,Pohjoisesplanadi,00170,60.1680971,24.9548772
46-48,Kasarmikatu,00130,60.1665105,24.9474853
23,Kasarmikatu,00130,60.1663540,24.9479134
21,Pohjoisesplanadi,00100,60.1679610,24.9500385
18,Mariankatu,00170,60.1722411,24.9562847
2;2a,Maneesikatu,00170,60.1732977,24.9600350
10,Ludviginkatu,00130,60.1656635,24.9443157
15,Erottajankatu,00130,60.1660967,24.9441528
38,Sturenkatu,00550,60.1957480,24.9590168
2,Pohjoisesplanadi,00130,60.1673881,24.9439828
20,Eteläesplanadi,00130,60.1670129,24.9455671
8,Eteläesplanadi,00100,60.1670766,24.9493066
3,Sofiankatu,00170,60.1688122,24.9522830
2 A 4;2,Maneesikatu,00170,60.1733180,24.9606860
47,Sturenkatu,00550,60.1963704,24.9610667
28,Fredrikinkatu,00120,60.1648177,24.9360935
47,Fredrikinkatu,00100,60.1664260,24.9344380
49,Fredrikinkatu,00100,60.1666427,24.9340638
7,Bulevardi,00120,60.1649502,24.9383290
2-4,Bulevardi,00120,60.1661260,24.9425856
2-4,Bulevardi,00120,60.1661734,24.9427490
1,Bulevardi,00100,60.1665297,24.9428336
21,Pohjoinen Rautatiekatu,00100,60.1700292,24.9277990
21,Pohjoinen Rautatiekatu,00100,60.1701177,24.9282526
21,Pohjoinen Rautatiekatu,00100,60.1701957,24.9284759
65,Fredrikinkatu,00100,60.1693835,24.9302698
40,Runeberginkatu,00260,60.1781072,24.9223865
68,Mannerheimintie,00260,60.1830684,24.9248538
56,Mannerheimintie,00260,60.1808938,24.9274592
5,Ruusulankatu,00260,60.1818846,24.9250840
62,Mannerheimintie,00260,60.1822619,24.9260752
64,Mannerheimintie,00260,60.1826215,24.9255271
64,Mannerheimintie,00260,60.1825402,24.9256799
70,Mannerheimintie,00250,60.1832580,24.9241597
5,Bulevardi,00120,60.1651445,24.9389083
9,Ratamestarinkatu,00520,60.2006904,24.9396727
78,Hämeentie,00550,60.1922898,24.9642392
1,Tehtaankatu,00140,60.1596966,24.9550726
4,Kalliolinnantie,00140,60.1589824,24.9587732
6,Kalliolinnantie,00140,60.1593454,24.9584058
22,Unioninkatu,00130,60.1664509,24.9509919
2,Snellmaninkatu,00170,60.1703290,24.9532664
7,Vironkatu,00170,60.1724347,24.9551925
9,Liisankatu,00170,60.1743083,24.9571661
2,Korkeavuorenkatu,00140,60.1596765,24.9464837
33,Pohjoisesplanadi,00130,60.1678641,24.9461166
29,Pohjoisesplanadi,00130,60.1679182,24.9473194
4,Kluuvikatu,00100,60.1685881,24.9472832
29,Pohjoisesplanadi,00100,60.1682072,24.9472992
7,Yliopistonkatu,00100,60.1698911,24.9461996
8,Kluuvikatu,00100,60.1696179,24.9472032
5,Yliopistonkatu,00100,60.1699181,24.9469973
5,Yliopistonkatu,00100,60.1699135,24.9468362
5,Yliopistonkatu,00100,60.1700712,24.9467653
8,Kluuvikatu,00100,60.1694780,24.9472143
27,Korkeavuorenkatu,00130,60.1639482,24.9462882
1,Tikkurikuja,00750,60.2820745,25.0263508
1,Tikkurikuja,00750,60.2820041,25.0268800
25,Helsinginkatu,00510,60.1867751,24.9476872
2,Läntinen Brahenkatu,00510,60.1868363,24.9480465
11,Hankasuontie,00390,60.2485830,24.8415417
47,Konalantie,00390,60.2399537,24.8459452
10,Lintulahdenkuja,00500,60.1843994,24.9642996
5,Porkkalankatu,00180,60.1647215,24.9095059
58,Aleksis Kiven katu,00510,60.1924788,24.9444844
104,Mannerheimintie,00250,60.1895459,24.9162648
55,Mannerheimintie,00250,60.1900912,24.9161500
39,Mannerheimintie,00250,60.1872133,24.9197647
21-23,Mannerheimintie,00250,60.1846275,24.9233922
100,Mannerheimintie,00250,60.1887450,24.9174315
47,Mannerheimintie,00250,60.1887498,24.9181403
3,Castréninkatu,00530,60.1840577,24.9454935
15,Kaarlenkatu,00530,60.1864839,24.9520527
1,Harjutorinkatu,00500,60.1865108,24.9573407
8,Kaivonkatsojantie,00980,60.2050874,25.1361300
13,Takkatie,00370,60.2224486,24.8513241
25,Munkkiniemen puistotie,00330,60.1989269,24.8733270
17,Munkkiniemen puistotie,00330,60.1980241,24.8782254
12,Kauppakartanonkatu,00930,60.2086448,25.0858934
2,Eskolantie,00720,60.2436491,24.9936217
4,Ala-Malmin tori,00700,60.2507161,25.0123898
12-14,Eskolantie,00720,60.2461838,24.9922026
20,Mannerheimintie,00100,60.1688916,24.9387208
4,Kalevankatu,00100,60.1678540,24.9398473
21,Yrjönkatu,00100,60.1683078,24.9391341
19B,Erottajankatu,00130,60.1663786,24.9442849
8,Mannerheimintie,00100,60.1672477,24.9417355
2,Kaunispääntie,00970,60.2320938,25.1269273
2,Kaunispääntie,00970,60.2318954,25.1277845
2,Kaunispääntie,00970,60.2319632,25.1274914
2,Kaunispääntie,00970,60.2320306,25.1272002
1-5,Itäkatu,00930,60.2117460,25.0840778
5,Tyynylaavantie,00980,60.2076858,25.1457537
10,Vuosaarentie,00980,60.2099313,25.1452624
1a,Hämeentie,00530,60.1801673,24.9515226
3,Linnankatu,00160,60.1663536,24.9666699
41,Sturenkatu,00550,60.1955740,24.9595621
64,Pohjolankatu,00600,60.2189813,24.9592466
1,Vääksyntie,00510,60.1901666,24.9617280
2,Mäkelänkatu,00510,60.1903610,24.9624492
2,Hopeatie,00440,60.2301031,24.8817028
2,Varikkotie,00880,60.2097546,25.0624717
45,Vuotie,00980,60.2073083,25.1446873
7,Laurinmäenpolku,00400,60.2335515,24.8804826
3,Pilvitie,00700,60.2551168,25.0321536
27,Liisankatu,00170,60.1741533,24.9515921
1,Porthaninkatu,00530,60.1814049,24.9505420
10,Porthaninkatu,00530,60.1829980,24.9525126
21,Torkkelinkatu,00530,60.1844690,24.9550781
15,Helsinginkatu,00500,60.1872956,24.9548287
15,Helsinginkatu,00500,60.1873236,24.9551040
6,Kustaankatu,00500,60.1884734,24.9556175
3,Porvoonkatu,00510,60.1889807,24.9514520
32,Aleksis Kiven katu,00510,60.1895575,24.9517797
30,Aleksis Kiven katu,00510,60.1893947,24.9520805
2,Oksasenkatu,00100,60.1738726,24.9241733
12,Eteläinen Hesperiankatu,00100,60.1769159,24.9254649
13,Lönnrotinkatu,00120,60.1657770,24.9364743
9,Lönnrotinkatu,00120,60.1661102,24.9374005
10,Mannerheimintie,00100,60.1674957,24.9414380
34,Albertinkatu,00120,60.1645698,24.9326030
13,Lönnrotinkatu,00120,60.1657259,24.9362782
4-6,Iso Roobertinkatu,00120,60.1638271,24.9437052
4,Pursimiehenkatu,00150,60.1603616,24.9408627
35-37,Iso Roobertinkatu,00120,60.1620463,24.9376636
19,Fredrikinkatu,00120,60.1611792,24.9416641
13,Iso Roobertinkatu,00120,60.1633943,24.9415542
10,Iso Roobertinkatu,00120,60.1636148,24.9430007
4,Yrjönkatu,00120,60.1638567,24.9443503
13,Pieni Roobertinkatu,00120,60.1642489,24.9447002
11,Vilhonvuorenkatu,00500,60.1864188,24.9668903
2,Jaalantie,00600,60.2224053,24.9614917
1,Askolantie,00600,60.2228359,24.9612588
6,Voudintie,00600,60.2197055,24.9643415
14,Ruosilantie,00390,60.2392648,24.8560483
12,Talin puistotie,00350,60.2120099,24.8596805
2,Kivalterintie,00620,60.2250657,24.9521966
1,Vanhanlinnantie,00900,60.2139202,25.0881620
2,Kastelholmantie,00900,60.2130961,25.0810671
1,Turunlinnantie,00900,60.2124353,25.0798487
12,Sammatintie,00550,60.1983357,24.9562117
4,Panuntie,00610,60.2199656,24.9477899
85-89,Hämeentie,00550,60.1964637,24.9629717
95,Hämeentie,00550,60.1972960,24.9625368
16,Paciuksenkaari,00270,60.1953257,24.8930215
12,Paciuksenkaari,00270,60.1959193,24.8948145
10,Paciuksenkaari,00270,60.1960625,24.8953878
8,Paciuksenkaari,00270,60.1961772,24.8961881
6,Paciuksenkaari,00270,60.1962129,24.8968704
1,Rahakamarinkatu,00240,60.2010187,24.9216700
3,Kauppakartanonkatu,00930,60.2093797,25.0836306
14,Turunlinnantie,00930,60.2107082,25.0788273
12,Turunlinnantie,00930,60.2110012,25.0798030
2 B,Turunlinnantie,00930,60.2132409,25.0840077
2 A,Turunlinnantie,00930,60.2134177,25.0847780
2,Tallinnanaukio,00930,60.2098617,25.0771492
2,Tallinnanaukio,00930,60.2099462,25.0770563
2,Työpajankatu,00580,60.1895832,24.9720100
7,Työpajankatu,00580,60.1892482,24.9721287
2a,Työpajankatu,00580,60.1904892,24.9706666
2,Tuulensuunkuja,00580,60.1909146,24.9670043
3,Plazankuja,00580,60.1913853,24.9669096
10-12,Orioninkatu,00550,60.1950750,24.9647926
1-3,Orioninkatu,00550,60.1941888,24.9663062
6,Allotriankuja,00580,60.1905071,24.9663267
81-83,Hämeentie,00550,60.1957781,24.9632157
2,Visbynkuja,00930,60.2087859,25.0827454
2,Rusthollarintie,00910,60.2128899,25.0967892
5,Jan-Magnus Janssonin aukio,00560,60.2010453,24.9669992
2,Pengerpolku,00500,60.1879249,24.9601038
2,Kinaporinkatu,00500,60.1884734,24.9606740
3,Vaasanpolku,00500,60.1880946,24.9611128
1,Kinaporinkatu,00500,60.1882747,24.9611289
46,Pohjolankatu,00600,60.2178740,24.9556047
50,Pohjolankatu,00600,60.2181354,24.9563763
52,Pohjolankatu,00600,60.2182674,24.9568320
8,Vaasankatu,00500,60.1882286,24.9576264
6,Vaasankatu,00500,60.1882152,24.9584267
5-7 A,Orioninkatu,00550,60.1944809,24.9660071
5-7 C,Orioninkatu,00550,60.1946789,24.9657664
5-7 B,Orioninkatu,00550,60.1945886,24.9658410
1,Tuulensuuntori,00580,60.1896992,24.9666366
10,Vellamonkatu,00550,60.1949253,24.9662907
24,Helsinginkatu,00510,60.1863694,24.9500882
24,Ruoholahdenkatu,00180,60.1642621,24.9241978
22,Ruoholahdenkatu,00180,60.1644646,24.9247509
20,Ruoholahdenkatu,00180,60.1646214,24.9251905
3,Kasöörinkatu,00520,60.1985850,24.9425850
18,Väinölänkatu,00610,60.2121929,24.9496270
10,Turunlinnantie,00930,60.2112087,25.0806442
6,Wallininkuja,00530,60.1849476,24.9442030
9,Wallininkatu,00530,60.1849965,24.9439647
11,Alppikatu,00530,60.1855475,24.9442927
40,Aleksis Kiven katu,00510,60.1902446,24.9498736
3,Ratavartijankatu,00520,60.1975721,24.9366601
1,Kumpulantie,00520,60.1965471,24.9412634
3,Kumpulantie,00520,60.1965987,24.9422890
58,Helsinginkatu,00260,60.1821014,24.9288521
2,Linnanrakentajantie,00880,60.1943430,25.0329045
2,Insinöörinkatu,00880,60.1943406,25.0343356
2,Laiturikuja,00980,60.2080909,25.1781911
2,Jäkälätie,00730,60.2614824,25.0287742
35,Vuorimiehenkatu,00150,60.1592907,24.9425191
33,Vuorimiehenkatu,00140,60.1593104,24.9438814
18,Vuorimiehenkatu,00150,60.1591172,24.9431025
22,Annankatu,00100,60.1667530,24.9368036
5,Miina Sillanpään katu,00530,60.1799381,24.9536205
14,Haapaniemenkatu,00530,60.1795178,24.9610033
14,Haapaniemenkatu,00530,60.1796531,24.9608314
3 A,Kahvikuja,00980,60.2063560,25.1465692
8,Vuosaarentie,00980,60.2097639,25.1435477
8,Vuosaarentie,00980,60.2097925,25.1436673
2,Laivurinrinne,00150,60.1612319,24.9422013
23,Pursimiehenkatu,00150,60.1591536,24.9367630
39,Iso Roobertinkatu,00120,60.1618992,24.9372539
9,Korkeavuorenkatu,00140,60.1607464,24.9466833
25,Pursimiehenkatu,00150,60.1588234,24.9358361
7,Pursimiehenkatu,00150,60.1603895,24.9403699
19,Albertinkatu,00120,60.1625726,24.9360392
11,Pursimiehenkatu,00150,60.1601337,24.9396291
23,Fredrikinkatu,00120,60.1621526,24.9403365
18,Fredrikinkatu,00120,60.1623119,24.9396088
25-31,Iso Roobertinkatu,00120,60.1624580,24.9388500
11,Klaavuntie,00910,60.2125435,25.0961659
6,Kutomotie,00380,60.2141984,24.8738180
1,Kantelettarentie,00420,60.2375319,24.8932586
31,Käpyläntie,00600,60.2218549,24.9617937
14,Siltasaarenkatu,00530,60.1790894,24.9495583
4,Siltavoudintie,00640,60.2300134,24.9649337
4,Siltavoudintie,00640,60.2298853,24.9647089
4,Siltavoudintie,00640,60.2298376,24.9646053
27a,Marjatantie,00610,60.2086397,24.9367432
10,Ratamestarinkatu,00520,60.2005942,24.9388236
6,Tallinnanaukio,00930,60.2109001,25.0799110
11,Vuorimiehenkatu,00140,60.1604237,24.9524470
8,Kluuvikatu,00100,60.1695471,24.9472185
2,Jarrumiehenkatu,00520,60.2015628,24.9407323
2,Kellosilta,00520,60.2010725,24.9410654
38,Intiankatu,00560,60.2099122,24.9631550
2,Niittyläntie,00620,60.2192740,24.9376704
1,Lallukantie,00920,60.2246898,25.0847294
1,Lallukantie,00920,60.2245726,25.0847156
1,Lallukantie,00920,60.2249384,25.0848099
1,Lallukantie,00920,60.2248200,25.0847997
10,Männikkötie,00630,60.2273995,24.9269156
46,Tapulikaupungintie,00750,60.2787990,25.0187354
3,Niittyläntie,00620,60.2196428,24.9379321
2,Iltaruskontie,00750,60.2854462,25.0178122
42,Mannerheimintie,00260,60.1780732,24.9289012
16a,Kiviportintie,00950,60.2198352,25.0981115
1,Ahdekaunokintie,00950,60.2198128,25.0981285
2,Ukko-Pekan porras,00570,60.1887103,25.0067590
1,Selkämerenkatu,00180,60.1628386,24.9151823
3,Maistraatinportti,00240,60.1987183,24.9256824
7,Pasilanraitio,00240,60.1979736,24.9262918
1,Maistraatinkatu,00240,60.1979315,24.9232224
6,Mirjaminkatu,00240,60.1982023,24.9246560
8,Vanhaistentie,00420,60.2442862,24.8823771
8,Vanhaistentie,00420,60.2444170,24.8825184
4,Maistraatinportti,00240,60.1983363,24.9263875
3,Nallitie,00940,60.2350309,25.0608868
1,Sankkikuja,00940,60.2334822,25.0630720
6,Pohjoinen Makasiinikatu,00130,60.1655781,24.9502042
5,Jääkärinkatu,00150,60.1602485,24.9454128
7,Jääkärinkatu,00150,60.1602227,24.9447309
15b,Jääkärinkatu,00150,60.1601731,24.9424943
1,Jääkärinkatu,00150,60.1603044,24.9462980
41,Laivurinkatu,00150,60.1602772,24.9423160
1,Paperitie,00390,60.2507356,24.8360860
2,Rusthollarintie,00910,60.2127440,25.0964063
11,Klaavuntie,00910,60.2126936,25.0958207
7,Läkkisepänkuja,00620,60.2205579,24.9384421
2,Kastelholmantie,00900,60.2136031,25.0803252
7 E,Itäkatu,00930,60.2102581,25.0795455
9,Metsäpurontie,00630,60.2303676,24.9333207
8,Vespertie,00320,60.2150624,24.9012749
2,Kunnallisneuvoksenkuja,00930,60.2075013,25.0946794
2,Töysänkatu,00510,60.1949437,24.9477360
8,Ludviginkatu,00130,60.1656876,24.9445411
4,Asemamiehenkatu,00520,60.2006295,24.9387411
3,Asemapäällikönkatu,00520,60.1992170,24.9420976
7,Maistraatinkatu,00240,60.1999319,24.9221147
2,Lohkarekuja,00940,60.2399232,25.0688973
6,Tehtaankatu,00140,60.1589561,24.9526015
12,Pietarinkatu,00140,60.1571569,24.9476181
1,Topeliuksenkatu,00260,60.1795951,24.9228251
37,Laivurinkatu,00150,60.1594654,24.9425102
39,Laivurinkatu,00150,60.1598165,24.9424596
33,Laivurinkatu,00150,60.1584666,24.9416584
11,Tehtaankatu,00150,60.1583466,24.9455835
13,Tehtaankatu,00150,60.1583058,24.9447148
26,Tehtaankatu,00150,60.1580303,24.9434317
15,Läkkisepäntie,00620,60.2191443,24.9404821
11a,Sorvaajankatu,00880,60.1959167,25.0435824
1,A.I. Virtasen aukio,00560,60.2055999,24.9639498
3,Nilsiänkatu,00510,60.1942066,24.9533520
6-8,Läkkisepäntie,00620,60.2191276,24.9374025
2,Niittyläntie,00620,60.2191439,24.9376872
25,Mäkitorpantie,00640,60.2278065,24.9580961
12,Harjannetie,00710,60.2288436,24.9963842
3,Kiviteltankatu,00710,60.2287776,24.9966062
82,Pakilantie,00660,60.2457258,24.9242855
4,Otto Brandtin polku,00650,60.2331431,24.9807182
10,Lepolantie,00660,60.2407898,24.9442659
19,Jakokunnantie,00660,60.2413449,24.9448225
5,Lepolantie,00660,60.2411524,24.9449222
17,Osuuskunnantie,00660,60.2404318,24.9468885
13,Jakokunnantie,00660,60.2402685,24.9443902
3,Lepolantie,00660,60.2411957,24.9454079
27,Osuuskunnantie,00660,60.2399967,24.9446317
6,Linnoittajantie,00940,60.2449911,25.0725240
6,Linnoittajantie,00940,60.2451149,25.0734936
6,Linnoittajantie,00940,60.2450940,25.0739115
24,Merimiehenkatu,00150,60.1599853,24.9374928
33,Merimiehenkatu,00150,60.1599472,24.9367903
1,Strömsinlahdenkuja,00820,60.2014600,25.0662690
2,Töölönlahdenkatu,00100,60.1722385,24.9380790
7,Oulunkyläntie,00600,60.2205315,24.9630235
2 F,Jänkäpolku,00970,60.2390938,25.1098770
18,Takkatie,00370,60.2220277,24.8519393
9,Rapakivenkuja,00710,60.2408873,25.0038619
2 B,Santakatu,00180,60.1620717,24.9202845
3,Reijolankatu,00250,60.1899907,24.9174705
10,Tenholantie,00280,60.2023183,24.9081139
5,Hitsaajankatu,00810,60.1920978,25.0269675
24,Jakomäentie,00770,60.2540224,25.0769233
15c,Louhikkotie,00770,60.2562043,25.0769675
17,Kytkintie,00770,60.2561246,25.0625101
35,Autotallintie,00770,60.2623858,25.0555362
18,Akkutie,00770,60.2607816,25.0569220
20,Autotallintie,00770,60.2596298,25.0497355
3,Salomonkatu,00100,60.1704928,24.9344989
2,Säkkikatu,00770,60.2578285,25.0650953
1,Kantelettarentie,00420,60.2369376,24.8924097
7,Kustaankatu,00500,60.1886067,24.9560596
23,Vaasankatu,00500,60.1884602,24.9550582
25 A,Vaasankatu,00500,60.1884645,24.9544404
29,Vaasankatu,00500,60.1884876,24.9536176
22,Sienitie,00760,60.2689865,25.0752543
24,Sienitie,00760,60.2695639,25.0754759
11,Savelantie,00720,60.2393141,24.9916987
6,Ratavallintie,00720,60.2407675,24.9917940
6,Ratavallintie,00720,60.2409109,24.9921001
6,Ratavallintie,00720,60.2408483,24.9919783
34,Kolmas linja,00530,60.1848721,24.9425626
17,Kuninkaantammentie,00430,60.2656959,24.8966566
5,Puustellinpolku,00410,60.2472375,24.8614245
5,Puustellinpolku,00410,60.2470795,24.8613016
5,Puustellinpolku,00410,60.2469131,24.8611821
4,Puustellintie,00410,60.2467226,24.8603426
4,Puustellintie,00410,60.2468192,24.8607532
4,Puustellintie,00410,60.2469631,24.8610117
8,Kantelettarentie,00420,60.2406911,24.8848845
8,Kantelettarentie,00420,60.2406205,24.8851691
8,Kantelettarentie,00420,60.2405498,24.8854544
8,Kantelettarentie,00420,60.2402345,24.8855163
8,Kantelettarentie,00420,60.2400888,24.8853754
8,Kantelettarentie,00420,60.2404147,24.8854778
13b,Hämeentie,00530,60.1837327,24.9595500
4,Puistolantori,00760,60.2746695,25.0460678
5,Vuolukiventie,00710,60.2356811,25.0005046
12,Tattariharjuntie,00700,60.2435910,25.0326190
8,Kantelettarentie,00420,60.2400493,24.8843208
8,Kantelettarentie,00420,60.2402513,24.8844006
8,Neulapadontie,00920,60.2233307,25.0626008
6,Ratavallintie,00720,60.2410888,24.9926188
6,Ratavallintie,00720,60.2410310,24.9927423
6,Ratavallintie,00720,60.2409280,24.9929597
22,Tehtaankatu,00140,60.1581540,24.9462963
20,Tehtaankatu,00140,60.1581787,24.9468380
16,Tehtaankatu,00140,60.1582356,24.9480853
18,Tehtaankatu,00140,60.1582077,24.9474744
5-7,Hietalahdenranta,00120,60.1613165,24.9300530
22,Hitsaajankatu,00810,60.1928337,25.0341625
17,Laajalahdentie,00330,60.1993852,24.8774067
32,Aidasmäentie,00650,60.2294354,24.9795976
32c,Aidasmäentie,00650,60.2295845,24.9795932
32c,Aidasmäentie,00650,60.2295100,24.9795954
14,Vaasankatu,00500,60.1882342,24.9556135
2,Kanneltie,00420,60.2401494,24.8828919
2,Kanneltie,00420,60.2401108,24.8831225
2,Kanneltie,00420,60.2400545,24.8834596
2,Kanneltie,00420,60.2409041,24.8832020
2,Kanneltie,00420,60.2408667,24.8834239
2,Kanneltie,00420,60.2408260,24.8836651
2,Kanneltie,00420,60.2407887,24.8838866
2,Kanneltie,00420,60.2405858,24.8839902
2,Kanneltie,00420,60.2404733,24.8839149
2,Kanneltie,00420,60.2403617,24.8838403
2,Kanneltie,00420,60.2402464,24.8837631
2,Auroranportti,00250,60.1914271,24.9236000
19,Kuninkaantammentie,00430,60.2660206,24.8982349
3B,Rahakamarinportti,00240,60.2015173,24.9215574
2,Pohjoisranta,00170,60.1699886,24.9592738
2,Askolantie,00600,60.2229881,24.9611361
4,Marunakuja,00840,60.1833743,25.0627583
20,Askolantie,00600,60.2227210,24.9647130
19,Munkkiniemen puistotie,00330,60.1981550,24.8775036
25,Lönnrotinkatu,00180,60.1646347,24.9331951
30,Yrjönkatu,00100,60.1676670,24.9376293
22,Munkkiniemen puistotie,00330,60.1977383,24.8764043
1,Siltavoudintie,00640,60.2293511,24.9645572
33,Solnantie,00330,60.1978615,24.8795854
7,Munkkiniemen puistotie,00330,60.1972880,24.8818295
13,Karviaistie,00720,60.2459432,25.0043697
13,Ruotutorpankuja,00720,60.2459291,25.0036417
6,Petter Wetterin tie,00810,60.1914229,25.0328252
27,Paciuksenkaari,00270,60.1955097,24.8923754
27,Paciuksenkaari,00270,60.1957298,24.8919092
168B,Mannerheimintie,00300,60.2029401,24.8987806
20,Mannerheimintie,00100,60.1691839,24.9385867
15,Malminkaari,00700,60.2510722,25.0129502
14,Hiihtomäentie,00810,60.1952805,25.0305899
14,Hiihtomäentie,00810,60.1954019,25.0308089
35,Solnantie,00330,60.1982767,24.8799873
14,Hiihtomäentie,00810,60.1948538,25.0294432
14,Hiihtomäentie,00810,60.1949444,25.0298553
14,Hiihtomäentie,00810,60.1950880,25.0301556
6-8,Laivasillankatu,00140,60.1597715,24.9550725
36,Hiihtomäentie,00800,60.2037414,25.0326712
17,Korppaanmäentie,00300,60.2057405,24.8921865
104,Mannerheimintie,00250,60.1893806,24.9163968
104,Mannerheimintie,00250,60.1893897,24.9165228
12,Kenttäkuja,00720,60.2498002,24.9912196
13,Vaasankatu,00500,60.1884772,24.9578787
4,Vaasankatu,00500,60.1882009,24.9590676
2,Töölöntullinkatu,00250,60.1894824,24.9144918
5,Stenbäckinkatu,00250,60.1893724,24.9143103
8,Topeliuksenkatu,00250,60.1839811,24.9177244
6,Töölöntullinkatu,00250,60.1899625,24.9132614
12,Eläintarhantie,00530,60.1802791,24.9410918
3,Mikkolankuja,00640,60.2404289,24.9665146
8,Päivärinnankatu,00250,60.1881981,24.9157928
2,Stenbäckinkatu,00250,60.1894600,24.9161019
1,Ruosilantie,00390,60.2366740,24.8594644
5,Maapadontie,00640,60.2317797,24.9472024
5,Maapadontie,00640,60.2312750,24.9471036
5,Maapadontie,00640,60.2314105,24.9469839
5,Maapadontie,00640,60.2315459,24.9468641
5,Maapadontie,00640,60.2316814,24.9467444
5,Maapadontie,00640,60.2315063,24.9474438
5,Maapadontie,00640,60.2316430,24.9473231
6,Nastolantie,00600,60.2202177,24.9644922
32b,Tehtaankatu,00150,60.1577793,24.9392647
32a,Tehtaankatu,00150,60.1578456,24.9397267
34 B,Tehtaankatu,00150,60.1577014,24.9371265
5-7,Edelfeltintie,00150,60.1576631,24.9387272
15,Teinintie,00640,60.2303842,24.9594098
15,Teinintie,00640,60.2304751,24.9596805
15,Teinintie,00640,60.2305657,24.9599504
5,Laivalahdenportti,00810,60.1914673,25.0339437
14,Tehtaankatu,00140,60.1582647,24.9487225
5,Tehtaankatu,00140,60.1584783,24.9480182
1,Narinkka,00100,60.1700092,24.9342701
14,Sahaajankatu,00880,60.1976849,25.0470263
6-8,Linnanrakentajantie,00880,60.1932940,25.0383276
14,Siltasaarenkatu,00530,60.1789996,24.9495552
40,Kasarmikatu,00130,60.1656206,24.9474862
6,Kolmas linja,00530,60.1815628,24.9510901
57,Runeberginkatu,00260,60.1797524,24.9240627
58,Runeberginkatu,00260,60.1814692,24.9260393
1,Raumantie,00350,60.2060944,24.8782475
1,Raumantie,00350,60.2056252,24.8792882
1,Raumantie,00350,60.2055252,24.8793687
5b,Hämeentie,00530,60.1812829,24.9544344
5,Hämeentie,00530,60.1810059,24.9536431
1,Vetehisenkuja,00530,60.1812143,24.9542209
5,Vetehisenkuja,00530,60.1806887,24.9554762
6,Haapaniemenkatu,00530,60.1811545,24.9588963
7-9,Haapaniemenkatu,00530,60.1795732,24.9590325
8,Tehtaankatu,00140,60.1587493,24.9515205
12,Tehtaankatu,00140,60.1584195,24.9497968
6,Petter Wetterin tie,00810,60.1915531,25.0328017
36,Bulevardi,00120,60.1629576,24.9335265
47,Kalevankatu,00180,60.1643869,24.9292429
51,Kalevankatu,00100,60.1640612,24.9283085
49,Töölönkatu,00250,60.1834511,24.9209162
8,Eino Leinon katu,00250,60.1835898,24.9210986
3,Ruusulankatu,00260,60.1816479,24.9254356
53,Töölönkatu,00250,60.1845661,24.9192831
8,Humalistonkatu,00250,60.1839740,24.9185707
52,Töölönkatu,00250,60.1844553,24.9187571
9,Humalistonkatu,00250,60.1843553,24.9188162
1a,Välskärinkatu,00260,60.1773744,24.9215654
25,Hiihtomäentie,00800,60.2009289,25.0314732
25,Hiihtomäentie,00800,60.2010495,25.0316109
33,Pohjoinen Hesperiankatu,00260,60.1767708,24.9167966
13,Sibeliuksenkatu,00250,60.1818892,24.9204225
42a,Töölönkatu,00250,60.1824286,24.9217202
3-5,Pikku Satamakatu,00160,60.1657125,24.9664797
11,Humalistonkatu,00250,60.1841433,24.9182261
12-14,Sibeliuksenkatu,00260,60.1807904,24.9181911
14,Urheilukatu,00250,60.1855876,24.9234939
16,Urheilukatu,00250,60.1859796,24.9228876
94,Mannerheimintie,00250,60.1874606,24.9186665
92,Mannerheimintie,00250,60.1871596,24.9189495
1,Ruusankatu,00250,60.1869850,24.9190231
3a,Nordenskiöldinkatu,00250,60.1867940,24.9179088
116,Mannerheimintie,00270,60.1915707,24.9114148
1,Tukholmankatu,00270,60.1914267,24.9115435
108,Mannerheimintie,00250,60.1900599,24.9149044
110,Mannerheimintie,00250,60.1903080,24.9143089
112,Mannerheimintie,00250,60.1906023,24.9137159
56,Urheilukatu,00250,60.1916615,24.9141307
44,Urheilukatu,00250,60.1900760,24.9175188
8,Töölöntullinkatu,00250,60.1903166,24.9125608
1,Stenbäckinkatu,00250,60.1897282,24.9153770
3,Stenbäckinkatu,00250,60.1896069,24.9151627
106,Mannerheimintie,00250,60.1898339,24.9154789
20,Topeliuksenkatu,00250,60.1870785,24.9138595
90,Mannerheimintie,00250,60.1867816,24.9195351
2,Länsisatamankatu,00180,60.1636659,24.9082331
18,Porkkalankatu,00180,60.1640496,24.9136455
3,Selkämerenkatu,00180,60.1622317,24.9152875
3,Länsisatamankatu,00180,60.1633866,24.9069440
28,Melkonkatu,00210,60.1536936,24.8812588
2,Heikkiläntie,00210,60.1542849,24.8795894
3,Seljatie,00320,60.2183516,24.8908867
5,Angervotie,00320,60.2185509,24.8905384
2,Santakatu,00180,60.1624864,24.9212963
6,Porkkalankatu,00180,60.1642471,24.9203678
3,Itämerenkatu,00180,60.1637250,24.9200589
9,Itämerenkatu,00180,60.1636474,24.9179073
1a,Mechelininkatu,00180,60.1641182,24.9217269
14,Porkkalankatu,00180,60.1640779,24.9163385
5,Itämerenkatu,00180,60.1642037,24.9189882
8,Porkkalankatu,00180,60.1642312,24.9197106
1,Pohjoinen Hesperiankatu,00260,60.1779474,24.9287841
3,Pohjoinen Hesperiankatu,00260,60.1779037,24.9283546
47,Runeberginkatu,00260,60.1774477,24.9228609
49,Runeberginkatu,00260,60.1777772,24.9229441
51,Runeberginkatu,00260,60.1783052,24.9230624
2,Töölöntorinkatu,00260,60.1776696,24.9246128
7,Nordenskiöldinkatu,00250,60.1881871,24.9190114
5,Tamminiementie,00250,60.1909297,24.8850073
1,Töölöntullinkatu,00250,60.1895492,24.9150535
2,Hattulantie,00550,60.1964060,24.9567394
6,Toinen linja,00530,60.1830042,24.9439934
9,Tapulikaupungintie,00750,60.2762653,25.0347833
10,Eerikinkatu,00100,60.1671249,24.9353408
18,Liisankatu,00170,60.1740168,24.9540296
29,Yrjönkatu,00100,60.1685908,24.9370325
30,Fabianinkatu,00014,60.1713848,24.9482594
39,Fabianinkatu,00100,60.1726583,24.9492317
5,Pietari Kalmin katu,00560,60.2044199,24.9617693
8,Harjukatu,00500,60.1890287,24.9583452
13,Kartanonmetsäntie,00410,60.2505955,24.8570871
11,Pihkatie,00410,60.2506613,24.8528734
10b,Pihkatie,00410,60.2505063,24.8545626
7,Pihkatie,00410,60.2511786,24.8550870
1,Tuohiaukio,00410,60.2517219,24.8580825
3,Koskustie,00410,60.2531984,24.8567494
6,Pihkatie,00410,60.2518499,24.8558592
24,Siltasaarenkatu,00530,60.1820297,24.9491022
2A,Neulastie,00410,60.2514279,24.8499045
8,Kartanonmetsäntie,00410,60.2491173,24.8549884
12,Pihkatie,00410,60.2499398,24.8538726
18,Pihkatie,00410,60.2502912,24.8518288
22,Pihkatie,00410,60.2509194,24.8510993
1,Neulastie,00410,60.2509688,24.8506905
4,Kaarnatie,00410,60.2499026,24.8541677
4,Jälsitie,00410,60.2490241,24.8530840
7,Sepänkatu,00150,60.1593125,24.9398277
9,Sepänkatu,00150,60.1591022,24.9392446
11,Sepänkatu,00150,60.1588919,24.9386618
7c,Kanavakatu,00160,60.1649275,24.9695674
5 A,Ansaritie,00350,60.2099412,24.8869561
1,Ansaritie,00320,60.2087552,24.8865705
1,Ansaritie,00320,60.2089503,24.8865357
4,Ilkantie,00400,60.2216437,24.9020798
13,Ilkantie,00400,60.2236006,24.9004326
4,Selkämerenpolku,00180,60.1601787,24.9158538
2,Selkämerenpolku,00180,60.1603948,24.9163161
3,Selkämerenkatu,00180,60.1624638,24.9152139
8,Merisatamanranta,00150,60.1551146,24.9504676
1,Helsinginkatu,00500,60.1877908,24.9597694
3,Harjukatu,00500,60.1880753,24.9582452
3-5,Helsinginkatu,00500,60.1877402,24.9584166
1,Harjukatu,00500,60.1877952,24.9581698
5,Haapaniemenkatu,00530,60.1807797,24.9585394
35,Kartanonkaari,00410,60.2504171,24.8671496
18,Vaasankatu,00500,60.1882268,24.9542762
15,Fleminginkatu,00500,60.1865080,24.9534752
13,Fleminginkatu,00500,60.1862837,24.9534519
13,Fleminginkatu,00500,60.1862149,24.9534638
5,Fleminginkatu,00530,60.1843994,24.9533451
30,Härkävaljakontie,00750,60.2834191,25.0300961
21,Itämerenkatu,00180,60.1635069,24.9086223
22 A,Porkkalankatu,00180,60.1640540,24.9094822
14,Itämerenkatu,00180,60.1628556,24.9145472
3,Energiakatu,00180,60.1660300,24.9036710
22,Porkkalankatu,00180,60.1639851,24.9087927
21,Itämerenkatu,00180,60.1635607,24.9106262
21,Itämerenkatu,00180,60.1636657,24.9108742
21,Itämerenkatu,00180,60.1634284,24.9099553
21,Itämerenkatu,00180,60.1635355,24.9104633
5,Piritankatu,00150,60.1557987,24.9319109
1,Vadstenankuja,00150,60.1553502,24.9324152
2,Birgittalaiskatu,00150,60.1550939,24.9312779
1,Piritankatu,00150,60.1554516,24.9310311
1b,Hylkeenpyytäjänkatu,00150,60.1552514,24.9311170
6,Birgittalaiskatu,00150,60.1552568,24.9323186
1,Piritanaukio,00150,60.1557480,24.9321791
3,Itämerenkatu,00180,60.1637101,24.9202490
12,Eino Leinon katu,00250,60.1836132,24.9189713
51b,Töölönkatu,00250,60.1842069,24.9197960
60,Runeberginkatu,00260,60.1815946,24.9263861
50,Runeberginkatu,00260,60.1802640,24.9237741
55b,Runeberginkatu,00260,60.1795877,24.9239242
9,Caloniuksenkatu,00100,60.1746921,24.9214169
9,Pohjoinen Hesperiankatu,00260,60.1776772,24.9264443
1,Riihipellontie,00390,60.2382027,24.8461387
8,Nordenskiöldinkatu,00250,60.1863164,24.9169656
1,Raumantie,00350,60.2057603,24.8774275
7,Topiaksentie,00760,60.2727439,25.0557781
9,Topiaksentie,00760,60.2728774,25.0555747
1,Topiaksentie,00760,60.2730132,25.0573193
2,Sirkkalanpolku,00760,60.2750174,25.0542495
2,Laaksotie,00760,60.2738240,25.0553236
16-20,Kehtotie,00760,60.2733880,25.0560126
9,Ounasvaarantie,00970,60.2387507,25.1095791
59,Runeberginkatu,00260,60.1801409,24.9245922
1a,Kivelänkatu,00260,60.1805263,24.9275850
54B,Mäkelänkatu,00510,60.1968145,24.9507933
33,Hämeentie,00500,60.1881968,24.9638567
2,Hermannin rantatie,00580,60.1872498,24.9781688
2,Hermannin rantatie,00580,60.1875020,24.9770176
23,Papinmäentie,00630,60.2354793,24.9233867
28,Pirjontie,00630,60.2339947,24.9243083
3,Papinmäentie,00630,60.2359228,24.9283023
8,Sibeliuksenkatu,00260,60.1823939,24.9227625
3c,Mechelininkatu,00100,60.1694909,24.9214970
3d,Mechelininkatu,00100,60.1699216,24.9214176
2,Hiililaiturinkuja,00180,60.1666214,24.9009396
28,Arkadiankatu,00100,60.1713387,24.9209760
9,Mechelininkatu,00100,60.1710434,24.9208994
4,Ruusulankatu,00260,60.1814639,24.9250173
6,Ruusulankatu,00260,60.1817746,24.9245104
54b,Runeberginkatu,00260,60.1809651,24.9248778
54,Runeberginkatu,00260,60.1808648,24.9247209
3,Sandelsinkatu,00260,60.1789850,24.9220916
80,Osuuskunnantie,00660,60.2375921,24.9258338
9,Porintie,00350,60.2049834,24.8674775
70,Lepolantie,00660,60.2389442,24.9286994
1,Rapparinkuja,00660,60.2366583,24.9174182
5 x,Porintie,00350,60.2054774,24.8689575
10,Ulvilantie,00350,60.2038378,24.8686653
10,Yrjönkatu,00120,60.1646704,24.9432115
33,Aleksis Kiven katu,00520,60.1940910,24.9417765
2,Venttiilikuja,00520,60.1943416,24.9415351
