House number,Street name,Postal code,Latitude,Longitude
140,Vahrenwalder Straße,30165,52.3984411,9.7369772
33,Sahlkamp,30179,52.4114410,9.7479747
1,Lindener Marktplatz,30449,52.3667652,9.7142283
1,Lindener Marktplatz,30449,52.3669072,9.7142682
11,Leinstraße,30159,52.3692449,9.7365097
46,Melanchthonstraße,30165,52.3983311,9.7315027
13,Harzburger Platz,30419,52.4038223,9.6914145
27,Meldaustraße,30419,52.3935303,9.6851162
31,Geibelstraße,30173,52.3604067,9.7558619
2,Sophienstraße,30159,52.3728248,9.7434713
91,Landwehrstraße,30519,52.3362208,9.7614920
42,Voßstraße,30161,52.3894272,9.7431594
51,Voßstraße,30163,52.3909167,9.7441553
39,Voßstraße,30161,52.3897347,9.7431977
6,Fiedelerplatz,30519,52.3399636,9.7640288
77,Kirchröder Straße,30625,52.3718315,9.7928749
23,Fiedelerstraße,30519,52.3404727,9.7638565
13,Borgentrickstraße,30519,52.3381895,9.7659203
8,Borgentrickstraße,30519,52.3387016,9.7663538
5,Rundestraße,30161,52.3803133,9.7398276
26,Mendelssohnstraße,30173,52.3570259,9.7554646
140,Bischofsholer Damm,30173,52.3641296,9.7732671
82,Hildesheimer Straße,30169,52.3601658,9.7501730
8,Bertha-von-Suttner-Platz,30173,52.3587511,9.7609954
36C,Schlägerstraße,30171,52.3623971,9.7527176
26A,Mendelssohnstraße,30173,52.3571401,9.7553737
51,Rudolf-von-Bennigsen-Ufer,30173,52.3540725,9.7457039
43,Marienstraße,30171,52.3693700,9.7492680
55,Marienstraße,30171,52.3696488,9.7514280
45,Marktstraße,30159,52.3703638,9.7377293
6,Fiedelerplatz,30519,52.3400457,9.7639783
14,Karmarschstraße,30159,52.3737659,9.7378792
19,Jädekamp,30419,52.4148794,9.6434917
20,Hans-Böckler-Allee,30173,52.3705826,9.7733886
3,Altenbekener Damm,30173,52.3579062,9.7681685
26,Altenbekener Damm,30173,52.3569026,9.7625134
202,Hildesheimer Straße,30519,52.3453676,9.7616643
2G,Karlsruher Straße,30519,52.3297604,9.7886880
28,Borriesstraße,30519,52.3477694,9.7730668
9,Prinzenstraße,30159,52.3734568,9.7439211
2,Hohe Linde,30519,52.3344701,9.7919630
1,Pfarrlandstraße,30451,52.3742208,9.7056565
51,Groß-Buchholzer Kirchweg,30655,52.4016476,9.8029876
51,Wülferoder Straße,30539,52.3389540,9.8331510
51,Wülferoder Straße,30539,52.3386003,9.8330340
8,Abelmannstraße,30519,52.3366929,9.7635680
86,Holzwiesen,30179,52.4177246,9.7655159
3,Dresdener Straße,30179,52.4111700,9.7517009
13,Bahnhofstraße,30159,52.3750380,9.7388577
24,Kirchhorster Straße,30659,52.4144001,9.8261072
14,Schneiderberg,30167,52.3886902,9.7165983
150,Vahrenwalder Straße,30165,52.4000819,9.7363216
5,Großer Kolonnenweg,30163,52.4048654,9.7368246
34,Wöhlerstraße,30163,52.3971196,9.7494075
44,Ferdinand-Wallbrecht-Straße,30163,52.3934578,9.7462879
140,Vahrenwalder Straße,30165,52.3988595,9.7368961
28,Dragonerstraße,30163,52.3943961,9.7374188
30,Dragonerstraße,30163,52.3943626,9.7379212
9,Husarenstraße,30163,52.3927270,9.7426369
22,Wunstorfer Straße,30453,52.3764226,9.6935093
8a,Bangemannweg,30459,52.3478063,9.7220234
8,Heisterbergallee,30453,52.3781176,9.6734350
77,Mecklenheidestraße,30419,52.4158548,9.6783729
28,Limmerstraße,30451,52.3728616,9.7095292
42,Ferdinand-Wallbrecht-Straße,30163,52.3930373,9.7466078
2,Möckernstraße,30163,52.4000979,9.7412376
311,Podbielskistraße,30659,52.4060720,9.7988745
315,Podbielskistraße,30659,52.4064709,9.7997211
344,Podbielskistraße,30655,52.4050475,9.7980856
79,Sallstraße,30171,52.3618633,9.7596045
77,Sallstraße,30171,52.3620032,9.7592788
1,Bernwardstraße,30519,52.3406293,9.7659633
240,Hildesheimer Straße,30519,52.3404015,9.7661859
3,Steinmetzstraße,30163,52.3938759,9.7426849
32,Königsworther Straße,30167,52.3743570,9.7188178
39,Königsworther Straße,30167,52.3740517,9.7190232
1,Andreaestraße,30159,52.3750549,9.7378107
5,Ernst-August-Platz,30159,52.3757707,9.7394201
3,Ernst-August-Platz,30159,52.3767359,9.7391401
21,Georgstraße,30159,52.3753910,9.7354527
14,Bahnhofstraße,30159,52.3748817,9.7386452
80,Im Heidkampe,30659,52.4169871,9.8066991
4,Raschplatz,30161,52.3780577,9.7437054
9,Rathenaustraße,30159,52.3739274,9.7419118
20,Voßstraße,30161,52.3882144,9.7406733
7,Martinstraße,30659,52.4114577,9.8033023
272,Vahrenwalder Straße,30179,52.4163185,9.7343173
3,Hahnenstraße,30167,52.3866296,9.7198834
21,Am Kleinen Felde,30167,52.3852377,9.7221827
11,Schaufelder Straße,30167,52.3884213,9.7188658
1,Klaus-Müller-Kilian-Weg,30167,52.3878766,9.7183326
54,Stöckener Straße,30419,52.3990058,9.6720120
21,An der Christuskirche,30167,52.3807222,9.7254338
6,Raschplatz,30161,52.3786167,9.7442460
5,Ahlemer Straße,30451,52.3726842,9.7065007
5,Velberstraße,30451,52.3730100,9.7068009
18,Egestorffstraße,30449,52.3673358,9.7110719
10,Velberstraße,30451,52.3727663,9.7062144
108,Marienstraße,30171,52.3701312,9.7595418
386,Hildesheimer Straße,30519,52.3275225,9.7784853
269A,Vahrenwalder Straße,30179,52.4165187,9.7332569
4,Heidering,30625,52.3810302,9.8127635
88,Misburger Straße,30625,52.3798572,9.8126254
81,Misburger Straße,30625,52.3798888,9.8107177
83,Misburger Straße,30625,52.3798766,9.8111347
120,Ricklinger Stadtweg,30459,52.3543585,9.7231543
7,Spichernstraße,30161,52.3876123,9.7411301
70,Groß-Buchholzer Kirchweg,30655,52.4009977,9.8032367
68,Groß-Buchholzer Kirchweg,30655,52.4013626,9.8028467
348-350,Podbielskistraße,30659,52.4062693,9.8009821
92,Limmerstraße,30451,52.3752130,9.7022214
88,Limmerstraße,30451,52.3751602,9.7023985
4,Windheimstraße,30451,52.3747577,9.7001588
50,Kleestraße,30625,52.3830492,9.7905671
13A,Berliner Allee,30175,52.3780257,9.7490676
30,Königstraße,30175,52.3773459,9.7521803
60,Am Schafbrinke,30519,52.3466586,9.7813067
90,Kirchröder Straße,30625,52.3721096,9.7891377
91-92,Kirchröder Straße,30625,52.3721036,9.7889602
95,Kirchröder Straße,30625,52.3721822,9.7885122
101,Kirchröder Straße,30625,52.3723558,9.7866324
105,Kirchröder Straße,30625,52.3724185,9.7857776
107,Kirchröder Straße,30625,52.3724599,9.7853320
9,Scheidestraße,30625,52.3724830,9.7837036
3,Scheidestraße,30625,52.3723159,9.7830062
135,Brabeckstraße,30539,52.3467186,9.8275874
8,Bemeroder Rathausplatz,30539,52.3470337,9.8282797
7a,Bemeroder Rathausplatz,30539,52.3470232,9.8285040
101,Ricklinger Straße,30449,52.3549518,9.7203189
6,Raschplatz,30161,52.3787662,9.7441379
6,Fischerhof,30449,52.3549220,9.7199040
11-13,Brühlstraße,30169,52.3759205,9.7253938
12,Königstraße,30175,52.3758945,9.7495507
47,Karmarschstraße,30159,52.3710813,9.7362420
12,Am Markte,30159,52.3713405,9.7349763
31,Burgstraße,30159,52.3717806,9.7326828
1,Bürgerstraße,30161,52.3872483,9.7487421
14,Friesenstraße,30161,52.3806789,9.7443936
2,Lindener Marktplatz,30449,52.3667658,9.7149655
4,Siemensstraße,30173,52.3562668,9.7510842
228,Hildesheimer Straße,30519,52.3414900,9.7652599
86,Niki-de-Saint-Phalle-Promenade,30161,52.3777348,9.7427940
78,Niki-de-Saint-Phalle-Promenade,30161,52.3775906,9.7426198
8,Ernst-August-Platz,30159,52.3753295,9.7413021
58,Liebrechtstraße,30519,52.3503105,9.7738742
46,Kriegerstraße,30161,52.3871007,9.7408174
93,Bemeroder Straße,30539,52.3463368,9.8204648
91,Bemeroder Straße,30539,52.3463239,9.8186743
91,Bemeroder Straße,30539,52.3463515,9.8193919
1B,Loebensteinstraße,30175,52.3762298,9.7540876
14,Ferdinand-Wallbrecht-Straße,30163,52.3904511,9.7491180
1,Ferdinand-Wallbrecht-Straße,30163,52.3889535,9.7500090
1,Wedekindstraße,30161,52.3853655,9.7475829
12,In der Steinriede,30161,52.3860060,9.7496794
11,Moltkeplatz,30163,52.3931840,9.7457704
46,Bödekerstraße,30161,52.3832761,9.7534874
27,Bödekerstraße,30161,52.3827177,9.7530439
158,Lange-Hop-Straße,30539,52.3464579,9.8208753
153,Brabeckstraße,30539,52.3438766,9.8273706
8,Wülferoder Straße,30539,52.3394725,9.8289780
35,Ricklinger Stadtweg,30459,52.3459485,9.7241860
52,Sedanstraße,30161,52.3814360,9.7473763
186,Podbielskistraße,30177,52.3985965,9.7764052
3,Zur Bettfedernfabrik,30451,52.3769308,9.7115922
61,Elisenstraße,30451,52.3745941,9.7063661
1,Moosbergstraße,30419,52.4101993,9.6644571
1,Moosbergstraße,30419,52.4101892,9.6645873
21/23,Podbielskistraße,30163,52.3903084,9.7530989
5,Alexanerstraße,30159,52.3740011,9.7453425
18,Vahrenwalder Straße,30165,52.3870146,9.7345185
159,Haltenhoffstraße,30419,52.3964536,9.6924573
7,Loebensteinstraße,30175,52.3768906,9.7552272
10,Heinrich-Heine-Straße,30173,52.3563437,9.7559841
115,Hildesheimer Straße,30173,52.3553315,9.7548263
2,Stresemannallee,30173,52.3587192,9.7610746
18,An der Weide,30173,52.3630149,9.7642811
9,Kurt-Schumacher-Straße,30159,52.3766547,9.7370761
11c,Raschplatz,30161,52.3788229,9.7436293
130,Badenstedter Straße,30455,52.3601654,9.6785045
15,Friesenstraße,30161,52.3809479,9.7460053
12,Bussilliatweg,30419,52.3942568,9.6890175
293,Hildesheimer Straße,30519,52.3352273,9.7717391
284,Hildesheimer Straße,30519,52.3357082,9.7701923
3,Schaumburgstraße,30419,52.3944093,9.6936831
170,Haltenhoffstraße,30419,52.3966646,9.6909457
126,Herrenhäuser Straße,30419,52.3965225,9.6772218
5,Böttcherstraße,30419,52.3927448,9.6902928
6,Böttcherstraße,30419,52.3929523,9.6903610
8,Böttcherstraße,30419,52.3933927,9.6904982
9,Böttcherstraße,30419,52.3935006,9.6903890
10,Böttcherstraße,30419,52.3935661,9.6902731
11,Böttcherstraße,30419,52.3936760,9.6898745
34,Bussilliatweg,30419,52.3959288,9.6898249
24,Bussilliatweg,30419,52.3951638,9.6894828
16,Bussilliatweg,30419,52.3945101,9.6891957
8,Bussilliatweg,30419,52.3940174,9.6888133
17,Bussilliatweg,30419,52.3943571,9.6884909
21,Bussilliatweg,30419,52.3947509,9.6885313
29,Bussilliatweg,30419,52.3955648,9.6889412
23,Bussilliatweg,30419,52.3950516,9.6889639
1,Lehmannstraße,30455,52.3642894,9.6726464
77,Wülfeler Straße,30539,52.3377273,9.8140917
33,Hegebläch,30419,52.3960949,9.6913158
380,Hildesheimer Straße,30519,52.3272521,9.7772213
55,Voßstraße,30163,52.3913026,9.7444246
47,Ricklinger Stadtweg,30459,52.3476566,9.7235158
38,Ricklinger Stadtweg,30459,52.3465894,9.7243568
42,Ricklinger Stadtweg,30459,52.3471776,9.7241547
41,Ricklinger Stadtweg,30459,52.3471319,9.7236738
41,Pfarrstraße,30459,52.3469838,9.7225683
40,Ricklinger Stadtweg,30459,52.3466997,9.7243269
33,Ricklinger Stadtweg,30459,52.3456641,9.7243021
46,Pfarrstraße,30459,52.3469609,9.7242345
1,Steckerstraße,30459,52.3432247,9.7256530
7,Anne-Stache-Allee,30459,52.3423140,9.7242775
7,Anne-Stache-Allee,30459,52.3421147,9.7243548
27,Kattenbrookstrift,30539,52.3331857,9.8296431
2c,Welfengarten,30167,52.3832209,9.7189080
15-17,Limmerstraße,30451,52.3720516,9.7109794
39a,Ricklinger Stadtweg,30459,52.3466117,9.7239323
6,Weidestraße,30453,52.3748376,9.6941376
10,Friedrichswall,30159,52.3677376,9.7424456
1,Brauhofstraße,30449,52.3669285,9.7087658
10,Haasemannstraße,30449,52.3698330,9.7136063
17,Limmerstraße,30451,52.3722080,9.7106119
65,Limmerstraße,30451,52.3739752,9.7055345
2,Richard-Lattorf-Straße,30453,52.3843611,9.6634728
10,Richard-Lattorf-Straße,30453,52.3830271,9.6635154
51,Richard-Lattorf-Straße,30453,52.3781220,9.6640745
8,Rosenbuschweg,30453,52.3885979,9.6663052
23C,Wallensteinstraße,30459,52.3419828,9.7134879
23,Wallensteinstraße,30459,52.3419236,9.7139455
1,Rosenstraße,30159,52.3764187,9.7379129
6,Neue-Land-Straße,30625,52.3933750,9.8015990
27a,Hamburger Allee,30161,52.3809990,9.7382990
47,Halkettstraße,30165,52.3934140,9.7260930
16,Letterweg,30453,52.3859756,9.6583258
23,Tillystraße,30459,52.3375550,9.7194550
1,Stauffenbergplatz,30457,52.3423345,9.6922500
3,Am Immenkampe,30455,52.3576090,9.6714900
19,Lathusenstraße,30625,52.3800036,9.7962345
21,Röntgenstraße,30163,52.3931800,9.7491520
3,Klein-Buchholzer Kirchweg,30659,52.4103850,9.8045530
2A,Fuchsrain,30657,52.4304070,9.8008010
3,Am Winkelberge,30419,52.3957473,9.6754730
5,Am Südbahnhof,30171,52.3696726,9.7610315
2,Holthusenstraße,30519,52.3383660,9.7759550
31,Eichelkampstraße,30519,52.3281830,9.7880419
32,Wilkenburger Straße,30519,52.3219231,9.7714971
5-7,Oesterleystraße,30171,52.3624763,9.7541497
1-3,Luisenstraße,30159,52.3744465,9.7408120
36,Georgstraße,30159,52.3731991,9.7392961
187,Tresckowstraße,30457,52.3328751,9.6902890
135,Hildesheimer Straße,30173,52.3537524,9.7557029
56,Mendelssohnstraße,30173,52.3538782,9.7561411
9,Ricklinger Stadtweg,30459,52.3441803,9.7248282
11A,Appelstraße,30167,52.3894233,9.7116497
10,Bandelstraße,30171,52.3608831,9.7519527
15,Bandelstraße,30171,52.3614314,9.7527007
19,Im Moore,30167,52.3839385,9.7206679
15a,Im Moore,30167,52.3837319,9.7208020
3,Alleestraße,30167,52.3898360,9.7084451
71,Schierholzstraße,30655,52.3999520,9.8250646
11,Hahnenstraße,30167,52.3860205,9.7180390
3,Engelbosteler Damm,30167,52.3820165,9.7253714
66,Engelbosteler Damm,30167,52.3870575,9.7238142
9,An der Lutherkirche,30167,52.3876879,9.7210811
25,Wilhelm-Bluhm-Straße,30451,52.3763083,9.7079586
15,Leinaustraße,30451,52.3759026,9.7089833
32,Elisenstraße,30451,52.3743400,9.7076868
25B,Schneiderberg,30167,52.3911435,9.7177857
25C,Schneiderberg,30167,52.3913080,9.7178436
25D,Schneiderberg,30167,52.3914747,9.7179024
3,An der Christuskirche,30167,52.3815908,9.7267994
33,Auf dem Loh,30167,52.3934420,9.7150155
46,Haltenhoffstraße,30167,52.3933513,9.7141261
2,Planckstraße,30169,52.3651887,9.7415197
15,Limmerstraße,30451,52.3719789,9.7106472
17,Limmerstraße,30451,52.3723763,9.7103398
49,Limmerstraße,30451,52.3733920,9.7073440
60,Limmerstraße,30451,52.3740927,9.7060268
50,Limmerstraße,30451,52.3737415,9.7070667
48,Limmerstraße,30451,52.3736059,9.7074201
38,Limmerstraße,30451,52.3732827,9.7083667
36,Limmerstraße,30451,52.3732021,9.7087889
30,Limmerstraße,30451,52.3729956,9.7092990
28,Limmerstraße,30451,52.3729174,9.7096222
12,Limmerstraße,30451,52.3722139,9.7114307
8,Limmerstraße,30451,52.3719879,9.7120999
6,Limmerstraße,30451,52.3722560,9.7124908
106,Limmerstraße,30451,52.3757441,9.7004179
102,Limmerstraße,30451,52.3756279,9.7008943
100,Limmerstraße,30451,52.3754557,9.7012883
94,Limmerstraße,30451,52.3753397,9.7017251
92,Limmerstraße,30451,52.3752545,9.7022361
84,Limmerstraße,30451,52.3749761,9.7031339
33,Elisenstraße,30451,52.3735818,9.7093158
29,Elisenstraße,30451,52.3734561,9.7096995
18,Elisenstraße,30451,52.3736647,9.7096607
23,Elisenstraße,30451,52.3732083,9.7103919
12,Elisenstraße,30451,52.3733302,9.7107202
14,Elisenstraße,30451,52.3735026,9.7101833
19,Elisenstraße,30451,52.3730366,9.7109395
15,Elisenstraße,30451,52.3729060,9.7113534
8,Elisenstraße,30451,52.3731212,9.7113184
10,Elisenstraße,30451,52.3732080,9.7110624
9,Elisenstraße,30451,52.3726612,9.7119297
7,Elisenstraße,30451,52.3725014,9.7124871
15,Kötnerholzweg,30451,52.3718360,9.7058384
57,Kötnerholzweg,30451,52.3769349,9.7034196
64,Kötnerholzweg,30451,52.3775390,9.7036771
42,Kötnerholzweg,30451,52.3755990,9.7045412
50,Kötnerholzweg,30451,52.3761936,9.7042733
55,Kötnerholzweg,30451,52.3766394,9.7036384
51,Kötnerholzweg,30451,52.3762131,9.7038422
30,Kötnerholzweg,30451,52.3745187,9.7049810
47a,Kötnerholzweg,30451,52.3756371,9.7041287
65,Kötnerholzweg,30451,52.3775329,9.7031380
49,Kötnerholzweg,30451,52.3758766,9.7040263
2,Ungerstraße,30451,52.3751402,9.7032229
6,Ungerstraße,30451,52.3753716,9.7034541
12,Ungerstraße,30451,52.3762497,9.7042913
18,Ungerstraße,30451,52.3765918,9.7046034
21,Ungerstraße,30451,52.3768810,9.7044768
17,Ungerstraße,30451,52.3765676,9.7041934
15,Ungerstraße,30451,52.3761244,9.7037849
9,Ungerstraße,30451,52.3757950,9.7034871
5,Ungerstraße,30451,52.3754546,9.7031885
1,Ungerstraße,30451,52.3751032,9.7028708
30,Ungerstraße,30451,52.3776970,9.7056984
6,Bethlehemplatz,30451,52.3731605,9.7022870
20,Fössestraße,30451,52.3706983,9.7097032
41,Fössestraße,30451,52.3703736,9.7088391
55,Fössestraße,30451,52.3700326,9.7072500
20,Weckenstraße,30451,52.3731773,9.7024971
4,Leinaustraße,30451,52.3736886,9.7074829
8,Leinaustraße,30451,52.3743517,9.7080860
10,Leinaustraße,30451,52.3745417,9.7082075
12,Leinaustraße,30451,52.3748347,9.7085255
16,Leinaustraße,30451,52.3751339,9.7087938
18,Leinaustraße,30451,52.3753716,9.7090400
24,Leinaustraße,30451,52.3757916,9.7094469
11,Leinaustraße,30451,52.3749593,9.7081745
7,Leinaustraße,30451,52.3745437,9.7078133
25,Leinaustraße,30451,52.3769576,9.7100259
31,Leinaustraße,30451,52.3773820,9.7103724
4,Letterstraße,30419,52.4029501,9.6615803
4a,Letterstraße,30419,52.4032268,9.6612245
75,Ricklinger Stadtweg,30459,52.3498362,9.7227896
1a,Kochstraße,30451,52.3723963,9.7114666
3,Kochstraße,30451,52.3726216,9.7116640
19,Kochstraße,30451,52.3727769,9.7115484
20,Kochstraße,30451,52.3726750,9.7114551
23,Stärkestraße,30451,52.3733707,9.7107729
21,Stärkestraße,30451,52.3737620,9.7111156
19a,Stärkestraße,30451,52.3740962,9.7113915
19,Stärkestraße,30451,52.3742250,9.7115093
5,Stärkestraße,30451,52.3733278,9.7111459
8,Stärkestraße,30451,52.3736574,9.7114440
1,Stärkestraße,30451,52.3727068,9.7105965
3,Stärkestraße,30451,52.3729750,9.7108361
27,Stärkestraße,30451,52.3729442,9.7104035
26,Stärkestraße,30451,52.3731716,9.7105201
14,Stärkestraße,30451,52.3747040,9.7126437
18c,Stärkestraße,30451,52.3745278,9.7117401
18b,Stärkestraße,30451,52.3746447,9.7118333
18a,Stärkestraße,30451,52.3747406,9.7119217
17,Stärkestraße,30451,52.3750415,9.7123964
15,Stärkestraße,30451,52.3751965,9.7125208
6,Struckmeyerstraße,30451,52.3747561,9.7085709
2,Struckmeyerstraße,30451,52.3744907,9.7093628
1,Struckmeyerstraße,30451,52.3742799,9.7092800
9,Struckmeyerstraße,30451,52.3746184,9.7083030
31,Meterstraße,30169,52.3621237,9.7462970
33,Meterstraße,30169,52.3621856,9.7465448
37,Meterstraße,30169,52.3619371,9.7469626
2,Albertstraße,30451,52.3731029,9.7097721
4,Albertstraße,30451,52.3732112,9.7098579
6,Albertstraße,30451,52.3735963,9.7102554
16,Albertstraße,30451,52.3740422,9.7106403
1,Albertstraße,30451,52.3732175,9.7095039
3,Albertstraße,30451,52.3732837,9.7095840
20,Albertstraße,30451,52.3742872,9.7108470
22,Albertstraße,30451,52.3743842,9.7109419
21,Albertstraße,30451,52.3747947,9.7109708
25,Albertstraße,30451,52.3751594,9.7113074
4,Nedderfeldstraße,30451,52.3735063,9.7089946
6,Nedderfeldstraße,30451,52.3736256,9.7090987
1,Nedderfeldstraße,30451,52.3733915,9.7085618
8,Nedderfeldstraße,30451,52.3738025,9.7092878
5,Nedderfeldstraße,30451,52.3740331,9.7090739
7,Nedderfeldstraße,30451,52.3741777,9.7092278
9,Nedderfeldstraße,30451,52.3744854,9.7094890
15,Nedderfeldstraße,30451,52.3748075,9.7098044
24,Nedderfeldstraße,30451,52.3749046,9.7102990
30,Nedderfeldstraße,30451,52.3753615,9.7107012
17,Nedderfeldstraße,30451,52.3750227,9.7099452
21,Nedderfeldstraße,30451,52.3754737,9.7103729
19,Ottenstraße,30451,52.3751870,9.7088381
13,Ottenstraße,30451,52.3748640,9.7097026
26,Ottenstraße,30451,52.3750702,9.7098115
30,Ottenstraße,30451,52.3753149,9.7090207
22,Ottenstraße,30451,52.3748664,9.7103686
18,Ottenstraße,30451,52.3747193,9.7108156
11,Ottenstraße,30451,52.3746060,9.7103472
16,Ottenstraße,30451,52.3746009,9.7111289
14,Ottenstraße,30451,52.3745422,9.7113703
9,Ottenstraße,30451,52.3744802,9.7109911
7,Ottenstraße,30451,52.3743315,9.7113826
10,Ottenstraße,30451,52.3744327,9.7124532
8,Ottenstraße,30451,52.3740575,9.7129182
5,Walter-Ballhause-Straße,30451,52.3750100,9.7117752
1,Walter-Ballhause-Straße,30451,52.3748678,9.7122008
13,Walter-Ballhause-Straße,30451,52.3753277,9.7108303
9,Walter-Ballhause-Straße,30451,52.3751927,9.7111876
1,Pfarrlandplatz,30451,52.3750322,9.7082717
55A,Weidendamm,30167,52.3890290,9.7252640
1,Offensteinstraße,30451,52.3743859,9.7051134
7,Offensteinstraße,30451,52.3748656,9.7055709
4,Offensteinstraße,30451,52.3750298,9.7057096
10,Offensteinstraße,30451,52.3753381,9.7048039
14,Offensteinstraße,30451,52.3754658,9.7046428
1,Bennostraße,30451,52.3756095,9.7048035
9,Bennostraße,30451,52.3762708,9.7053998
11,Bennostraße,30451,52.3765625,9.7056587
15,Bennostraße,30451,52.3770273,9.7060868
12,Hennigesstraße,30451,52.3765416,9.7055309
18,Hennigesstraße,30451,52.3767863,9.7048528
9,Hennigesstraße,30451,52.3766160,9.7046971
5,Hennigesstraße,30451,52.3763594,9.7053610
17,Bennostraße,30451,52.3774628,9.7064070
1,Herbartstraße,30451,52.3776713,9.7065779
7,Herbartstraße,30451,52.3779047,9.7059009
1,Berdingstraße,30451,52.3768156,9.7096166
7,Berdingstraße,30451,52.3770449,9.7089538
14,Pfarrlandstraße,30451,52.3761796,9.7078188
8,Pfarrlandstraße,30451,52.3749190,9.7067255
12,Pfarrlandstraße,30451,52.3752943,9.7071117
4,Pfarrlandstraße,30451,52.3742891,9.7061098
3,Pfarrlandstraße,30451,52.3750885,9.7062771
5,Pfarrlandstraße,30451,52.3753706,9.7065723
12,Wilhelm-Bluhm-Straße,30451,52.3757320,9.7105543
18,Wilhelm-Bluhm-Straße,30451,52.3760046,9.7096980
15,Wilhelm-Bluhm-Straße,30451,52.3756829,9.7097115
13,Wilhelm-Bluhm-Straße,30451,52.3755503,9.7100873
42,Wilhelm-Bluhm-Straße,30451,52.3773024,9.7062620
46,Wilhelm-Bluhm-Straße,30451,52.3775675,9.7055719
49,Wilhelm-Bluhm-Straße,30451,52.3776167,9.7046346
51,Wilhelm-Bluhm-Straße,30451,52.3776899,9.7040926
5,Rampenstraße,30449,52.3700147,9.7116818
6,Rampenstraße,30449,52.3699862,9.7114817
7,Rampenstraße,30449,52.3699583,9.7112859
7A,Rampenstraße,30449,52.3699403,9.7111598
8,Rampenstraße,30449,52.3699425,9.7108715
9,Rampenstraße,30449,52.3699160,9.7106826
10,Rampenstraße,30449,52.3698884,9.7104855
10A,Rampenstraße,30449,52.3698608,9.7102883
11,Rampenstraße,30449,52.3698332,9.7100918
11A,Rampenstraße,30449,52.3698014,9.7098645
11B,Rampenstraße,30449,52.3697697,9.7096382
31,Marianne-Adrian-Weg,30449,52.3701535,9.7151784
37,Marianne-Adrian-Weg,30449,52.3702397,9.7149353
21,Marianne-Adrian-Weg,30449,52.3699107,9.7158634
29,Marianne-Adrian-Weg,30449,52.3700450,9.7154845
4,Rampenstraße,30449,52.3701426,9.7123152
3,Rampenstraße,30449,52.3701875,9.7126046
2,Rampenstraße,30449,52.3702377,9.7129280
1,Rampenstraße,30449,52.3702851,9.7132334
12,Goseriede,30159,52.3780886,9.7327224
3,Küchengartenstraße,30449,52.3693446,9.7121817
4,Küchengartenstraße,30449,52.3693133,9.7124090
14,Elmstraße,30657,52.4144048,9.7784075
2,Ihmeplatz,30449,52.3708795,9.7156625
33,Melanchthonstraße,30165,52.3981565,9.7272273
35,Melanchthonstraße,30165,52.3981850,9.7274868
23,Minister-Stüve-Straße,30449,52.3686132,9.7161940
12,Am Kleinen Felde,30167,52.3830867,9.7225031
14,Am Kleinen Felde,30167,52.3832233,9.7225757
1d,Georgengarten,30167,52.3834327,9.7090472
188A,Sahlkamp,30657,52.4100591,9.7895965
2,Velberstraße,30451,52.3733792,9.7068394
5,Fortunastraße,30451,52.3720003,9.7096172
5a,Fortunastraße,30451,52.3719332,9.7095559
5b,Fortunastraße,30451,52.3719204,9.7095442
23c,Fortunastraße,30451,52.3711234,9.7091376
23b,Fortunastraße,30451,52.3709584,9.7091040
23a,Fortunastraße,30451,52.3708349,9.7089739
7a,Mathildenstraße,30451,52.3712099,9.7100299
7b,Mathildenstraße,30451,52.3711359,9.7100656
7c,Mathildenstraße,30451,52.3709506,9.7100481
7d,Mathildenstraße,30451,52.3708028,9.7098153
6,Mathildenstraße,30451,52.3714084,9.7104560
28,Fortunastraße,30451,52.3722383,9.7101105
26,Fortunastraße,30451,52.3717524,9.7098249
15a,Limmerstraße,30451,52.3718887,9.7106100
15b,Limmerstraße,30451,52.3717803,9.7104151
15c,Limmerstraße,30451,52.3717037,9.7101116
15d,Limmerstraße,30451,52.3718665,9.7101408
27,Am Klagesmarkt,30159,52.3791940,9.7286641
28,Am Klagesmarkt,30159,52.3788477,9.7291453
30,Am Klagesmarkt,30159,52.3786252,9.7294569
6,Arndtstraße,30167,52.3815080,9.7286641
18,Arndtstraße,30167,52.3820532,9.7302882
18,Hainhölzer Straße,30159,52.3815725,9.7309491
28,Hainhölzer Straße,30159,52.3821512,9.7306106
2,Striehlstraße,30159,52.3824331,9.7317487
6,Striehlstraße,30159,52.3821764,9.7318036
17,Nordfelder Reihe,30159,52.3814247,9.7311506
23,Nordfelder Reihe,30159,52.3815520,9.7318008
1,Nordfelder Reihe,30159,52.3814096,9.7287523
18,Postkamp,30159,52.3803084,9.7288938
2,Nikolaistraße,30159,52.3800741,9.7330729
2,Karolinenstraße,30159,52.3814222,9.7338256
6,Am Taubenfelde,30159,52.3784417,9.7282663
4,Am Taubenfelde,30159,52.3782863,9.7284360
3a,Körnerstraße,30159,52.3781437,9.7272972
3,Körnerstraße,30159,52.3780784,9.7273588
4,Körnerstraße,30159,52.3784268,9.7269815
6,Körnerstraße,30159,52.3786502,9.7267622
10a,Körnerstraße,30159,52.3790965,9.7262071
5,Fischerstraße,30167,52.3777365,9.7208352
21,Fischerstraße,30167,52.3780836,9.7189891
23,Otto-Brenner-Straße,30159,52.3772721,9.7270053
15,Otto-Brenner-Straße,30159,52.3776019,9.7280665
13,Otto-Brenner-Straße,30159,52.3777565,9.7285930
3,Königsworther Straße,30167,52.3773152,9.7228896
11,Königsworther Straße,30167,52.3768795,9.7223913
13,Königsworther Straße,30167,52.3766261,9.7220406
18,Königsworther Straße,30167,52.3754940,9.7201218
22,Königsworther Straße,30167,52.3750281,9.7196337
30,Königsworther Straße,30167,52.3744169,9.7188951
37,Königsworther Straße,30167,52.3740695,9.7191123
27,Königsworther Straße,30167,52.3750802,9.7203285
2,Theodor-Krüger-Straße,30167,52.3743919,9.7187352
10,Theodor-Krüger-Straße,30167,52.3751310,9.7184840
1,Grotefendstraße,30167,52.3753200,9.7195806
5,Grotefendstraße,30167,52.3755139,9.7186543
6,Grotefendstraße,30167,52.3752781,9.7186218
9,Grotefendstraße,30167,52.3751533,9.7191776
8a,Grotefendstraße,30167,52.3750343,9.7188615
9a,Grotefendstraße,30167,52.3749512,9.7190642
5,Kapitän-von-Müller-Straße,30167,52.3759708,9.7186834
6,Kapitän-von-Müller-Straße,30167,52.3759019,9.7184633
1,Weddigenufer,30167,52.3755901,9.7201637
5,Weddigenufer,30167,52.3762835,9.7198509
19,Weddigenufer,30167,52.3776402,9.7171675
20,Weddigenufer,30167,52.3775591,9.7167345
1,Emdenstraße,30167,52.3763208,9.7188362
9,Emdenstraße,30167,52.3769246,9.7183292
15,Emdenstraße,30167,52.3775317,9.7178792
17,Emdenstraße,30167,52.3776032,9.7178828
2,Emdenstraße,30167,52.3762528,9.7186277
16,Emdenstraße,30167,52.3773276,9.7176478
20,Emdenstraße,30167,52.3775353,9.7175266
4,Wilhelmshavener Straße,30167,52.3757768,9.7182660
2,Wilhelmshavener Straße,30167,52.3756495,9.7184036
16,Wilhelmshavener Straße,30167,52.3773761,9.7168862
12,Wilhelmshavener Straße,30167,52.3771043,9.7170941
6,Wilhelmshavener Straße,30167,52.3760768,9.7179836
6a,Wilhelmshavener Straße,30167,52.3761762,9.7178939
6c,Wilhelmshavener Straße,30167,52.3762573,9.7178444
6d,Wilhelmshavener Straße,30167,52.3763030,9.7178227
6e,Wilhelmshavener Straße,30167,52.3764817,9.7176112
6f,Wilhelmshavener Straße,30167,52.3765565,9.7175404
8,Wilhelmshavener Straße,30167,52.3766077,9.7174969
8b,Wilhelmshavener Straße,30167,52.3766623,9.7174537
8c,Wilhelmshavener Straße,30167,52.3767146,9.7174128
8d,Wilhelmshavener Straße,30167,52.3767724,9.7173612
8e,Wilhelmshavener Straße,30167,52.3768564,9.7173010
10,Wilhelmshavener Straße,30167,52.3769977,9.7171828
6b,Wilhelmshavener Straße,30167,52.3762184,9.7178690
14,Ira-Wolkowa-Weg,30167,52.3749885,9.7152999
6,Ira-Wolkowa-Weg,30167,52.3752196,9.7161085
1,Erderstraße,30451,52.3754735,9.7023394
2,Erderstraße,30451,52.3755820,9.7024165
36,Erderstraße,30451,52.3755392,9.7020548
34,Erderstraße,30451,52.3757859,9.7022559
6,Erderstraße,30451,52.3759964,9.7028079
14,Erderstraße,30451,52.3764625,9.7032128
10a,Erderstraße,30451,52.3761517,9.7033051
14a,Erderstraße,30451,52.3765925,9.7033333
29,Erderstraße,30451,52.3767047,9.7029538
33,Erderstraße,30451,52.3761180,9.7024382
4,Otto-Wels-Straße,30451,52.3756281,9.7038548
3,Otto-Wels-Straße,30451,52.3753616,9.7040578
5,Otto-Wels-Straße,30451,52.3754153,9.7038355
5a,Otto-Wels-Straße,30451,52.3754788,9.7035745
12,Otto-Wels-Straße,30451,52.3758916,9.7028841
8,Otto-Wels-Straße,30451,52.3757789,9.7032871
11,Otto-Wels-Straße,30451,52.3757386,9.7026489
7,Otto-Wels-Straße,30451,52.3756008,9.7031904
16,Otto-Wels-Straße,30451,52.3761603,9.7021374
18,Otto-Wels-Straße,30451,52.3762062,9.7019581
15,Otto-Wels-Straße,30451,52.3759326,9.7019582
17,Otto-Wels-Straße,30451,52.3759914,9.7017318
19,Otto-Wels-Straße,30451,52.3760870,9.7011837
23,Otto-Wels-Straße,30451,52.3761965,9.7007257
22,Otto-Wels-Straße,30451,52.3763924,9.7011287
26,Otto-Wels-Straße,30451,52.3764974,9.7006493
1,Stockmannstraße,30451,52.3767852,9.7027117
3,Stockmannstraße,30451,52.3768506,9.7024640
7,Stockmannstraße,30451,52.3770781,9.7016316
11,Stockmannstraße,30451,52.3772019,9.7010971
2,Röttgerstraße,30451,52.3756590,9.7013369
6,Röttgerstraße,30451,52.3759620,9.7015451
1,Röttgerstraße,30451,52.3757396,9.7009620
5,Röttgerstraße,30451,52.3759879,9.7011320
8,Röttgerstraße,30451,52.3762643,9.7017855
18,Röttgerstraße,30451,52.3768979,9.7022116
20,Röttgerstraße,30451,52.3772143,9.7023796
20a,Röttgerstraße,30451,52.3774146,9.7024561
22,Röttgerstraße,30451,52.3774890,9.7025717
24,Röttgerstraße,30451,52.3775260,9.7028355
25c,Röttgerstraße,30451,52.3780662,9.7025820
25d,Röttgerstraße,30451,52.3780836,9.7026722
25e,Röttgerstraße,30451,52.3781014,9.7027615
25f,Röttgerstraße,30451,52.3781209,9.7028529
13,Röttgerstraße,30451,52.3769490,9.7017851
2,Steigertahlstraße,30451,52.3758129,9.7002169
8,Steigertahlstraße,30451,52.3762267,9.7004799
10,Steigertahlstraße,30451,52.3765576,9.7006481
16,Steigertahlstraße,30451,52.3771708,9.7010352
33,Knochenhauerstraße,30159,52.3720488,9.7342703
1,Oeltzenstraße,30169,52.3770283,9.7242467
5,Hartwigstraße,30169,52.3765332,9.7221920
6,Hartwigstraße,30169,52.3762856,9.7223551
1,Hartwigstraße,30169,52.3761817,9.7227651
4,Hartwigstraße,30169,52.3765355,9.7225403
4a,Hartwigstraße,30169,52.3766323,9.7224757
4b,Hartwigstraße,30169,52.3767541,9.7224005
7,Gerberstraße,30169,52.3761178,9.7219007
6,Gerberstraße,30169,52.3760426,9.7223338
4,Dreyerstraße,30169,52.3747816,9.7217616
7,Andertensche Wiese,30169,52.3749047,9.7246151
15,Andertensche Wiese,30169,52.3751441,9.7225943
7,Brühlstraße,30169,52.3749221,9.7267061
3A,Glockseestraße,30169,52.3709060,9.7212863
3B,Glockseestraße,30169,52.3710385,9.7212515
3C,Glockseestraße,30169,52.3711783,9.7212110
3E,Glockseestraße,30169,52.3712903,9.7211814
4,Glockseestraße,30169,52.3713855,9.7211549
5,Glockseestraße,30169,52.3717994,9.7209914
25,Maschstraße,30169,52.3656113,9.7443766
18,Hildesheimer Straße,30169,52.3663164,9.7452290
52,Haltenhoffstraße,30167,52.3935163,9.7130174
54,Haltenhoffstraße,30167,52.3935806,9.7127455
12,Bahnhofstraße,30159,52.3751459,9.7389951
7,Ernst-August-Platz,30159,52.3754111,9.7408289
8,Georgstraße,30159,52.3750176,9.7353110
14,Georgstraße,30159,52.3748582,9.7360180
2,Georgstraße,30159,52.3753675,9.7337268
6,Georgstraße,30159,52.3752817,9.7341337
2a,Georgstraße,30159,52.3754217,9.7334994
3a,Ernst-August-Platz,30159,52.3764406,9.7389678
3,Wendehagen,30419,52.4152695,9.7144811
18,Wendehagen,30419,52.4160051,9.7120911
26,Wendehagen,30419,52.4165193,9.7108794
30,Ikarusallee,30179,52.4197894,9.7499392
15,Wilhelmstraße,30171,52.3681218,9.7478811
50,Goethestraße,30169,52.3731304,9.7242208
1,Goetheplatz,30169,52.3730236,9.7239105
2,Goetheplatz,30169,52.3730879,9.7236935
2a,Goetheplatz,30169,52.3734331,9.7237289
3a,Goetheplatz,30169,52.3733347,9.7231817
7,Goetheplatz,30169,52.3726196,9.7227044
8,Goetheplatz,30169,52.3723720,9.7229393
9,Goetheplatz,30169,52.3722640,9.7231788
10,Goetheplatz,30169,52.3725499,9.7242014
11,Goetheplatz,30169,52.3726796,9.7242230
8,Braunstraße,30169,52.3731412,9.7219442
14,Braunstraße,30169,52.3733651,9.7212070
10A,Dreyerstraße,30169,52.3735043,9.7212621
10B,Dreyerstraße,30169,52.3734893,9.7209359
1,Brühlstraße,30169,52.3742765,9.7275524
3,Brühlstraße,30169,52.3743895,9.7274317
23,Goethestraße,30169,52.3737835,9.7278685
45,Goethestraße,30169,52.3729413,9.7248285
49,Goethestraße,30169,52.3728290,9.7244637
10,Glockseestraße,30169,52.3725924,9.7211493
11,Pferdestraße,30159,52.3715529,9.7318289
25,Prinzenstraße,30159,52.3704865,9.7434667
1,Hausmannstraße,30159,52.3769882,9.7285729
6,Hausmannstraße,30159,52.3774550,9.7286446
1,Stiftstraße,30159,52.3765798,9.7300616
4,Stiftstraße,30159,52.3772780,9.7304701
12,Stiftstraße,30159,52.3773157,9.7301866
13,Stiftstraße,30159,52.3771240,9.7300310
6,Lange Laube,30159,52.3762162,9.7309275
12,Lange Laube,30159,52.3764534,9.7299594
1A,Lange Laube,30159,52.3759570,9.7309939
1,Lange Laube,30159,52.3758954,9.7312527
14,Lange Laube,30159,52.3765541,9.7296522
13,Lange Laube,30159,52.3763390,9.7292420
19,Lange Laube,30159,52.3765287,9.7285421
31,Lange Laube,30159,52.3769805,9.7262441
15,Escherstraße,30159,52.3763470,9.7267555
10,Escherstraße,30159,52.3760928,9.7278868
12,Escherstraße,30159,52.3763872,9.7275112
6,Escherstraße,30159,52.3759081,9.7292305
2,Escherstraße,30159,52.3761154,9.7293875
2a,Escherstraße,30159,52.3762787,9.7295233
22,Escherstraße,30159,52.3757004,9.7289209
22a,Escherstraße,30159,52.3756957,9.7290950
23,Escherstraße,30159,52.3756919,9.7292479
7,Bergmannstraße,30159,52.3759876,9.7281946
1,Bergmannstraße,30159,52.3763758,9.7284560
2,Bergmannstraße,30159,52.3764124,9.7280950
4,Bergmannstraße,30159,52.3762808,9.7280265
10,Lützowstraße,30159,52.3753282,9.7295450
11,Lützowstraße,30159,52.3751839,9.7296676
17,Escherstraße,30159,52.3758705,9.7278790
18,Escherstraße,30159,52.3757143,9.7284591
2,Goethestraße,30169,52.3751787,9.7308060
6,Goethestraße,30169,52.3750641,9.7304498
6b,Goethestraße,30169,52.3750189,9.7303148
6c,Goethestraße,30169,52.3749660,9.7302195
6,Münzstraße,30159,52.3754643,9.7311521
5,Münzstraße,30159,52.3755579,9.7312476
3,Münzstraße,30159,52.3757088,9.7313663
4a,Münzstraße,30159,52.3756606,9.7313199
4,Münzstraße,30159,52.3757027,9.7311524
1,Goseriede,30159,52.3763210,9.7317590
5,Goseriede,30159,52.3765890,9.7317854
15,Goseriede,30159,52.3780811,9.7311941
14,Goseriede,30159,52.3782007,9.7327362
6,Goseriede,30159,52.3775035,9.7327279
4,Goseriede,30159,52.3773249,9.7327195
36,Kurt-Schumacher-Straße,30159,52.3769471,9.7329582
13,Goethestraße,30169,52.3748698,9.7310640
11,Goethestraße,30169,52.3749288,9.7312463
9,Goethestraße,30169,52.3750879,9.7316927
1,Goethestraße,30169,52.3752963,9.7323944
4,Brüderstraße,30159,52.3784754,9.7340973
4a,Brüderstraße,30159,52.3785212,9.7343928
4b,Brüderstraße,30159,52.3785700,9.7347299
5,Brüderstraße,30159,52.3786418,9.7351952
8,Herrenstraße,30159,52.3783045,9.7352648
8a,Herrenstraße,30159,52.3784559,9.7351987
8b,Herrenstraße,30159,52.3784988,9.7349192
9,Herrenstraße,30159,52.3782919,9.7349892
11,Herrenstraße,30159,52.3778677,9.7351671
16,Kurt-Schumacher-Straße,30159,52.3769089,9.7359798
26,Kurt-Schumacher-Straße,30159,52.3768281,9.7341085
40,Kurt-Schumacher-Straße,30159,52.3769161,9.7332524
5,Kurt-Schumacher-Straße,30159,52.3768062,9.7385412
23,Kurt-Schumacher-Straße,30159,52.3765087,9.7348078
29,Kurt-Schumacher-Straße,30159,52.3764881,9.7342142
35,Georgstraße,30159,52.3741426,9.7392092
30,Georgstraße,30159,52.3739727,9.7385383
32a,Georgstraße,30159,52.3738625,9.7388337
32b,Georgstraße,30159,52.3738021,9.7388879
32c,Georgstraße,30159,52.3737143,9.7389666
32d,Georgstraße,30159,52.3736217,9.7390498
50b,Georgstraße,30159,52.3715533,9.7398838
50b,Georgstraße,30159,52.3715657,9.7400010
1,An der Börse,30159,52.3717740,9.7419136
4,An der Börse,30159,52.3728595,9.7420664
7,An der Börse,30159,52.3734533,9.7421677
12,An der Börse,30159,52.3740668,9.7411358
9,An der Börse,30159,52.3739568,9.7416355
4,Steintorstraße,30159,52.3749910,9.7336739
10,Steintorstraße,30159,52.3752755,9.7335245
7,Steintorstraße,30159,52.3749973,9.7334076
3,Steintorstraße,30159,52.3748212,9.7335085
2,Reitwallstraße,30159,52.3747927,9.7331445
4,Reitwallstraße,30159,52.3748595,9.7331035
5,Reitwallstraße,30159,52.3750892,9.7329880
5b,Reitwallstraße,30159,52.3752394,9.7326233
6,Reitwallstraße,30159,52.3751009,9.7327077
8,Reitwallstraße,30159,52.3748187,9.7328377
2,Scholvinstraße,30159,52.3745792,9.7319353
4,Scholvinstraße,30159,52.3747049,9.7318597
6,Scholvinstraße,30159,52.3749896,9.7316305
7,Scholvinstraße,30159,52.3749046,9.7313383
12,Scholvinstraße,30159,52.3744695,9.7317032
2,Reuterstraße,30159,52.3743752,9.7313044
7,Reuterstraße,30159,52.3747787,9.7309515
6,Am Marstall,30159,52.3746012,9.7328642
10,Am Marstall,30159,52.3744270,9.7321997
1,Nordmannpassage,30159,52.3761002,9.7335895
5,Nordmannpassage,30159,52.3763410,9.7336375
2,Nordmannpassage,30159,52.3760260,9.7339172
10,Nordmannpassage,30159,52.3764239,9.7339951
7,Kanalstraße,30159,52.3763941,9.7349271
12,Kanalstraße,30159,52.3757552,9.7348582
5,Kanalstraße,30159,52.3764579,9.7352263
1c,Mehlstraße,30159,52.3756962,9.7359454
1d,Mehlstraße,30159,52.3757103,9.7361672
8,Andreaestraße,30159,52.3764617,9.7367991
9,Andreaestraße,30159,52.3763884,9.7368261
4,Andreaestraße,30159,52.3763361,9.7370746
3a,Andreaestraße,30159,52.3760083,9.7373097
2,Andreaestraße,30159,52.3752190,9.7376980
23,Schillerstraße,30159,52.3756508,9.7377631
23a,Schillerstraße,30159,52.3757421,9.7381414
31,Schillerstraße,30159,52.3758550,9.7373750
30,Schillerstraße,30159,52.3759309,9.7376960
28,Schillerstraße,30159,52.3761412,9.7387161
27,Schillerstraße,30159,52.3761816,9.7388865
25,Schillerstraße,30159,52.3758526,9.7385781
2,Rosenstraße,30159,52.3764210,9.7385798
29,Große Packhofstraße,30159,52.3751803,9.7378850
18,Große Packhofstraße,30159,52.3750968,9.7381227
20,Große Packhofstraße,30159,52.3751639,9.7381688
21,Große Packhofstraße,30159,52.3752878,9.7382627
23,Leibnizufer,30169,52.3737588,9.7280082
19,Leibnizufer,30169,52.3735642,9.7281871
17c,Leibnizufer,30169,52.3734588,9.7277254
17a,Leibnizufer,30169,52.3734507,9.7274896
3,Platz an der Basilika,30169,52.3732750,9.7271874
4,Clemensstraße,30169,52.3726974,9.7261026
5,Clemensstraße,30169,52.3725740,9.7254726
8a,Clemensstraße,30169,52.3721828,9.7247769
18a,Am Kanonenwall,30169,52.3728669,9.7261975
1,Am Kanonenwall,30169,52.3713221,9.7260049
3,Am Kanonenwall,30169,52.3715538,9.7261361
5,Am Kanonenwall,30169,52.3719036,9.7266750
1,Im Töge,30169,52.3719872,9.7269545
2,Im Töge,30169,52.3720229,9.7273106
2,Rosmarinhof,30169,52.3717201,9.7272911
4,Rosmarinhof,30169,52.3715481,9.7271182
1,Rote Reihe,30169,52.3724692,9.7272603
2,Rote Reihe,30169,52.3723363,9.7272977
5,Rote Reihe,30169,52.3717363,9.7275886
7,Rote Reihe,30169,52.3711388,9.7277725
15,Rote Reihe,30169,52.3706135,9.7281046
2,Neustädter Straße,30169,52.3702766,9.7271555
6,Neustädter Straße,30169,52.3706330,9.7267576
12,Neustädter Straße,30169,52.3710153,9.7262785
5,Neustädter Straße,30169,52.3705210,9.7266135
1,Bäckerstraße,30169,52.3703113,9.7256642
2,Bäckerstraße,30169,52.3704500,9.7256654
2a,Bäckerstraße,30169,52.3705882,9.7256670
1,Calenberger Straße,30169,52.3705919,9.7298581
9,Calenberger Straße,30169,52.3703603,9.7286568
25,Calenberger Straße,30169,52.3701030,9.7273171
14,Calenberger Straße,30169,52.3703117,9.7274156
29,Calenberger Straße,30169,52.3699653,9.7268374
27,Calenberger Straße,30169,52.3700057,9.7270684
22,Calenberger Straße,30169,52.3701908,9.7268292
28,Calenberger Straße,30169,52.3700697,9.7257921
43,Calenberger Straße,30169,52.3698834,9.7255273
49,Calenberger Straße,30169,52.3698764,9.7247738
55,Calenberger Straße,30169,52.3697171,9.7226911
59,Calenberger Straße,30169,52.3696365,9.7218098
3,Wielandstraße,30169,52.3706682,9.7222417
4,Wielandstraße,30169,52.3706778,9.7220187
4a,Wielandstraße,30169,52.3706881,9.7218062
4b,Wielandstraße,30169,52.3706981,9.7215822
4c,Wielandstraße,30169,52.3707102,9.7213234
5,Wielandstraße,30169,52.3705824,9.7214830
7,Wielandstraße,30169,52.3705210,9.7220610
8,Wielandstraße,30169,52.3704889,9.7228290
1,Rückertstraße,30169,52.3715581,9.7231385
4,Rückertstraße,30169,52.3715896,9.7222154
5,Rückertstraße,30169,52.3716005,9.7219261
10,Rückertstraße,30169,52.3714422,9.7213871
35A,Glockseestraße,30169,52.3721029,9.7206711
8,Lenaustraße,30169,52.3719753,9.7213709
12,Lenaustraße,30169,52.3721685,9.7222280
11a,Lenaustraße,30169,52.3721602,9.7220116
12a,Lenaustraße,30169,52.3720164,9.7223299
17,Humboldtstraße,30169,52.3718796,9.7232019
18,Humboldtstraße,30169,52.3717813,9.7231923
20,Humboldtstraße,30169,52.3713021,9.7230633
23,Humboldtstraße,30169,52.3707657,9.7230065
24,Humboldtstraße,30169,52.3704717,9.7230411
26,Humboldtstraße,30169,52.3700026,9.7229377
26c,Humboldtstraße,30169,52.3696070,9.7229212
27,Humboldtstraße,30169,52.3694465,9.7229041
30,Humboldtstraße,30169,52.3693365,9.7228916
32,Humboldtstraße,30169,52.3690645,9.7228597
1,Humboldtstraße,30169,52.3688111,9.7232758
9,Humboldtstraße,30169,52.3715587,9.7236461
3,Am Archiv,30169,52.3698980,9.7304282
2,Archivstraße,30169,52.3701230,9.7295850
9a,Wagenerstraße,30169,52.3698878,9.7274943
11,Wagenerstraße,30169,52.3696469,9.7269770
11a,Wagenerstraße,30169,52.3695901,9.7266975
13,Wagenerstraße,30169,52.3695552,9.7265225
14,Wagenerstraße,30169,52.3695225,9.7263075
4,Brandstraße,30169,52.3694132,9.7282250
2,Brandstraße,30169,52.3695143,9.7288103
23,Brandstraße,30169,52.3692113,9.7283278
24,Brandstraße,30169,52.3692590,9.7286219
24a,Brandstraße,30169,52.3693320,9.7289322
8,Mittelstraße,30169,52.3693073,9.7277063
25,Calenberger Straße,30169,52.3701029,9.7273168
2,Kommandanturstraße,30169,52.3697498,9.7255423
5,Kommandanturstraße,30169,52.3695996,9.7258517
7,Kommandanturstraße,30169,52.3692735,9.7257665
1,Dachenhausenstraße,30169,52.3697653,9.7247153
13,Dachenhausenstraße,30169,52.3687103,9.7248745
1,Calenberger Esplanade,30169,52.3696661,9.7242401
3,Calenberger Esplanade,30169,52.3694522,9.7242084
5,Calenberger Esplanade,30169,52.3692373,9.7241887
7,Calenberger Esplanade,30169,52.3690242,9.7241654
2,Calenberger Esplanade,30169,52.3696810,9.7238181
4,Calenberger Esplanade,30169,52.3694751,9.7237782
6,Calenberger Esplanade,30169,52.3692503,9.7237647
8,Calenberger Esplanade,30169,52.3690435,9.7237452
3,Goseriede,30159,52.3764610,9.7315651
42,Engelbosteler Damm,30167,52.3852939,9.7247777
146,Bornumer Straße,30453,52.3540502,9.6952573
52,Wunstorfer Landstraße,30453,52.3846452,9.6635414
23a,Falkenstraße,30449,52.3663902,9.7158811
5,Burgstraße,30159,52.3736067,9.7310244
11,Burgstraße,30159,52.3732512,9.7313963
14,Burgstraße,30159,52.3728631,9.7313448
13,Burgstraße,30159,52.3731112,9.7315464
21,Burgstraße,30159,52.3726615,9.7318930
3,Am Hohen Ufer,30159,52.3725894,9.7308096
1,Ballhofstraße,30159,52.3725011,9.7321172
3,Ballhofstraße,30159,52.3726968,9.7325565
6,Ballhofstraße,30159,52.3728736,9.7329502
4,Ballhofstraße,30159,52.3729470,9.7330317
1,Kreuzstraße,30159,52.3728263,9.7327462
5,Kreuzstraße,30159,52.3729867,9.7326398
7,Kreuzstraße,30159,52.3730647,9.7323409
11,Kreuzstraße,30159,52.3728001,9.7324820
1,Kreuzkirchhof,30159,52.3731999,9.7328383
3,Kreuzkirchhof,30159,52.3731714,9.7326187
5,Kreuzkirchhof,30159,52.3731589,9.7322992
9,Kreuzkirchhof,30159,52.3732898,9.7319547
14,Knochenhauerstraße,30159,52.3735623,9.7333155
6,Knochenhauerstraße,30159,52.3741032,9.7334348
16,Knochenhauerstraße,30159,52.3733065,9.7332367
20,Knochenhauerstraße,30159,52.3730727,9.7332384
13,Knochenhauerstraße,30159,52.3733318,9.7336381
27,Knochenhauerstraße,30159,52.3724032,9.7339084
36,Knochenhauerstraße,30159,52.3723000,9.7336972
11,Schuhstraße,30159,52.3723316,9.7340348
1,Schuhstraße,30159,52.3724907,9.7347594
7,Kramerstraße,30159,52.3717778,9.7334769
11,Kramerstraße,30159,52.3717097,9.7329273
12,Kramerstraße,30159,52.3715419,9.7329004
24,Kramerstraße,30159,52.3717409,9.7341679
1,Hanns-Lilje-Platz,30159,52.3721712,9.7350089
4,Hanns-Lilje-Platz,30159,52.3719848,9.7344884
30,Leinstraße,30159,52.3710264,9.7334007
33,Leinstraße,30159,52.3712550,9.7329638
4,Hannah-Arendt-Platz,30159,52.3704618,9.7345650
25,Leinstraße,30159,52.3702699,9.7348287
50,Karmarschstraße,30159,52.3702884,9.7350293
44,Karmarschstraße,30159,52.3707805,9.7358740
2,Köbelingerstraße,30159,52.3710335,9.7360419
4,Köbelingerstraße,30159,52.3711714,9.7358523
42,Karmarschstraße,30159,52.3712537,9.7360018
1,Schmiedestraße,30159,52.3712269,9.7362956
3,Schmiedestraße,30159,52.3713810,9.7360904
14,Am Markte,30159,52.3713840,9.7358035
5,Schmiedestraße,30159,52.3722562,9.7350712
33,Schmiedestraße,30159,52.3741559,9.7341737
8a,Georgstraße,30159,52.3749802,9.7350129
41,Schmiedestraße,30159,52.3751629,9.7342583
8b,Georgstraße,30159,52.3748768,9.7346065
18,Schmiedestraße,30159,52.3730354,9.7351803
8,Limburgstraße,30159,52.3746707,9.7347095
9,Limburgstraße,30159,52.3745285,9.7347721
7,Limburgstraße,30159,52.3746283,9.7350250
1,Limburgstraße,30159,52.3737893,9.7353177
4,Kleine Packhofstraße,30159,52.3747724,9.7360283
13,Kleine Packhofstraße,30159,52.3745798,9.7359279
16,Kleine Packhofstraße,30159,52.3738721,9.7355786
20,Heiligerstraße,30159,52.3744965,9.7345142
3,Heiligerstraße,30159,52.3743070,9.7352553
4,Heiligerstraße,30159,52.3742089,9.7356941
15,Heiligerstraße,30159,52.3743555,9.7356609
16,Heiligerstraße,30159,52.3744597,9.7353392
40,Große Packhofstraße,30159,52.3736221,9.7370746
1,Osterstraße,30159,52.3734963,9.7349415
11,Osterstraße,30159,52.3733825,9.7357585
8,Seilwinderstraße,30159,52.3727087,9.7362848
2,Seilwinderstraße,30159,52.3724468,9.7361646
38,Karmarschstraße,30159,52.3717297,9.7369806
31,Karmarschstraße,30159,52.3722327,9.7377562
29,Karmarschstraße,30159,52.3727132,9.7379308
25,Karmarschstraße,30159,52.3729658,9.7380339
23,Karmarschstraße,30159,52.3733059,9.7380502
17,Karmarschstraße,30159,52.3737839,9.7384558
17,Ständehausstraße,30159,52.3733473,9.7382421
7,Ständehausstraße,30159,52.3735896,9.7389706
4,Ständehausstraße,30159,52.3732845,9.7387925
47,Karmarschstraße,30159,52.3706792,9.7366720
51,Marktstraße,30159,52.3709817,9.7371032
52,Marktstraße,30159,52.3710757,9.7370064
40,Marktstraße,30159,52.3699687,9.7381077
41,Marktstraße,30159,52.3700502,9.7380082
43,Marktstraße,30159,52.3701474,9.7379308
1a,Windmühlenstraße,30159,52.3723986,9.7386538
1d,Windmühlenstraße,30159,52.3725800,9.7388828
29,Osterstraße,30159,52.3716592,9.7383629
40,Osterstraße,30159,52.3707146,9.7393749
37,Osterstraße,30159,52.3710047,9.7386910
53,Osterstraße,30159,52.3702230,9.7391142
44,Osterstraße,30159,52.3695127,9.7400403
46,Osterstraße,30159,52.3693602,9.7401197
60,Osterstraße,30159,52.3687851,9.7403097
64,Osterstraße,30159,52.3686150,9.7403581
2,Senior-Blumenberg-Gang,30159,52.3701263,9.7389619
4,Senior-Blumenberg-Gang,30159,52.3700953,9.7387585
10,Baringstraße,30159,52.3707374,9.7395192
6,Baringstraße,30159,52.3710955,9.7409049
10,Breite Straße,30159,52.3692118,9.7407965
9,Breite Straße,30159,52.3690002,9.7404061
3,Breite Straße,30159,52.3688437,9.7421444
8,Breite Straße,30159,52.3691786,9.7417636
2,Georgswall,30159,52.3693510,9.7409271
4,Georgswall,30159,52.3696418,9.7409692
7,Georgswall,30159,52.3692627,9.7414111
1,Georgswall,30159,52.3696101,9.7414572
2,Theodor-Lessing-Platz,30159,52.3691518,9.7383471
3,Theodor-Lessing-Platz,30159,52.3692606,9.7383922
25,Friedrichswall,30159,52.3685095,9.7404450
27,Friedrichswall,30159,52.3685205,9.7406199
1,Aegidientorplatz,30159,52.3686404,9.7424794
8,Georgsplatz,30159,52.3697633,9.7414969
3,Georgsplatz,30159,52.3707082,9.7411456
3A,Georgsplatz,30159,52.3706174,9.7411340
5,Georgsplatz,30159,52.3702711,9.7410694
16a,Rathenaustraße,30159,52.3745162,9.7391045
1,Luisenstraße,30159,52.3741877,9.7407386
7,Luisenstraße,30159,52.3751257,9.7407944
12,Luisenstraße,30159,52.3742578,9.7402789
6,Ständehausstraße,30159,52.3739741,9.7400376
7b,Liepmannstraße,30453,52.3719473,9.6964897
102,Sahlkamp,30179,52.4101400,9.7631113
1,Auwiese,30419,52.4168446,9.7054922
7,Auwiese,30419,52.4170723,9.7048914
9,Auwiese,30419,52.4171451,9.7058657
15,Auwiese,30419,52.4173781,9.7052569
21,Auwiese,30419,52.4176678,9.7057063
17,Auwiese,30419,52.4174852,9.7061498
27,Auwiese,30419,52.4179763,9.7060664
23,Auwiese,30419,52.4178153,9.7064606
65,Eggewiese,30419,52.4167585,9.7045341
55,Eggewiese,30419,52.4164212,9.7051749
31,Eggewiese,30419,52.4157242,9.7062115
1,Ziesingweg,30419,52.4155186,9.7057337
4,Ziesingweg,30419,52.4157316,9.7054663
5,Ziesingweg,30419,52.4158155,9.7053665
8,Ziesingweg,30419,52.4159990,9.7051399
9,Ziesingweg,30419,52.4160444,9.7050810
12,Ziesingweg,30419,52.4162007,9.7048884
13,Ziesingweg,30419,52.4162562,9.7048674
14,Ziesingweg,30419,52.4163074,9.7049242
11,Eggewiese,30419,52.4142963,9.7083702
25,Eggewiese,30419,52.4151843,9.7070066
1,Eggewiese,30419,52.4137667,9.7092017
9,Eggewiese,30419,52.4141666,9.7085831
9a,Eggewiese,30419,52.4139294,9.7082972
9b,Eggewiese,30419,52.4138487,9.7079946
11a,Eggewiese,30419,52.4142135,9.7078649
11b,Eggewiese,30419,52.4139802,9.7077817
25a,Eggewiese,30419,52.4150912,9.7068303
25b,Eggewiese,30419,52.4150014,9.7066640
27a,Eggewiese,30419,52.4151976,9.7066806
27b,Eggewiese,30419,52.4150945,9.7065343
27,Eggewiese,30419,52.4153027,9.7068190
29,Eggewiese,30419,52.4154504,9.7065875
31,Friedenauer Straße,30419,52.4136909,9.7104577
30c,Friedenauer Straße,30419,52.4135890,9.7101458
30b,Friedenauer Straße,30419,52.4135230,9.7099238
30a,Friedenauer Straße,30419,52.4134450,9.7096779
30d,Friedenauer Straße,30419,52.4134600,9.7102807
37,Friedenauer Straße,30419,52.4142513,9.7124948
39,Friedenauer Straße,30419,52.4144434,9.7132294
40,Friedenauer Straße,30419,52.4144368,9.7136114
42,Friedenauer Straße,30419,52.4145900,9.7141622
27,Wendehagen,30419,52.4162327,9.7123539
2,Wendehagen,30419,52.4150136,9.7142916
12,Wendehagen,30419,52.4156676,9.7128824
14,Wendehagen,30419,52.4157825,9.7126138
8,Friedenauer Straße,30419,52.4137740,9.7098718
5,Friedenauer Straße,30419,52.4140221,9.7106876
4a,Friedenauer Straße,30419,52.4141053,9.7110429
4,Friedenauer Straße,30419,52.4141651,9.7113024
3,Friedenauer Straße,30419,52.4141952,9.7114112
2,Friedenauer Straße,30419,52.4145343,9.7123795
1b,Friedenauer Straße,30419,52.4147673,9.7133582
1a,Friedenauer Straße,30419,52.4148430,9.7136494
1,Friedenauer Straße,30419,52.4148954,9.7138475
34,Hartungstraße,30419,52.4155260,9.7064488
30,Hartungstraße,30419,52.4153281,9.7058354
30,Eggewiese,30419,52.4156712,9.7066574
14,Eggewiese,30419,52.4146214,9.7082357
1,Am Schmuckplatz,30419,52.4144991,9.7085898
2,Eggewiese,30419,52.4138859,9.7095013
10,Eggewiese,30419,52.4143080,9.7088579
33,Auwiese,30419,52.4182867,9.7063478
29,Auwiese,30419,52.4181271,9.7067497
43a,Niederaue,30419,52.4182796,9.7075457
43b,Niederaue,30419,52.4183644,9.7072920
43c,Niederaue,30419,52.4184281,9.7070475
28,Wendehagen,30419,52.4164674,9.7106313
40,Wendehagen,30419,52.4156306,9.7118961
3,Brüsseler Straße,30539,52.3256588,9.8226970
2,Weststraße,30519,52.3381825,9.7603372
2,Am Uhrturm,30519,52.3335738,9.7628740
213/219,Hildesheimer Straße,30519,52.3439771,9.7641368
66,Schulenburger Landstraße,30165,52.4006961,9.7132820
38,Heinrich-Heine-Straße,30173,52.3571378,9.7595838
12,Königstraße,30175,52.3758585,9.7494917
3,Königstraße,30175,52.3751896,9.7468509
11,Alte Döhrener Straße,30169,52.3600214,9.7473100
24,Alte Döhrener Straße,30169,52.3586452,9.7479594
29,Am Graswege,30169,52.3601474,9.7471796
6,Alte Döhrener Straße,30169,52.3605271,9.7465856
2,Alte Döhrener Straße,30169,52.3608487,9.7464895
1,Alte Döhrener Straße,30169,52.3610367,9.7468555
5,Alte Döhrener Straße,30169,52.3606243,9.7469940
22,Freytagstraße,30169,52.3593212,9.7473929
32,Freytagstraße,30169,52.3589124,9.7463371
25,Freytagstraße,30169,52.3589616,9.7473794
27,Freytagstraße,30169,52.3586399,9.7467116
25,Alte Döhrener Straße,30173,52.3583381,9.7488370
44,Alte Döhrener Straße,30173,52.3572575,9.7499551
1,Prinzenstraße,30159,52.3741178,9.7440479
59,Vahrenwalder Straße,30165,52.3904331,9.7342337
39,Hahnensteg,30459,52.3406142,9.7284853
10,Eintrachtweg,30173,52.3647262,9.7741998
2,Eintrachtweg,30173,52.3651979,9.7729794
17,Brühlstraße,30169,52.3763898,9.7249105
1,Königsworther Platz,30167,52.3784641,9.7243107
1,Königsworther Platz,30167,52.3789643,9.7234517
38,Rehbockstraße,30167,52.3863611,9.7170845
41,Melanchthonstraße,30165,52.3984477,9.7295214
24,Guts-Muths-Straße,30165,52.3966043,9.7272284
4,Büssingweg,30165,52.3984378,9.7256816
16,Büssingweg,30165,52.3993611,9.7250455
28,Büssingweg,30165,52.4002630,9.7245501
14,Daimlerstraße,30165,52.3999744,9.7282465
20,Daimlerstraße,30165,52.3998896,9.7291639
28,Borsigweg,30165,52.3994778,9.7293228
32,Borsigweg,30165,52.3997570,9.7292906
4,Borsigweg,30165,52.3991647,9.7318942
6,Borsigweg,30165,52.3992929,9.7319868
12,Borsigweg,30165,52.3994801,9.7316132
16,Borsigweg,30165,52.3995289,9.7310431
18,Borsigweg,30165,52.3996622,9.7310614
24,Borsigweg,30165,52.3995437,9.7298922
26,Borsigweg,30165,52.3996814,9.7298739
20,Borsigweg,30165,52.3995491,9.7304679
22,Borsigweg,30165,52.3996899,9.7304671
1,Porscheweg,30165,52.3988492,9.7262303
5,Porscheweg,30165,52.3991237,9.7259980
20,Porscheweg,30165,52.4001972,9.7257540
8,Porscheweg,30165,52.3993632,9.7263785
7,Benzweg,30165,52.3990397,9.7273050
23,Benzweg,30165,52.4001262,9.7264811
24,Benzweg,30165,52.4000696,9.7269899
10,Benzweg,30165,52.3991103,9.7276955
13,Daimlerstraße,30165,52.3992738,9.7282076
25,Daimlerstraße,30165,52.4000649,9.7276661
1,Daimlerstraße,30165,52.3984227,9.7288986
11,Daimlerstraße,30165,52.3990257,9.7284777
14,Borsigweg,30165,52.3996154,9.7316582
2,Vahrenheider Markt,30179,52.4114814,9.7494216
46,Limmerstraße,30451,52.3731800,9.7078631
24,Wittekindstraße,30449,52.3682986,9.7077897
16,Kramerstraße,30159,52.3716281,9.7332634
15,Rampenstraße,30449,52.3691332,9.7081146
12a,Konkordiastraße,30449,52.3690594,9.7083326
1,Elisabeth-Hoffmeier-Weg,30449,52.3694893,9.7158358
3,Elisabeth-Hoffmeier-Weg,30449,52.3696494,9.7158434
2,Wilma-Conradi-Weg,30449,52.3694272,9.7154897
6,Wilma-Conradi-Weg,30449,52.3697427,9.7155065
7,Wilma-Conradi-Weg,30449,52.3694160,9.7151496
9,Wilma-Conradi-Weg,30449,52.3694189,9.7149956
19,Wilma-Conradi-Weg,30449,52.3698900,9.7151795
25,Wilma-Conradi-Weg,30449,52.3698948,9.7149212
58a,Stephanusstraße,30449,52.3706166,9.7148821
33,Blumenauer Straße,30449,52.3705613,9.7154998
21,Blumenauer Straße,30449,52.3698935,9.7173840
25,Gartenallee,30449,52.3697107,9.7173899
1,Ihmeplatz,30449,52.3712765,9.7150336
5,Ihmeplatz,30449,52.3712877,9.7160498
2,Klewergarten,30449,52.3666614,9.7082126
4,Klewergarten,30449,52.3666369,9.7080262
1,Magnusstraße,30449,52.3668814,9.7078534
8,Niemeyerstraße,30449,52.3664234,9.7132159
2,Posthornstraße,30449,52.3659620,9.7146011
1,Dunkelberggang,30449,52.3669031,9.7168269
158,Stöckener Straße,30419,52.4068047,9.6590560
24,Posthornstraße,30449,52.3641329,9.7150913
25,Posthornstraße,30449,52.3643287,9.7150011
4,Godehardistraße,30449,52.3640206,9.7143364
6,Gneiststraße,30169,52.3631038,9.7408688
21,Scheidestraße,30625,52.3728413,9.7849777
31,Scheidestraße,30625,52.3730091,9.7858986
23-25,Berckhusenstraße,30625,52.3741968,9.7900879
5,Scheidestraße,30625,52.3723619,9.7831986
24,Podbielskistraße,30163,52.3912573,9.7548725
89,Podbielskistraße,30177,52.3950528,9.7619537
1,Matthiasstraße,30177,52.3957488,9.7628498
21,Pelikanplatz,30177,52.3998060,9.7699404
209a,Vahrenwalder Straße,30165,52.4066638,9.7327777
189b,Haltenhoffstraße,30419,52.3957783,9.6890931
189a,Haltenhoffstraße,30419,52.3959281,9.6890583
189,Haltenhoffstraße,30419,52.3960807,9.6890229
187,Haltenhoffstraße,30419,52.3962130,9.6892761
7,Bredenbecker Straße,30449,52.3599778,9.7125422
8,Hanomagstraße,30449,52.3598076,9.7126718
3a,Carl-Buderus-Straße,30455,52.3500365,9.6581800
1,Theaterstraße,30159,52.3736279,9.7423510
6,Theaterstraße,30159,52.3740111,9.7435117
11,Theaterstraße,30159,52.3744362,9.7433960
16,Theaterstraße,30159,52.3739787,9.7419810
2,Thielenplatz,30159,52.3742368,9.7445487
5,Thielenplatz,30159,52.3745189,9.7436608
3,Thielenplatz,30159,52.3746428,9.7452380
3a,Joachimstraße,30159,52.3749414,9.7428297
8,Joachimstraße,30159,52.3751020,9.7434441
3,Sophienstraße,30159,52.3727378,9.7425355
2,Landschaftstraße,30159,52.3720779,9.7426967
2a,Landschaftstraße,30159,52.3717221,9.7426411
6a,Landschaftstraße,30159,52.3717634,9.7430399
6,Landschaftstraße,30159,52.3718764,9.7430623
8,Landschaftstraße,30159,52.3723875,9.7431536
20,Georgsplatz,30159,52.3713147,9.7421351
19a,Georgsplatz,30159,52.3712779,9.7429740
17,Georgsplatz,30159,52.3712255,9.7436587
19,Georgsplatz,30159,52.3712628,9.7431757
23,Prinzenstraße,30159,52.3713380,9.7436827
2,Prinzenstraße,30159,52.3741823,9.7445545
8,Prinzenstraße,30159,52.3737880,9.7445420
7,Prinzenstraße,30159,52.3735826,9.7440915
9,Prinzenstraße,30159,52.3732685,9.7440420
2,Königstraße,30175,52.3750829,9.7464168
4,Königstraße,30175,52.3753045,9.7471442
6,Königstraße,30175,52.3754176,9.7474711
6a,Königstraße,30175,52.3754862,9.7476398
52,Königstraße,30175,52.3756563,9.7471169
55,Königstraße,30175,52.3753993,9.7464010
53a,Königstraße,30175,52.3756545,9.7468162
7,Königstraße,30175,52.3756064,9.7480052
9,Königstraße,30175,52.3758454,9.7487334
9a,Königstraße,30175,52.3759196,9.7489259
10,Königstraße,30175,52.3759787,9.7491923
11,Königstraße,30175,52.3760869,9.7493897
44,Königstraße,30175,52.3763483,9.7493892
46,Königstraße,30175,52.3762253,9.7490240
48,Königstraße,30175,52.3760705,9.7485617
50,Königstraße,30175,52.3758958,9.7480478
50a,Königstraße,30175,52.3758235,9.7478232
1,Am Hopfengarten,30165,52.3946357,9.7204039
1,Fenskestraße,30165,52.3963586,9.7179622
2,Fenskestraße,30165,52.3962930,9.7184298
13a,Turmstraße,30165,52.3962612,9.7200631
14,Turmstraße,30165,52.3962662,9.7202271
110,Hannoversche Straße,30627,52.3858744,9.8311614
19,Berckhusenstraße,30625,52.3740821,9.7896698
106,Kirchröder Straße,30625,52.3724366,9.7856093
20,Limmerstraße,30451,52.3725358,9.7103871
149,Berckhusenstraße,30625,52.3793190,9.8073528
7,Helstorfer Straße,30625,52.3807892,9.8057708
185-187,Podbielskistraße,30177,52.3993174,9.7774513
159,Podbielskistraße,30177,52.3981507,9.7731613
153,Podbielskistraße,30177,52.3978800,9.7722543
140,Podbielskistraße,30177,52.3970639,9.7704404
3,Hermann-Löns-Park,30559,52.3699059,9.8172104
217,Badenstedter Straße,30455,52.3553988,9.6710630
2,Bohnhorststraße,30165,52.3974489,9.7163933
40,Schulenburger Landstraße,30165,52.3985440,9.7151291
44,Seelhorststraße,30175,52.3777015,9.7606192
8,Oskar-Winter-Straße,30161,52.3883672,9.7513170
44c,Niki-de-Saint-Phalle-Promenade,30159,52.3758610,9.7404563
10,Niki-de-Saint-Phalle-Promenade,30159,52.3746199,9.7389141
8,Niki-de-Saint-Phalle-Promenade,30159,52.3745753,9.7388754
15,Niki-de-Saint-Phalle-Promenade,30159,52.3746487,9.7386009
41a,Niki-de-Saint-Phalle-Promenade,30159,52.3760000,9.7402113
11,Bahnhofstraße,30159,52.3754992,9.7394277
5,Ernst-August-Platz,30159,52.3759491,9.7395616
3,Ernst-August-Platz,30159,52.3765301,9.7389402
12,Georgstraße,30159,52.3749202,9.7357430
10,Georgstraße,30159,52.3749614,9.7355560
4,Georgstraße,30159,52.3753205,9.7339433
8,Steintorstraße,30159,52.3751980,9.7335634
6,Steintorstraße,30159,52.3751053,9.7336164
9,Steintorstraße,30159,52.3751529,9.7333348
11,Steintorstraße,30159,52.3752331,9.7332958
7,Kreuzkirchhof,30159,52.3732039,9.7320256
3,Kreuzstraße,30159,52.3728917,9.7326990
19,Karmarschstraße,30159,52.3738134,9.7382840
21,Karmarschstraße,30159,52.3735051,9.7381420
9,Rundestraße,30161,52.3790170,9.7410110
7,Rundestraße,30161,52.3791798,9.7404404
10,Rundestraße,30161,52.3791011,9.7401150
7,Ferdinand-Wallbrecht-Straße,30163,52.3893876,9.7495300
10,Elmstraße,30657,52.4144584,9.7794448
64a,Hägewiesen,30657,52.4139350,9.7776274
119,Ada-Lessing-Straße,30657,52.4182760,9.7811784
13,Schmiedestraße,30159,52.3732125,9.7345660
7,Ernst-August-Platz,30159,52.3753759,9.7409340
40,Limmerstraße,30451,52.3733357,9.7081386
7a,Raschplatz,30161,52.3790667,9.7442417
18c,Schulenburger Landstraße,30165,52.3972965,9.7173060
22,Schulenburger Landstraße,30165,52.3970713,9.7167187
20,Melanchthonstraße,30165,52.3978043,9.7264533
26,Melanchthonstraße,30165,52.3978766,9.7271759
30,Melanchthonstraße,30165,52.3979279,9.7278314
35,Georgstraße,30159,52.3741319,9.7392970
6a,Georgstraße,30159,52.3751312,9.7347023
77,Prüßentrift,30657,52.4329730,9.8022089
25,Oldenburger Allee,30659,52.4196932,9.8251910
41,Oldenburger Allee,30659,52.4211310,9.8242427
45,Oldenburger Allee,30659,52.4214483,9.8241406
38,Oldenburger Allee,30659,52.4214139,9.8244965
20,Rotenburger Straße,30659,52.4197367,9.8276038
7,Rendsburger Straße,30659,52.4197451,9.8314714
19,Berckhusenstraße,30625,52.3741395,9.7898789
21,Grethe-Jürgens-Straße,30655,52.4048818,9.7864372
41,Grethe-Jürgens-Straße,30655,52.4049276,9.7834996
36,Grethe-Jürgens-Straße,30655,52.4052771,9.7852119
54,Grethe-Jürgens-Straße,30655,52.4052848,9.7840030
72,Grethe-Jürgens-Straße,30655,52.4050527,9.7828544
90,Grethe-Jürgens-Straße,30655,52.4050502,9.7816359
2,Bemeroder Straße,30559,52.3595268,9.7857578
2a,Bemeroder Straße,30559,52.3592331,9.7853138
40,Habichtshorststraße,30655,52.3952464,9.7835852
139,Podbielskistraße,30177,52.3973682,9.7700666
1,Günther-Wagner-Allee,30177,52.3974162,9.7693871
13,Günther-Wagner-Allee,30177,52.3981315,9.7690631
13a,Günther-Wagner-Allee,30177,52.3983256,9.7689335
17,Günther-Wagner-Allee,30177,52.3984191,9.7688569
19,Günther-Wagner-Allee,30177,52.3987426,9.7686212
12,Günther-Wagner-Allee,30177,52.3988912,9.7693843
14,Günther-Wagner-Allee,30177,52.3990202,9.7689939
16,Günther-Wagner-Allee,30177,52.3992745,9.7690513
16a,Günther-Wagner-Allee,30177,52.3993536,9.7693988
2,Heinrich-Heine-Platz,30173,52.3558603,9.7546080
3,Heinrich-Heine-Platz,30173,52.3560509,9.7544557
1,Eilser Masch,30419,52.3971684,9.6744848
11,Eilser Masch,30419,52.3969327,9.6719785
2,Tiestestraße,30171,52.3657701,9.7620485
169,Göttinger Chaussee,30459,52.3382147,9.7173046
50,Stettiner Weg,30625,52.3788532,9.7887455
2,Blumhardtstraße,30625,52.3732171,9.8062963
7,Lange Laube,30159,52.3761402,9.7300832
47,Marktstraße,30159,52.3705931,9.7374449
1,Bleekstraße,30559,52.3646869,9.8133046
6,Bleekstraße,30559,52.3648636,9.8126742
10,Tiergartenstraße,30559,52.3651123,9.8131625
10,Bleekstraße,30559,52.3646654,9.8120000
8,Bleekstraße,30559,52.3648112,9.8124368
14B,Bleekstraße,30559,52.3644060,9.8111848
9,Bleekstraße,30559,52.3641696,9.8115655
16,Bleekstraße,30559,52.3642973,9.8107900
20,Bleekstraße,30559,52.3638078,9.8090607
18B,Bleekstraße,30559,52.3640808,9.8100632
100,Walderseestraße,30177,52.3896724,9.7553123
12,Berliner Allee,30175,52.3772464,9.7488273
10a,Berliner Allee,30175,52.3773740,9.7487210
6,Hinüberstraße,30175,52.3765092,9.7472390
8-9,Kramerstraße,30159,52.3717156,9.7331246
6,Ständehausstraße,30159,52.3740269,9.7398965
35,Georgstraße,30159,52.3742982,9.7391475
27,Edgar-Scheibe-Straße,30655,52.4059542,9.7892272
25,Edgar-Scheibe-Straße,30655,52.4059650,9.7895929
23,Edgar-Scheibe-Straße,30655,52.4057815,9.7897301
21,Edgar-Scheibe-Straße,30655,52.4055032,9.7895847
19,Edgar-Scheibe-Straße,30655,52.4052620,9.7897304
17,Edgar-Scheibe-Straße,30655,52.4053148,9.7900246
15,Edgar-Scheibe-Straße,30655,52.4051247,9.7901661
13,Edgar-Scheibe-Straße,30655,52.4048038,9.7901169
11,Edgar-Scheibe-Straße,30655,52.4045648,9.7902332
9,Edgar-Scheibe-Straße,30655,52.4045770,9.7905685
7,Edgar-Scheibe-Straße,30655,52.4044029,9.7906954
5,Edgar-Scheibe-Straße,30655,52.4040998,9.7906401
12,Janusz-Korczak-Allee,30173,52.3602084,9.7776821
54,Vahrenwalder Straße,30165,52.3902501,9.7349560
269A,Vahrenwalder Straße,30179,52.4164423,9.7333490
1,Northeimer Wende,30419,52.3988174,9.6730003
3,Northeimer Wende,30419,52.3989103,9.6728190
5,Northeimer Wende,30419,52.3990097,9.6726249
7,Northeimer Wende,30419,52.3991059,9.6724372
9,Northeimer Wende,30419,52.3990850,9.6720642
11,Northeimer Wende,30419,52.3991859,9.6718566
13,Northeimer Wende,30419,52.3992868,9.6716491
15,Northeimer Wende,30419,52.3993877,9.6714415
19,Northeimer Wende,30419,52.3997950,9.6714279
30,Northeimer Wende,30419,52.4001702,9.6713888
28,Northeimer Wende,30419,52.4000757,9.6715745
26,Northeimer Wende,30419,52.3999230,9.6717064
24,Northeimer Wende,30419,52.3998290,9.6718913
22,Northeimer Wende,30419,52.3997437,9.6720591
20,Northeimer Wende,30419,52.3996431,9.6722569
14,Northeimer Wende,30419,52.3993890,9.6723993
16,Northeimer Wende,30419,52.3994773,9.6725186
18,Northeimer Wende,30419,52.3995584,9.6726283
12,Northeimer Wende,30419,52.3993534,9.6730229
10,Northeimer Wende,30419,52.3992679,9.6729089
8,Northeimer Wende,30419,52.3991828,9.6727954
2,Northeimer Wende,30419,52.3989839,9.6732047
4,Northeimer Wende,30419,52.3990715,9.6733225
6,Northeimer Wende,30419,52.3991542,9.6734337
1,Fuldaer Wende,30419,52.3995814,9.6739762
3,Fuldaer Wende,30419,52.3996753,9.6737924
5,Fuldaer Wende,30419,52.3997717,9.6736036
7,Fuldaer Wende,30419,52.3998620,9.6734267
9,Fuldaer Wende,30419,52.3999592,9.6732361
11,Fuldaer Wende,30419,52.3999663,9.6728996
13,Fuldaer Wende,30419,52.4000555,9.6727208
15,Fuldaer Wende,30419,52.4001501,9.6725310
17,Fuldaer Wende,30419,52.4003456,9.6719059
19,Fuldaer Wende,30419,52.4004606,9.6720601
21,Fuldaer Wende,30419,52.4005689,9.6722101
24,Fuldaer Wende,30419,52.4009571,9.6724555
22,Fuldaer Wende,30419,52.4008614,9.6726447
20,Fuldaer Wende,30419,52.4007136,9.6727717
18,Fuldaer Wende,30419,52.4006254,9.6729464
16,Fuldaer Wende,30419,52.4005248,9.6731455
14,Fuldaer Wende,30419,52.4004364,9.6733204
12,Fuldaer Wende,30419,52.4003020,9.6736257
10,Fuldaer Wende,30419,52.4001659,9.6734452
6,Fuldaer Wende,30419,52.3999496,9.6738486
8,Fuldaer Wende,30419,52.4000894,9.6740361
2,Fuldaer Wende,30419,52.3997393,9.6742561
4,Fuldaer Wende,30419,52.3998731,9.6744370
9,Waldstraße,30629,52.3923363,9.8544763
1,Hasenberg,30419,52.3976948,9.6732157
3,Hasenberg,30419,52.3976407,9.6729912
5,Hasenberg,30419,52.3976010,9.6728263
7,Hasenberg,30419,52.3975537,9.6726299
9,Hasenberg,30419,52.3975082,9.6724407
11,Hasenberg,30419,52.3974616,9.6722474
13,Hasenberg,30419,52.3974357,9.6720336
15,Hasenberg,30419,52.3973936,9.6718199
17,Hasenberg,30419,52.3973094,9.6713632
19,Hasenberg,30419,52.3972478,9.6709390
24,Hasenberg,30419,52.3972867,9.6704111
26,Hasenberg,30419,52.3973748,9.6703884
20,Hasenberg,30419,52.3974907,9.6708580
22,Hasenberg,30419,52.3974745,9.6707609
18,Hasenberg,30419,52.3975069,9.6711106
16,Hasenberg,30419,52.3975037,9.6714248
14,Hasenberg,30419,52.3975328,9.6715673
12,Hasenberg,30419,52.3975627,9.6717142
10,Hasenberg,30419,52.3975877,9.6718368
8,Hasenberg,30419,52.3976252,9.6720210
6,Hasenberg,30419,52.3976432,9.6721094
4,Hasenberg,30419,52.3976759,9.6722699
2,Hasenberg,30419,52.3977174,9.6724741
4,Kramerstraße,30159,52.3718001,9.7337603
2,Kirchröder Straße,30625,52.3722502,9.7845655
47a,Kötnerholzweg,30451,52.3755611,9.7041352
6,Kötnerholzweg,30451,52.3710433,9.7066093
1,Winkelstraße,30559,52.3599923,9.8555680
17,Am Bahndamm,30453,52.3851216,9.6703501
29,Schillerstraße,30159,52.3760044,9.7379733
25-26,Ludwigstraße,30161,52.3811480,9.7379382
27,Ludwigstraße,30161,52.3809460,9.7375679
28,Ludwigstraße,30161,52.3808647,9.7374083
29,Ludwigstraße,30161,52.3807956,9.7372935
29a,Ludwigstraße,30161,52.3807448,9.7372025
30a,Ludwigstraße,30161,52.3806900,9.7370959
30b,Ludwigstraße,30161,52.3806432,9.7370062
31,Ludwigstraße,30161,52.3805888,9.7369193
32,Ludwigstraße,30161,52.3804809,9.7366097
32a,Ludwigstraße,30161,52.3805274,9.7365415
32b,Ludwigstraße,30161,52.3805743,9.7364682
32c,Ludwigstraße,30161,52.3806201,9.7364075
32d,Ludwigstraße,30161,52.3806642,9.7363324
27,Hamburger Allee,30161,52.3811999,9.7385754
107,Kirchröder Straße,30625,52.3725005,9.7851304
3,Kirchröder Straße,30625,52.3722190,9.7847709
4,Silberstraße,30655,52.3996216,9.8055811
7,Röselerstraße,30159,52.3709167,9.7378136
15,Lister Meile,30161,52.3810992,9.7446626
21,Rotenburger Straße,30659,52.4196866,9.8271467
56,Melanchthonstraße,30165,52.3986334,9.7329337
1,Martha-Wissmann-Platz,30449,52.3611848,9.7157775
3,Martha-Wissmann-Platz,30449,52.3610766,9.7159411
3,Plaza de Rosalia,30449,52.3609935,9.7164745
4,Plaza de Rosalia,30449,52.3609093,9.7167106
5a,Ilse-ter-Meer-Weg,30449,52.3613600,9.7170070
95,Ricklinger Straße,30449,52.3569534,9.7207076
41,Ritter-Brüning-Straße,30459,52.3587165,9.7231597
6,Stadionbrücke,30459,52.3586648,9.7238095
102,Stammestraße,30459,52.3526722,9.7273366
1,Klopstockstraße,30177,52.3999025,9.7795701
18,Am Klagesmarkt,30159,52.3801228,9.7271481
19,Am Klagesmarkt,30159,52.3800292,9.7273179
20,Am Klagesmarkt,30159,52.3799155,9.7275042
21,Am Klagesmarkt,30159,52.3797851,9.7277014
22,Am Klagesmarkt,30159,52.3796681,9.7279041
23,Am Klagesmarkt,30159,52.3795611,9.7280739
24,Am Klagesmarkt,30159,52.3794881,9.7281973
25,Am Klagesmarkt,30159,52.3794087,9.7283275
26,Am Klagesmarkt,30159,52.3792964,9.7285115
20,Rühmkorffstraße,30163,52.3907582,9.7531223
36,Podbielskistraße,30177,52.3912615,9.7556525
38,Podbielskistraße,30177,52.3913587,9.7558325
40,Podbielskistraße,30177,52.3914539,9.7560089
42,Podbielskistraße,30177,52.3915538,9.7561939
44,Podbielskistraße,30177,52.3916500,9.7563721
46,Podbielskistraße,30177,52.3917334,9.7565266
48,Podbielskistraße,30177,52.3918158,9.7566793
50,Podbielskistraße,30177,52.3918962,9.7568282
43,Podbielskistraße,30177,52.3917906,9.7558991
45,Podbielskistraße,30177,52.3919327,9.7561604
47,Podbielskistraße,30177,52.3920736,9.7564194
49,Podbielskistraße,30177,52.3922377,9.7567210
71,Groß-Buchholzer Kirchweg,30655,52.3997863,9.8052042
5,An der Christuskirche,30167,52.3816529,9.7265132
48,Stettiner Weg,30625,52.3787237,9.7890782
46,Stettiner Weg,30625,52.3786015,9.7894143
44,Stettiner Weg,30625,52.3784685,9.7898215
60,Stettiner Weg,30625,52.3794592,9.7890032
62,Stettiner Weg,30625,52.3794312,9.7890791
64,Stettiner Weg,30625,52.3794033,9.7891550
66,Stettiner Weg,30625,52.3793754,9.7892309
68,Stettiner Weg,30625,52.3793474,9.7893067
70,Stettiner Weg,30625,52.3793195,9.7893826
56,Stettiner Weg,30625,52.3790995,9.7890704
58,Stettiner Weg,30625,52.3790716,9.7891463
54,Stettiner Weg,30625,52.3791274,9.7889945
52,Stettiner Weg,30625,52.3791553,9.7889186
71,Stettiner Weg,30625,52.3795856,9.7884351
65,Stettiner Weg,30625,52.3795482,9.7886575
63,Stettiner Weg,30625,52.3793180,9.7881507
53,Stettiner Weg,30625,52.3792555,9.7885340
51,Stettiner Weg,30625,52.3790449,9.7878826
37,Stettiner Weg,30625,52.3789577,9.7884158
35,Stettiner Weg,30625,52.3787588,9.7876982
25,Stettiner Weg,30625,52.3786979,9.7880635
23,Stettiner Weg,30625,52.3785886,9.7882266
13,Stettiner Weg,30625,52.3784986,9.7886554
5,Stettiner Weg,30625,52.3782700,9.7891780
1,Stettiner Weg,30625,52.3781242,9.7896641
3,Stettiner Weg,30625,52.3779469,9.7896638
7,Schweriner Straße,30625,52.3779321,9.7901470
5,Schweriner Straße,30625,52.3777332,9.7901501
9,Schweriner Straße,30625,52.3782656,9.7905254
15,Schweriner Straße,30625,52.3788354,9.7898935
19,Schweriner Straße,30625,52.3788458,9.7909868
23,Schweriner Straße,30625,52.3791385,9.7904363
27,Schweriner Straße,30625,52.3793839,9.7899303
72,Stettiner Weg,30625,52.3795780,9.7892144
73,Stettiner Weg,30625,52.3797234,9.7886549
20b,Gehägestraße,30655,52.3943574,9.7909302
20c,Gehägestraße,30655,52.3942688,9.7907193
20d,Gehägestraße,30655,52.3944662,9.7905231
20e,Gehägestraße,30655,52.3945680,9.7904220
20f,Gehägestraße,30655,52.3946827,9.7903080
20g,Gehägestraße,30655,52.3941414,9.7901412
20l,Gehägestraße,30655,52.3943689,9.7892064
20m,Gehägestraße,30655,52.3938166,9.7890584
20q,Gehägestraße,30655,52.3940266,9.7881271
20s,Gehägestraße,30655,52.3935255,9.7880514
3,Georgsplatz,30159,52.3708398,9.7411950
23-25,An der Weide,30173,52.3621194,9.7637855
8,Körtingstraße,30161,52.3868924,9.7495332
5,Körtingstraße,30161,52.3866885,9.7501722
1,Körtingstraße,30161,52.3866815,9.7492194
4,Körtingstraße,30161,52.3864898,9.7497972
23,Jakobistraße,30163,52.3899293,9.7456087
76A,Herrenhäuser Straße,30419,52.3937472,9.6845371
35,Glockseestraße,30169,52.3715520,9.7204550
106,Kirchröder Straße,30625,52.3724283,9.7854600
21,Kneippweg,30459,52.3399190,9.7343168
213,Hildesheimer Straße,30519,52.3440249,9.7646633
69,Bödekerstraße,30161,52.3872528,9.7508967
81,Lister Meile,30161,52.3878658,9.7492435
64,Lister Meile,30161,52.3866178,9.7486401
24a,Scheidestraße,30625,52.3730353,9.7871190
20,Scheidestraße,30625,52.3728138,9.7862304
15,Berckhusenstraße,30625,52.3739907,9.7892150
85,Bödekerstraße,30161,52.3885275,9.7501481
50,Lister Meile,30161,52.3850802,9.7472186
79,Sutelstraße,30659,52.4063493,9.7995951
79a,Sutelstraße,30659,52.4062581,9.7993801
19,Kurt-Schumacher-Straße,30159,52.3765910,9.7353238
64,Osterstraße,30159,52.3685277,9.7403365
299b,Podbielskistraße,30655,52.4055031,9.7947934
299,Podbielskistraße,30655,52.4045966,9.7951418
295,Podbielskistraße,30655,52.4042588,9.7940405
322,Podbielskistraße,30655,52.4042606,9.7960343
320,Podbielskistraße,30655,52.4039683,9.7952164
310,Podbielskistraße,30655,52.4035120,9.7940654
308,Podbielskistraße,30655,52.4034137,9.7938150
306,Podbielskistraße,30655,52.4028899,9.7933916
314,Podbielskistraße,30655,52.4037085,9.7944944
316,Podbielskistraße,30655,52.4037704,9.7946853
112,Leipziger Straße,30179,52.4174247,9.7603605
23,Gerberstraße,30169,52.3754490,9.7239773
2,Kohlrauschstraße,30161,52.3818238,9.7369970
6,Kohlrauschstraße,30161,52.3822760,9.7369227
29,Hamburger Allee,30161,52.3814726,9.7383480
37,Hamburger Allee,30161,52.3820141,9.7375488
45,Hamburger Allee,30161,52.3826315,9.7369767
66,Hamburger Allee,30161,52.3843014,9.7361197
70,Hamburger Allee,30161,52.3845115,9.7356662
23A,Hamburger Allee,30161,52.3803158,9.7403447
23B,Hamburger Allee,30161,52.3805797,9.7397594
5,Karl-Heinrich-Ulrichs-Straße,30161,52.3797021,9.7407981
2,Hamburger Allee,30161,52.3797215,9.7435693
8,Hamburger Allee,30161,52.3801971,9.7421460
4a,Hamburger Allee,30161,52.3799289,9.7431533
10,Hamburger Allee,30161,52.3804870,9.7432322
3,Fenskestraße,30165,52.3964908,9.7181322
1,Legienstraße,30165,52.3966547,9.7181214
3,Legienstraße,30165,52.3967842,9.7180849
12,Legienstraße,30165,52.3973719,9.7181763
14,Legienstraße,30165,52.3975124,9.7181339
5,Fenskestraße,30165,52.3967216,9.7187625
9a,Fenskestraße,30165,52.3971268,9.7191763
9b,Fenskestraße,30165,52.3972439,9.7190079
9c,Fenskestraße,30165,52.3973590,9.7188435
40,Schulenburger Landstraße,30165,52.3986196,9.7148846
8a,Siegmundstraße,30165,52.3965212,9.7151970
80,Herrenhäuser Straße,30419,52.3940667,9.6831272
88,Herrenhäuser Straße,30419,52.3943198,9.6821774
96,Herrenhäuser Straße,30419,52.3945890,9.6811063
104,Herrenhäuser Straße,30419,52.3948779,9.6801086
76B,Herrenhäuser Straße,30419,52.3936823,9.6848271
78,Herrenhäuser Straße,30419,52.3938946,9.6839811
1,Meldaustraße,30419,52.3957900,9.6850239
13,Meldaustraße,30419,52.3948983,9.6853647
23,Meldaustraße,30419,52.3940022,9.6855175
15,Meldaustraße,30419,52.3944677,9.6855539
25,Meldaustraße,30419,52.3937723,9.6852944
27,Meldaustraße,30419,52.3936132,9.6851827
53,Herrenhäuser Straße,30419,52.3924980,9.6861269
69,Herrenhäuser Straße,30419,52.3931513,9.6846436
68,Herrenhäuser Straße,30419,52.3933708,9.6854086
54,Herrenhäuser Straße,30419,52.3930337,9.6869905
12,Hirtenweg,30163,52.4016117,9.7379104
16,Hirtenweg,30163,52.4017908,9.7384026
11,Hirtenweg,30163,52.4018149,9.7376936
13,Hirtenweg,30163,52.4019477,9.7380739
13a,Hirtenweg,30163,52.4020854,9.7379206
13b,Hirtenweg,30163,52.4022209,9.7377671
11a,Hirtenweg,30163,52.4019382,9.7374267
11b,Hirtenweg,30163,52.4020630,9.7372917
18,Hirtenweg,30163,52.4019908,9.7388100
24,Hirtenweg,30163,52.4022257,9.7393818
46c,Linsingenstraße,30163,52.4022755,9.7410425
46b,Linsingenstraße,30163,52.4023172,9.7406850
46a,Linsingenstraße,30163,52.4023269,9.7404331
37,Linsingenstraße,30163,52.4021473,9.7398765
33,Linsingenstraße,30163,52.4019249,9.7399340
7,Linsingenstraße,30163,52.3995849,9.7405182
16,Franz-Nause-Straße,30453,52.3750273,9.6941832
2,Franz-Nause-Straße,30453,52.3759472,9.6938987
1,Franz-Nause-Straße,30453,52.3752978,9.6945684
3,Franz-Nause-Straße,30453,52.3747811,9.6947600
16,Weidestraße,30453,52.3751343,9.6928874
7,Weidestraße,30453,52.3749413,9.6928167
23,Weidestraße,30453,52.3753486,9.6909968
22a,Weidestraße,30453,52.3757983,9.6914975
1,Zimmermannstraße,30453,52.3748713,9.6907714
2,Zimmermannstraße,30453,52.3745210,9.6908827
16,Zimmermannstraße,30453,52.3742562,9.6927985
24,Zimmermannstraße,30453,52.3742332,9.6940474
28,Zimmermannstraße,30453,52.3742848,9.6946144
2,Auf dem Brinke,30453,52.3747459,9.6928025
19,Wunstorfer Straße,30453,52.3760742,9.6936477
23,Wunstorfer Straße,30453,52.3761789,9.6932332
27,Wunstorfer Straße,30453,52.3762731,9.6929081
2,Eppersstraße,30453,52.3763425,9.6923846
4,Eppersstraße,30453,52.3761418,9.6923769
4a,Eppersstraße,30453,52.3759467,9.6924366
6,Eppersstraße,30453,52.3758578,9.6924393
14,Eppersstraße,30453,52.3752511,9.6925613
5,Eppersstraße,30453,52.3759830,9.6928433
39,Wunstorfer Straße,30453,52.3767275,9.6912400
41,Wunstorfer Straße,30453,52.3767708,9.6909926
35a,Wunstorfer Straße,30453,52.3762538,9.6916658
37a,Wunstorfer Straße,30453,52.3763145,9.6913294
7,Liepmannstraße,30453,52.3719104,9.6959923
7c,Liepmannstraße,30453,52.3718642,9.6955603
7b,Liepmannstraße,30453,52.3719478,9.6965443
7a,Liepmannstraße,30453,52.3717326,9.6978338
25A,Läuferweg,30655,52.4029919,9.8003646
4,Königsworther Straße,30167,52.3773850,9.7223237
8,Auf dem Brinke,30453,52.3741656,9.6927606
18,Auf dem Brinke,30453,52.3734627,9.6925795
7,Auf dem Brinke,30453,52.3742084,9.6930848
13,Hufelandstraße,30453,52.3739497,9.6936654
16a,Hufelandstraße,30453,52.3734659,9.6945514
18,Hufelandstraße,30453,52.3738477,9.6941682
22,Hufelandstraße,30453,52.3738442,9.6947818
2,Hufelandstraße,30453,52.3728569,9.6937208
8,Liepmannstraße,30453,52.3726113,9.6951141
12,Liepmannstraße,30453,52.3729091,9.6951063
14,Liepmannstraße,30453,52.3727334,9.6945599
16,Liepmannstraße,30453,52.3729413,9.6945542
18,Liepmannstraße,30453,52.3729895,9.6932320
20,Liepmannstraße,30453,52.3730787,9.6930639
22,Liepmannstraße,30453,52.3735047,9.6923846
22a,Liepmannstraße,30453,52.3736132,9.6921896
22b,Liepmannstraße,30453,52.3737252,9.6920290
22c,Liepmannstraße,30453,52.3738268,9.6918856
24,Liepmannstraße,30453,52.3739213,9.6917365
34,Liepmannstraße,30453,52.3743149,9.6908769
25,Liepmannstraße,30453,52.3735265,9.6915768
35,Liepmannstraße,30453,52.3740692,9.6905725
9b,Liepmannstraße,30453,52.3724246,9.6936813
9a,Liepmannstraße,30453,52.3724041,9.6939279
9,Liepmannstraße,30453,52.3723828,9.6941838
63,Am Lindener Hafen,30453,52.3729718,9.6904995
75,Am Lindener Hafen,30453,52.3740247,9.6905264
57,Am Lindener Hafen,30453,52.3719638,9.6914658
61,Am Lindener Hafen,30453,52.3722402,9.6915175
51,Am Lindener Hafen,30453,52.3715936,9.6916640
55,Am Lindener Hafen,30453,52.3718660,9.6917194
51a,Am Lindener Hafen,30453,52.3712800,9.6916880
45,Am Lindener Hafen,30453,52.3712102,9.6920154
49,Am Lindener Hafen,30453,52.3714741,9.6920651
26,Am Lindener Hafen,30453,52.3710263,9.6912497
28,Am Lindener Hafen,30453,52.3716340,9.6905069
32,Am Lindener Hafen,30453,52.3726066,9.6896910
38,Am Lindener Hafen,30453,52.3740723,9.6898039
40,Am Lindener Hafen,30453,52.3744607,9.6897320
110a,Fössestraße,30453,52.3674609,9.6916984
3,Eichenbrink,30453,52.3746891,9.6883678
7,Eichenbrink,30453,52.3747659,9.6867032
21,Kesselstraße,30453,52.3749311,9.6906724
15,Kesselstraße,30453,52.3753284,9.6907529
4,Kesselstraße,30453,52.3765796,9.6905331
10,Kirchhöfnerstraße,30453,52.3769715,9.6888960
20,Kirchhöfnerstraße,30453,52.3763105,9.6887879
9,Kirchhöfnerstraße,30453,52.3760547,9.6892472
38,Wunstorfer Straße,30453,52.3767620,9.6920920
46,Wunstorfer Straße,30453,52.3770384,9.6908200
50,Wunstorfer Straße,30453,52.3772357,9.6905063
1,Färberstraße,30453,52.3767794,9.6923368
14,Färberstraße,30453,52.3773727,9.6930052
2,Harenberger Straße,30453,52.3770973,9.6902943
1a,Harenberger Straße,30453,52.3766930,9.6905638
5a,Harenberger Straße,30453,52.3767535,9.6900465
2,Kirchhöfnerstraße,30453,52.3778557,9.6891091
8,Kirchhöfnerstraße,30453,52.3772801,9.6890002
1,Kirchhöfnerstraße,30453,52.3776715,9.6894547
1a,Kirchhöfnerstraße,30453,52.3775377,9.6894133
3,Kirchhöfnerstraße,30453,52.3773823,9.6893837
5,Kirchhöfnerstraße,30453,52.3772343,9.6893460
5a,Kirchhöfnerstraße,30453,52.3772133,9.6894922
47,Wunstorfer Straße,30453,52.3773645,9.6899024
53,Wunstorfer Straße,30453,52.3776173,9.6896500
3,Ratswiese,30453,52.3781656,9.6907087
2,Ratswiese,30453,52.3775594,9.6908337
2,Alfred-Wilm-Straße,30453,52.3733671,9.6917935
14,Alfred-Wilm-Straße,30453,52.3728733,9.6905393
9,Alfred-Wilm-Straße,30453,52.3727092,9.6909872
15,Alfred-Wilm-Straße,30453,52.3724677,9.6913966
1,Alfred-Wilm-Straße,30453,52.3729134,9.6915410
7,Alfred-Wilm-Straße,30453,52.3726611,9.6919703
17,Alfred-Wilm-Straße,30453,52.3726961,9.6906415
9a,Alfred-Wilm-Straße,30453,52.3729672,9.6913553
1a,Alfred-Wilm-Straße,30453,52.3731949,9.6919184
4,Hurlebuschweg,30453,52.3722706,9.6926123
10,Hurlebuschweg,30453,52.3723197,9.6919042
12,Hurlebuschweg,30453,52.3719228,9.6928622
18,Hurlebuschweg,30453,52.3719722,9.6921103
20,Hurlebuschweg,30453,52.3716754,9.6928833
26,Hurlebuschweg,30453,52.3713110,9.6928159
26a,Hurlebuschweg,30453,52.3712481,9.6923863
5,Hurlebuschweg,30453,52.3719522,9.6933861
11,Hurlebuschweg,30453,52.3714604,9.6932895
13a,Hurlebuschweg,30453,52.3711900,9.6932746
13,Hurlebuschweg,30453,52.3710136,9.6931504
21,Hurlebuschweg,30453,52.3709091,9.6922436
55,Wunstorfer Straße,30453,52.3779819,9.6890020
59,Wunstorfer Straße,30453,52.3782420,9.6883477
72,Wunstorfer Straße,30453,52.3788714,9.6871730
61,Wunstorfer Straße,30453,52.3783488,9.6879140
61a,Wunstorfer Straße,30453,52.3784278,9.6876629
63,Wunstorfer Straße,30453,52.3784835,9.6874118
63a,Wunstorfer Straße,30453,52.3785393,9.6871607
71,Wunstorfer Straße,30453,52.3786089,9.6869705
71a,Wunstorfer Straße,30453,52.3786693,9.6867803
73,Wunstorfer Straße,30453,52.3787204,9.6866053
77,Wunstorfer Straße,30453,52.3788922,9.6861184
79,Wunstorfer Straße,30453,52.3791062,9.6856253
86,Wunstorfer Straße,30453,52.3797000,9.6851543
88,Wunstorfer Straße,30453,52.3798519,9.6847965
14,Harenberger Straße,30453,52.3772830,9.6887117
16,Harenberger Straße,30453,52.3772784,9.6884127
15,Harenberger Straße,30453,52.3770188,9.6888061
19,Harenberger Straße,30453,52.3769980,9.6882308
18,Harenberger Straße,30453,52.3772550,9.6878608
30,Harenberger Straße,30453,52.3772456,9.6865346
21,Harenberger Straße,30453,52.3769836,9.6876921
25,Harenberger Straße,30453,52.3770033,9.6874947
27,Harenberger Straße,30453,52.3766747,9.6870099
29,Harenberger Straße,30453,52.3766794,9.6864887
32,Harenberger Straße,30453,52.3772617,9.6860577
36,Harenberger Straße,30453,52.3773050,9.6855170
43,Harenberger Straße,30453,52.3770886,9.6852444
45,Harenberger Straße,30453,52.3771056,9.6850180
47,Harenberger Straße,30453,52.3771181,9.6847173
55,Harenberger Straße,30453,52.3771904,9.6838237
2a,Quellengrund,30453,52.3765581,9.6876633
4,Quellengrund,30453,52.3763368,9.6875553
9,Quellengrund,30453,52.3760853,9.6879664
15,Quellengrund,30453,52.3760099,9.6885296
8,Quellengrund,30453,52.3757856,9.6878246
14,Quellengrund,30453,52.3757102,9.6884572
13,Dieselstraße,30453,52.3760043,9.6849750
23,Dieselstraße,30453,52.3762696,9.6850256
2,Dieselstraße,30453,52.3769882,9.6846741
10,Dieselstraße,30453,52.3764432,9.6845501
1,Prüßmannstraße,30453,52.3778540,9.6875086
7,Prüßmannstraße,30453,52.3778887,9.6865825
4,Prüßmannstraße,30453,52.3781256,9.6877086
6,Prüßmannstraße,30453,52.3781349,9.6874575
6a,Prüßmannstraße,30453,52.3781303,9.6872217
6b,Prüßmannstraße,30453,52.3781256,9.6869705
6c,Prüßmannstraße,30453,52.3781349,9.6867575
8,Prüßmannstraße,30453,52.3781395,9.6865369
1,Spangenbergstraße,30453,52.3773314,9.6879521
7,Spangenbergstraße,30453,52.3778522,9.6878971
11,Spangenbergstraße,30453,52.3782093,9.6879977
2,Spangenbergstraße,30453,52.3776473,9.6883248
6a,Kirchhöfnerstraße,30453,52.3775382,9.6886442
1,Varrelmannstraße,30453,52.3785440,9.6864860
7,Varrelmannstraße,30453,52.3781524,9.6864579
9,Varrelmannstraße,30453,52.3778820,9.6864434
17,Varrelmannstraße,30453,52.3773789,9.6864106
18,Varrelmannstraße,30453,52.3775394,9.6861635
2,Varrelmannstraße,30453,52.3787639,9.6862413
1,Tegtmeyerstraße,30453,52.3789373,9.6855297
21,Tegtmeyerstraße,30453,52.3773447,9.6852547
11A,Tegtmeyerstraße,30453,52.3781366,9.6857113
2,Tegtmeyerstraße,30453,52.3791550,9.6847668
6,Tegtmeyerstraße,30453,52.3789651,9.6851133
3,Brunnenstraße,30453,52.3790991,9.6845615
5,Brunnenstraße,30453,52.3790252,9.6843857
7,Brunnenstraße,30453,52.3788839,9.6843414
9,Brunnenstraße,30453,52.3786160,9.6843091
15,Brunnenstraße,30453,52.3785710,9.6849928
17,Brunnenstraße,30453,52.3782057,9.6842363
23,Brunnenstraße,30453,52.3781612,9.6849171
18,Brunnenstraße,30453,52.3781884,9.6838214
24,Brunnenstraße,30453,52.3776915,9.6837335
8,Brunnenstraße,30453,52.3790058,9.6839808
10,Brunnenstraße,30453,52.3789146,9.6839539
10a,Brunnenstraße,30453,52.3787363,9.6839105
12,Brunnenstraße,30453,52.3785838,9.6838881
12a,Brunnenstraße,30453,52.3786112,9.6834277
10c,Brunnenstraße,30453,52.3787870,9.6832518
4,Brunnenstraße,30453,52.3794029,9.6842924
2,Sackmannstraße,30453,52.3790607,9.6869786
3,Sackmannstraße,30453,52.3794964,9.6867069
3A,Sackmannstraße,30453,52.3796521,9.6866587
3B,Sackmannstraße,30453,52.3796435,9.6868992
7,Sackmannstraße,30453,52.3796247,9.6873197
9,Sackmannstraße,30453,52.3797049,9.6874857
40,Sackmannstraße,30453,52.3819121,9.6855726
38,Sackmannstraße,30453,52.3819934,9.6858909
10,Große Straße,30453,52.3804426,9.6859728
12,Große Straße,30453,52.3805894,9.6861053
2,Große Straße,30453,52.3797117,9.6855819
8,Große Straße,30453,52.3800560,9.6857173
7,Große Straße,30453,52.3801931,9.6853162
7a,Große Straße,30453,52.3802027,9.6852515
7b,Große Straße,30453,52.3802558,9.6851992
7c,Große Straße,30453,52.3802649,9.6851374
7d,Große Straße,30453,52.3802745,9.6850724
9,Große Straße,30453,52.3803437,9.6852471
9a,Große Straße,30453,52.3803801,9.6852610
9b,Große Straße,30453,52.3804340,9.6852498
9c,Große Straße,30453,52.3804652,9.6852618
9d,Große Straße,30453,52.3804948,9.6852732
11,Große Straße,30453,52.3802206,9.6855796
11a,Große Straße,30453,52.3802596,9.6855948
11c,Große Straße,30453,52.3803409,9.6856155
11d,Große Straße,30453,52.3803861,9.6856199
11e,Große Straße,30453,52.3804278,9.6856362
11f,Große Straße,30453,52.3804695,9.6856526
11b,Große Straße,30453,52.3802990,9.6855991
49,In der Steintormasch,30167,52.3807927,9.6940759
36,Voßstraße,30161,52.3889546,9.7421832
10 A,Tieckstraße,30625,52.3757701,9.7856100
87a,Im Heidkampe,30659,52.4195714,9.8095126
87,Im Heidkampe,30659,52.4193725,9.8091693
90,Im Heidkampe,30659,52.4180220,9.8077016
97,Im Heidkampe,30659,52.4203818,9.8108758
89,Im Heidkampe,30659,52.4197075,9.8097872
132,Im Heidkampe,30659,52.4198525,9.8108494
118,Im Heidkampe,30659,52.4194301,9.8099847
36,Alte Herrenhäuser Straße,30419,52.3918977,9.6892959
42,Alte Herrenhäuser Straße,30419,52.3919305,9.6884413
32,Alte Herrenhäuser Straße,30419,52.3918977,9.6895719
32a,Alte Herrenhäuser Straße,30419,52.3919962,9.6895786
28,Alte Herrenhäuser Straße,30419,52.3918895,9.6900227
22,Alte Herrenhäuser Straße,30419,52.3918730,9.6908840
15c,Alte Herrenhäuser Straße,30419,52.3916185,9.6903323
2,Astrid-Lindgren-Straße,30419,52.3920057,9.6899801
4,Astrid-Lindgren-Straße,30419,52.3922072,9.6900272
4,Ringelnatzweg,30419,52.3910681,9.6897509
4a,Ringelnatzweg,30419,52.3909241,9.6897030
6,Ringelnatzweg,30419,52.3907611,9.6895774
8a,Ringelnatzweg,30419,52.3906940,9.6894286
89,Lister Meile,30161,52.3883965,9.7495306
69,Podbielskistraße,30177,52.3935142,9.7589765
2,Wittekamp,30177,52.3940391,9.7598829
2,Hunaeusstraße,30177,52.3948550,9.7613822
92,Podbielskistraße,30177,52.3947875,9.7624180
92,Podbielskistraße,30177,52.3947973,9.7623981
99,Waldstraße,30629,52.4046395,9.8699350
312,Moorwaldweg,30659,52.4109119,9.8575108
356,Moorwaldweg,30659,52.4176460,9.8596804
355,Moorwaldweg,30659,52.4180413,9.8586123
103,Moorwaldweg,30659,52.4168116,9.8444231
6,Moorwaldweg,30659,52.4204786,9.8400623
16,Moorwaldweg,30659,52.4203662,9.8431618
17c,Moorwaldweg,30659,52.4216026,9.8439660
22,Moorwaldweg,30916,52.4230483,9.8493543
106,Podbielskistraße,30177,52.3956437,9.7653440
107,Podbielskistraße,30177,52.3959415,9.7651580
13,Pelikanstraße,30177,52.4001534,9.7711188
138,Podbielskistraße,30177,52.3969650,9.7701072
11,Pelikanstraße,30177,52.3994674,9.7711667
1,Raabestraße,30177,52.3985818,9.7739097
175,Podbielskistraße,30177,52.3989168,9.7759197
178,Podbielskistraße,30177,52.3984152,9.7753848
168,Podbielskistraße,30177,52.3980720,9.7741379
164,Podbielskistraße,30177,52.3972431,9.7740610
25 b,Sutelstraße,30659,52.4152673,9.7973987
1,Carl-Neuberg-Straße,30625,52.3846338,9.8040587
1,Carl-Neuberg-Straße,30625,52.3849102,9.8023564
2,Küsterstraße,30519,52.3407600,9.7591237
335-337,Hildesheimer Straße,30519,52.3313874,9.7749245
19,Fiedelerstraße,30519,52.3407768,9.7639409
3,Wichmannstraße,30519,52.3409626,9.7626077
25,Fiedelerstraße,30519,52.3392467,9.7637394
37,Helenenstraße,30519,52.3388160,9.7652483
37,Helenenstraße,30519,52.3387187,9.7653173
46a,Schlägerstraße,30171,52.3617419,9.7540724
13,Georgstraße,30159,52.3757801,9.7340826
5,Schaumburgstraße,30419,52.3951627,9.6935171
4b,Schaumburgstraße,30419,52.3949642,9.6935409
4a,Schaumburgstraße,30419,52.3948093,9.6935384
4,Schaumburgstraße,30419,52.3946635,9.6935283
21,Schaumburgstraße,30419,52.3958290,9.6929587
23,Schaumburgstraße,30419,52.3953912,9.6931544
20a,Schaumburgstraße,30419,52.3961836,9.6926477
20b,Schaumburgstraße,30419,52.3963266,9.6925621
1C,Berggartenstraße,30419,52.3935417,9.6956252
10,Berggartenstraße,30419,52.3952913,9.6936350
2C,Mandelslohstraße,30419,52.3933565,9.6946436
3,Mandelslohstraße,30419,52.3933256,9.6949472
1B,Berggartenstraße,30419,52.3934044,9.6957134
1,Löpentinstraße,30419,52.3930045,9.6898168
9,Löpentinstraße,30419,52.3932206,9.6885620
3a,Löpentinstraße,30419,52.3928872,9.6893310
2,Bussilliatweg,30419,52.3929860,9.6883090
2a,Bussilliatweg,30419,52.3929551,9.6885417
2b,Bussilliatweg,30419,52.3929427,9.6887543
13,Löpentinstraße,30419,52.3933072,9.6879645
19,Löpentinstraße,30419,52.3934517,9.6870418
19a,Löpentinstraße,30419,52.3934488,9.6869139
25,Löpentinstraße,30419,52.3935705,9.6861920
29,Löpentinstraße,30419,52.3936678,9.6856271
18,Hegebläch,30419,52.3939002,9.6894420
20,Hegebläch,30419,52.3938010,9.6897864
23,Hegebläch,30419,52.3944247,9.6902215
27,Hegebläch,30419,52.3949601,9.6906372
32,Hegebläch,30419,52.3957574,9.6911255
8,Hegebläch,30419,52.3954234,9.6903671
12,Hegebläch,30419,52.3948579,9.6900097
34,Hegebläch,30419,52.3963258,9.6914976
7,Palmstraße,30419,52.3960004,9.6922693
8,Palmstraße,30419,52.3959507,9.6919042
9,Palmstraße,30419,52.3959971,9.6916582
1,Palmstraße,30419,52.3957378,9.6915061
6,Palmstraße,30419,52.3957944,9.6927009
1,Wendlandstraße,30419,52.3941821,9.6926698
3,Wendlandstraße,30419,52.3943063,9.6921781
11,An Mußmanns Haube,30419,52.3947291,9.6892797
12,An Mußmanns Haube,30419,52.3949829,9.6894072
14,An Mußmanns Haube,30419,52.3949281,9.6896423
1,Ortmannweg,30419,52.3937016,9.6871885
7,Ortmannweg,30419,52.3941153,9.6873514
2,Ortmannweg,30419,52.3936751,9.6875464
10,Ortmannweg,30419,52.3939615,9.6875801
12,Ortmannweg,30419,52.3943840,9.6877862
16,Ortmannweg,30419,52.3947520,9.6878179
9,Ortmannweg,30419,52.3944038,9.6872126
13,Ortmannweg,30419,52.3946873,9.6871753
1,Bauvereinsweg,30419,52.3938957,9.6860897
5,Bauvereinsweg,30419,52.3941663,9.6862329
2,Bauvereinsweg,30419,52.3938455,9.6865225
4,Bauvereinsweg,30419,52.3940112,9.6866104
10,Bauvereinsweg,30419,52.3941945,9.6876925
24,Bauvereinsweg,30419,52.3941760,9.6883365
1,An Mußmanns Haube,30419,52.3945976,9.6859180
3,An Mußmanns Haube,30419,52.3945543,9.6864428
3A,An Mußmanns Haube,30419,52.3943998,9.6864963
9,An Mußmanns Haube,30419,52.3948055,9.6882355
1,Erich-Klabunde-Hof,30419,52.3958523,9.6856678
2,Erich-Klabunde-Hof,30419,52.3957221,9.6857131
2a,Erich-Klabunde-Hof,30419,52.3955276,9.6857632
3,Erich-Klabunde-Hof,30419,52.3953225,9.6858555
5,Erich-Klabunde-Hof,30419,52.3949900,9.6859710
6,Spanuthstraße,30419,52.3956513,9.6861768
8,Spanuthstraße,30419,52.3954467,9.6862487
1,Spanuthstraße,30419,52.3959145,9.6865399
3,Spanuthstraße,30419,52.3957547,9.6865735
5,Spanuthstraße,30419,52.3954405,9.6866685
9,Spanuthstraße,30419,52.3951224,9.6867764
15,Ortmannweg,30419,52.3951876,9.6874579
19,Ortmannweg,30419,52.3955047,9.6873844
21,Ortmannweg,30419,52.3958245,9.6872737
23,Ortmannweg,30419,52.3959743,9.6872385
18,Ortmannweg,30419,52.3951667,9.6878134
24,Ortmannweg,30419,52.3955488,9.6877733
26,Ortmannweg,30419,52.3958342,9.6876533
28,Ortmannweg,30419,52.3960069,9.6876122
1,Lütgertweg,30419,52.3951747,9.6884557
7,Lütgertweg,30419,52.3955862,9.6884616
9,Lütgertweg,30419,52.3958938,9.6883545
11,Lütgertweg,30419,52.3960587,9.6883149
191,Haltenhoffstraße,30419,52.3961418,9.6885603
185,Haltenhoffstraße,30419,52.3962182,9.6895724
183,Haltenhoffstraße,30419,52.3961389,9.6899334
181,Haltenhoffstraße,30419,52.3962231,9.6899921
167,Haltenhoffstraße,30419,52.3963065,9.6908425
161,Haltenhoffstraße,30419,52.3964747,9.6921425
163,Haltenhoffstraße,30419,52.3964331,9.6917586
3,Kiepertstraße,30419,52.3927807,9.6847948
7,Kiepertstraße,30419,52.3927104,9.6852475
1,Dorotheenstraße,30419,52.3920274,9.6863835
2,Malortiestraße,30419,52.3944258,9.6822829
22,Malortiestraße,30419,52.3956103,9.6824948
1,Malortiestraße,30419,52.3946147,9.6819814
2,Westerfeldstraße,30419,52.3951968,9.6807602
10,Westerfeldstraße,30419,52.3948339,9.6818784
3,Crystallstraße,30419,52.3952786,9.6798399
5,Crystallstraße,30419,52.3953960,9.6799939
4,Crystallstraße,30419,52.3950897,9.6801138
1,Westerfeldstraße,30419,52.3952983,9.6803965
10,Crystallstraße,30419,52.3955333,9.6806649
108,Herrenhäuser Straße,30419,52.3951239,9.6794625
243,Haltenhoffstraße,30419,52.3957443,9.6787705
229,Haltenhoffstraße,30419,52.3957298,9.6807083
219,Haltenhoffstraße,30419,52.3957233,9.6818104
217,Haltenhoffstraße,30419,52.3956857,9.6826563
215,Haltenhoffstraße,30419,52.3956824,9.6830050
1,Voßstraße,30161,52.3880106,9.7379454
17,Voßstraße,30161,52.3883920,9.7401560
2,Voßstraße,30161,52.3877802,9.7381969
20,Voßstraße,30161,52.3881782,9.7405842
46,Voßstraße,30161,52.3897848,9.7437297
54,Voßstraße,30163,52.3905076,9.7442876
60,Voßstraße,30163,52.3916455,9.7453464
62,Voßstraße,30163,52.3919650,9.7455696
1,Husarenstraße,30163,52.3926316,9.7444133
4,Husarenstraße,30163,52.3928607,9.7442438
107,Herrenhäuser Straße,30419,52.3948280,9.6791483
123,Herrenhäuser Straße,30419,52.3954168,9.6779755
125,Herrenhäuser Straße,30419,52.3955232,9.6776001
127,Herrenhäuser Straße,30419,52.3956395,9.6773588
1,Im Heckenweg,30419,52.3946154,9.6788257
7,Im Heckenweg,30419,52.3951241,9.6777311
11,Spargelstraße,30419,52.3943129,9.6792221
17,Spargelstraße,30419,52.3938737,9.6791180
5,Spargelstraße,30419,52.3939670,9.6793938
17a,Spargelstraße,30419,52.3941442,9.6787518
19,Spargelstraße,30419,52.3938396,9.6783376
19a,Spargelstraße,30419,52.3937402,9.6785299
19b,Spargelstraße,30419,52.3936739,9.6786582
19c,Spargelstraße,30419,52.3935922,9.6788744
19d,Spargelstraße,30419,52.3935285,9.6789976
8,Spargelstraße,30419,52.3944082,9.6782390
12,Spargelstraße,30419,52.3941053,9.6781950
75,Herrenhäuser Straße,30419,52.3932706,9.6842057
79,Herrenhäuser Straße,30419,52.3935909,9.6830490
1,Markgrafstraße,30419,52.3934599,9.6826298
25,Markgrafstraße,30419,52.3931147,9.6800981
29,Markgrafstraße,30419,52.3931018,9.6795396
31,Markgrafstraße,30419,52.3932568,9.6789315
33,Markgrafstraße,30419,52.3937925,9.6777054
45,Markgrafstraße,30419,52.3942868,9.6768791
47,Markgrafstraße,30419,52.3943621,9.6765622
51,Markgrafstraße,30419,52.3945301,9.6762606
50,Markgrafstraße,30419,52.3944383,9.6776215
54,Markgrafstraße,30419,52.3947602,9.6776688
53,Markgrafstraße,30419,52.3949817,9.6769709
55,Markgrafstraße,30419,52.3952685,9.6771925
2,Rieckenbergstraße,30419,52.3933219,9.6783944
4,Rieckenbergstraße,30419,52.3931566,9.6781618
1,Rieckenbergstraße,30419,52.3932056,9.6787462
5,Rieckenbergstraße,30419,52.3929697,9.6784369
2,Dangersstraße,30419,52.3931370,9.6790765
8,Dangersstraße,30419,52.3927218,9.6788459
1,Dangersstraße,30419,52.3930687,9.6794648
7,Dangersstraße,30419,52.3925632,9.6791320
4,Wefelsestraße,30419,52.3930689,9.6801524
16,Wefelsestraße,30419,52.3921979,9.6800934
7a,Hansteinstraße,30419,52.3921758,9.6816493
1,Hansteinstraße,30419,52.3930900,9.6816557
7,Hansteinstraße,30419,52.3922649,9.6816479
21,Dorotheenstraße,30419,52.3922225,9.6798653
24,Dorotheenstraße,30419,52.3924966,9.6792483
25,Dorotheenstraße,30419,52.3928691,9.6785508
26,Dorotheenstraße,30419,52.3932457,9.6779607
27,Dorotheenstraße,30419,52.3933929,9.6777929
28,Dorotheenstraße,30419,52.3936426,9.6775046
3a,Am Winkelberge,30419,52.3956892,9.6747147
5,Dünenweg,30419,52.3962536,9.6750888
7,Dünenweg,30419,52.3961914,9.6741774
5,Mühenkamp,30419,52.3966594,9.6842053
2,Mühenkamp,30419,52.3961947,9.6846736
8,Mühenkamp,30419,52.3967470,9.6845634
1,Otto-Blum-Hof,30419,52.3966932,9.6852119
2,Otto-Blum-Hof,30419,52.3965303,9.6852514
1,Troskeweg,30419,52.3968112,9.6858476
4,Troskeweg,30419,52.3962636,9.6859595
1,Wesenerweg,30419,52.3968953,9.6864399
4,Wesenerweg,30419,52.3963071,9.6865689
1,Buddeweg,30419,52.3969323,9.6869806
4,Buddeweg,30419,52.3963479,9.6871008
1,Weirauchstraße,30419,52.3964574,9.6877258
7,Weirauchstraße,30419,52.3969463,9.6876113
2,Weirauchstraße,30419,52.3965002,9.6881556
8,Weirauchstraße,30419,52.3969928,9.6880394
2,Hoffstraße,30419,52.3967570,9.6901176
6,Hoffstraße,30419,52.3970576,9.6900485
1,Hoffstraße,30419,52.3967155,9.6896325
5,Hoffstraße,30419,52.3970510,9.6895542
2,Culemeyertrift,30419,52.3971933,9.6916400
7,Culemeyertrift,30419,52.3971748,9.6902441
8,Culemeyertrift,30419,52.3971228,9.6891300
11,Culemeyertrift,30419,52.3970717,9.6884149
176,Haltenhoffstraße,30419,52.3966078,9.6902693
180,Haltenhoffstraße,30419,52.3965636,9.6893444
188,Haltenhoffstraße,30419,52.3964911,9.6884931
188a,Haltenhoffstraße,30419,52.3964655,9.6883787
200,Haltenhoffstraße,30419,52.3962650,9.6857792
206,Haltenhoffstraße,30419,52.3961997,9.6848869
212,Haltenhoffstraße,30419,52.3960913,9.6827623
212a,Haltenhoffstraße,30419,52.3962349,9.6827346
212b,Haltenhoffstraße,30419,52.3963726,9.6827080
212c,Haltenhoffstraße,30419,52.3964977,9.6826838
212d,Haltenhoffstraße,30419,52.3966630,9.6825900
212e,Haltenhoffstraße,30419,52.3966495,9.6824226
212f,Haltenhoffstraße,30419,52.3966370,9.6822487
214,Haltenhoffstraße,30419,52.3961055,9.6823958
214a,Haltenhoffstraße,30419,52.3962634,9.6823587
214b,Haltenhoffstraße,30419,52.3964197,9.6823219
216,Haltenhoffstraße,30419,52.3960910,9.6816928
216a,Haltenhoffstraße,30419,52.3962351,9.6816593
216b,Haltenhoffstraße,30419,52.3964068,9.6816193
216c,Haltenhoffstraße,30419,52.3964823,9.6815464
216d,Haltenhoffstraße,30419,52.3965545,9.6815586
216e,Haltenhoffstraße,30419,52.3965452,9.6813919
216f,Haltenhoffstraße,30419,52.3965324,9.6811618
218,Haltenhoffstraße,30419,52.3961068,9.6813033
218a,Haltenhoffstraße,30419,52.3963031,9.6812597
220,Haltenhoffstraße,30419,52.3961221,9.6805987
220a,Haltenhoffstraße,30419,52.3962997,9.6805576
220b,Haltenhoffstraße,30419,52.3964575,9.6804938
220c,Haltenhoffstraße,30419,52.3964469,9.6802942
220d,Haltenhoffstraße,30419,52.3964374,9.6801143
222,Haltenhoffstraße,30419,52.3960967,9.6802117
222a,Haltenhoffstraße,30419,52.3962455,9.6801786
10,Schaumburgstraße,30419,52.3968198,9.6925994
12a,Schaumburgstraße,30419,52.3970893,9.6925482
17,Schaumburgstraße,30419,52.3974669,9.6921745
17a,Culemeyertrift,30419,52.3974733,9.6919498
18,Culemeyertrift,30419,52.3970805,9.6921040
30,Käthe-Steinitz-Straße,30655,52.4045997,9.7982565
28,Käthe-Steinitz-Straße,30655,52.4044409,9.7982943
26,Käthe-Steinitz-Straße,30655,52.4042888,9.7983305
24,Käthe-Steinitz-Straße,30655,52.4041379,9.7983664
47,Wunstorfer Landstraße,30453,52.3838634,9.6649430
4,Bertramstraße,30165,52.3981098,9.7132931
4a,Bertramstraße,30165,52.3979492,9.7130605
5,Bertramstraße,30165,52.3977270,9.7127062
6,Bertramstraße,30165,52.3974553,9.7123623
35,Schulenburger Landstraße,30165,52.3988655,9.7141068
29,Voltmerstraße,30165,52.3991459,9.7163960
31,Voltmerstraße,30165,52.3992812,9.7162398
21,Voltmerstraße,30165,52.3985011,9.7172193
27,Voltmerstraße,30165,52.3989831,9.7166409
1,Voltmerstraße,30165,52.3973148,9.7196302
27,Hüttenstraße,30165,52.3966334,9.7207400
27a,Hüttenstraße,30165,52.3967830,9.7207568
27b,Hüttenstraße,30165,52.3969196,9.7207722
27c,Hüttenstraße,30165,52.3970594,9.7207931
27d,Hüttenstraße,30165,52.3971992,9.7210027
26,Hüttenstraße,30165,52.3959001,9.7209706
26a,Hüttenstraße,30165,52.3959560,9.7207772
26b,Hüttenstraße,30165,52.3960966,9.7207423
25,Hüttenstraße,30165,52.3956295,9.7210839
25a,Hüttenstraße,30165,52.3957709,9.7213358
2,Bohnhorststraße,30165,52.3975205,9.7166068
8,Bohnhorststraße,30165,52.3977308,9.7173176
10,Bohnhorststraße,30165,52.3978077,9.7174879
17,Chamissostraße,30165,52.4036433,9.7138930
67a,Schulenburger Landstraße,30165,52.4010749,9.7121995
16A,Helmkestraße,30165,52.4007798,9.7112560
16B,Helmkestraße,30165,52.4008440,9.7114612
16C,Helmkestraße,30165,52.4009085,9.7116692
23,Helmkestraße,30165,52.4004569,9.7101694
5B,Helmkestraße,30165,52.3990179,9.7109018
5E,Helmkestraße,30165,52.3993979,9.7104067
3,Helmkestraße,30165,52.3995069,9.7129169
3A,Helmkestraße,30165,52.3996342,9.7127567
9,Schmedesweg,30165,52.3990568,9.7182994
11,Schmedesweg,30165,52.3992308,9.7182163
10,Knoevenagelweg,30165,52.3993609,9.7188004
12,Knoevenagelweg,30165,52.3991940,9.7188692
14,Bömelburgstraße,30165,52.3997018,9.7164622
16,Bömelburgstraße,30165,52.3997278,9.7165570
16a,Bömelburgstraße,30165,52.3997690,9.7166810
18,Bömelburgstraße,30165,52.4000431,9.7174525
18a,Bömelburgstraße,30165,52.3999130,9.7174735
18b,Bömelburgstraße,30165,52.3997798,9.7174950
20,Bömelburgstraße,30165,52.4002522,9.7179898
20a,Bömelburgstraße,30165,52.4001186,9.7180114
20b,Bömelburgstraße,30165,52.3999854,9.7180329
22,Bömelburgstraße,30165,52.4002492,9.7185458
22a,Bömelburgstraße,30165,52.4001155,9.7185664
22b,Bömelburgstraße,30165,52.3999782,9.7185876
13a,Bömelburgstraße,30165,52.4009265,9.7177050
13d,Bömelburgstraße,30165,52.4010023,9.7182219
