House number,Street name,Postal code,Latitude,Longitude
443,Avenida Miguel Ángel de Quevedo,04310,19.3453094,-99.1722996
202,Calle Omega,04310,19.3414172,-99.1715003
11,Plaza San Jacinto,01000,19.3449367,-99.1926930
134,Avenida Miguel Ángel de Quevedo,01050,19.3476329,-99.1819828
121,Avenida Miguel Ángel de Quevedo,01050,19.3472627,-99.1822775
115,Avenida Miguel Ángel de Quevedo,01070,19.3473494,-99.1826437
46,Calle Altamirano,01090,19.3397223,-99.1939914
46,Altamirano,01090,19.3387504,-99.1928585
201,Miguel Ángel de Quevedo,04310,19.3465335,-99.1803399
420,Barrilaco,11000,19.4276384,-99.2116606
26,Calle Acueducto Río Hondo,11000,19.4223048,-99.2063529
24,Avenida de Parque,03810,19.3949068,-99.1758289
59,Altadena,03810,19.3961815,-99.1738933
37,Georgia,03810,19.3899237,-99.1750775
138,Calle Mier y Pesado,03103,19.3973241,-99.1644113
320,Obrero Mundial,03020,19.4025066,-99.1541215
327,Nueva York,03810,19.3862336,-99.1752088
905,Avenida Insurgentes Sur,03810,19.3866468,-99.1750622
255,Calle Pennsylvania,03810,19.3862741,-99.1770297
178,Calle José Martí,11800,19.4019612,-99.1775435
62,Calle Río Amazonas,06500,19.4323350,-99.1643219
17,Plaza Necaxa,06500,19.4313772,-99.1668948
26-A,Calle Río Amazonas,06500,19.4324409,-99.1641049
222,Avenida Paseo de la Reforma,06600,19.4284912,-99.1611487
15,Madrid,06030,19.4336319,-99.1567330
65,Huipulco,14050,19.2966268,-99.1541829
516,Calzada San Juan de Aragón,07070,19.4809274,-99.0955347
4690,Boulevard Adolfo Ruiz Cortines,04500,19.3045059,-99.1899825
s/n,Calle Ignacio Allende,14000,19.2904418,-99.1671683
46,Altamirano,01090,19.3389280,-99.1932447
46,Calle Altamirano,01090,19.3393127,-99.1925055
3002,Avenida Universidad,04510,19.3361558,-99.1872207
21,Calle Ignacio Allende,4100,19.3503200,-99.1615512
1763,Gabriel Mancera,03100,19.3644936,-99.1698035
890,Avenida Miguel Ángel de Quevedo,04020,19.3437812,-99.1553435
117,Corina,04100,19.3562558,-99.1551412
184,América,04040,19.3445922,-99.1520641
2855,Avenida División del Norte,04040,19.3451737,-99.1497910
2043,Calzada de Tlalpan,04040,19.3442863,-99.1447144
2073,Calzada de Tlalpan,04040,19.3438704,-99.1446919
1323,Calzada Taxqueña,04200,19.3412434,-99.1398319
1443,Calzada Taxqueña,06700,19.3407427,-99.1361315
2600,Canal de Miramontes,04850,19.3215786,-99.1322112
2697,Canal de Miramontes,04810,19.3175999,-99.1288452
536,Avenida Miguel Ángel de Quevedo,04000,19.3453887,-99.1683757
1,Av Río Mixcoac,03940,19.3673609,-99.1803765
59,Av Río Mixcoac,03940,19.3661798,-99.1791096
1311,Avenida Universidad,01030,19.3593516,-99.1721115
180,Avenida Insurgentes Sur,06700,19.4216742,-99.1633741
38,Calle Arkansas,03810,19.3915426,-99.1746948
647,José Antonio Torres,06850,19.4078532,-99.1337111
505,Avenida Miguel Ángel de Quevedo,04310,19.3451242,-99.1695675
427,Avenida Miguel Ángel de Quevedo,04310,19.3452479,-99.1709608
477,Avenida Miguel Ángel de Quevedo,04310,19.3452477,-99.1705836
499,Avenida Miguel Ángel de Quevedo,04310,19.3451559,-99.1698111
483,Avenida Miguel Ángel de Quevedo,04310,19.3452259,-99.1704131
503,Avenida Miguel Ángel de Quevedo,04310,19.3451395,-99.1696538
531,Avenida Miguel Ángel de Quevedo,04310,19.3448225,-99.1687010
559,Avenida Miguel Ángel de Quevedo,04310,19.3448799,-99.1676777
287,Miguel Ángel de Quevedo,04310,19.3460119,-99.1772030
209,Avenida Miguel Ángel de Quevedo,04310,19.3465090,-99.1798190
217,Avenida Miguel Ángel de Quevedo,04310,19.3464841,-99.1794514
196,Colima,06700,19.4195773,-99.1610933
194,Colima,06700,19.4195529,-99.1609089
12,Avenida Vito Alessio Robles,01030,19.3516390,-99.1859681
19,Avenida Cuauhtémoc,06700,19.4252513,-99.1548317
1311,Angel Urraza,03100,19.3809081,-99.1589314
201,Miguel Ángel de Quevedo,04310,19.3463063,-99.1804168
1030,Eje Central,03630,19.3786986,-99.1480685
574,Eje Central Lázaro Cárdenas,03400,19.3948343,-99.1459521
1149,Calzada de Tlalpan,03660,19.3757354,-99.1409670
1107,Heriberto Frias,03100,19.3816775,-99.1625852
3651,Avenida División del Norte,04600,19.3205974,-99.1391167
249,Avenida Pacífico,04330,19.3398417,-99.1525332
69,Calz. Chabacano,06850,19.4085750,-99.1314690
20,Calle Antonio M. Anza,06700,19.4115123,-99.1557310
20,Antonio M. Anza,06700,19.4113450,-99.1554500
217,Calle Frontera,06700,19.4141271,-99.1548313
38,Montecitos,03810,19.3944515,-99.1729552
697,Avenida Universidad,03100,19.3758521,-99.1618740
1507,Avenida Homero,11560,19.4363138,-99.2033022
9,Cerrada de Bezares,11910,19.3873357,-99.2434769
81,Avenida Mazatlán,06140,19.4144162,-99.1772819
343,Avenida Miguel Othón de Mendizábal,07700,19.5065647,-99.1439226
2360,Calz. de Tlalpan,04450,19.3356484,-99.1403336
520,"Yácatas,Sta.Cruz Atoyac",03310,19.3641845,-99.1608448
1431,Avenida Insurgentes Sur,03900,19.3697982,-99.1805126
836,Insurgentes Sur,03100,19.3887302,-99.1738819
112,Concepción Beistigui,03100,19.3887026,-99.1729839
9,Josefa Ortiz de Domínguez,04100,19.3582285,-99.1704583
541,Pilares,03100,19.3749909,-99.1633191
810,Félix Cuevas,03100,19.3715868,-99.1674813
1244,José Enrique Pestalozzi,03100,19.3778051,-99.1615633
1244,José Enrique Pestalozzi,03100,19.3777345,-99.1615810
707,Avenida Universidad,03100,19.3753652,-99.1621427
833,Avenida Universidad,03100,19.3719469,-99.1643616
1238,José Enrique Pestalozzi,03100,19.3779779,-99.1615348
541,Pilares,03100,19.3751123,-99.1632835
1114,Matías Romero,03100,19.3796051,-99.1619776
797,Avenida Universidad,03100,19.3726512,-99.1638376
1955,Coyoacán,03340,19.3598799,-99.1712970
175,Calle Malintzin,04100,19.3521103,-99.1634344
14,Aguayo,04000,19.3509980,-99.1628144
389,México Coyoacán,03330,19.3611472,-99.1646104
820 B,Avenida Paseo de las Palmas,11000,19.4282253,-99.2171471
800,Gabriel Mancera,03100,19.3839500,-99.1652705
703,Coyoacán,03100,19.3872452,-99.1672630
21,Torres Adalid,03100,19.3923639,-99.1718678
1925,Avenida Coyoacán,03100,19.3606310,-99.1717036
1827,Avenida Coyoacán,03100,19.3634919,-99.1731286
675,Insurgentes Sur,03810,19.3948726,-99.1724681
51,Tenesse,03810,19.3860600,-99.1761947
1295,Av STIM,05129,19.3915423,-99.2597379
1775,Avenida Revolución,01000,19.3436762,-99.1906791
6,Calle Felipe Carillo Puerto,04000,19.3484987,-99.1632302
23,Calle Río Balsas,06500,19.4336022,-99.1680604
16,Calle Fernández Leal,04020,19.3495809,-99.1579157
106,Calle Presidente Venustiano Carranza,04000,19.3474414,-99.1634640
100,Venustiano Carranza,04000,19.3472369,-99.1631419
336,Miguel Laurent,03100,19.3763025,-99.1686900
12,Calle Aguayo,04100,19.3507578,-99.1627988
149,Calle Liverpool,06600,19.4241634,-99.1647086
242-B,Calle Omega,04310,19.3413454,-99.1712154
242-B,Calle Omega,04310,19.3413656,-99.1713602
Iztacalco,Plan de Ayala 327,08210,19.3997047,-99.1248161
519,Calzada del Hueso,14300,19.3032089,-99.1242509
7,Del Rosal,04330,19.3340078,-99.1534811
7,Del Rosal,04330,19.3339728,-99.1534862
431,Calzada de Guadalupe,07840,19.4715027,-99.1186753
70,Calle Acerina,07810,19.4773025,-99.1198156
512,Calzada de Guadalupe,07800,19.4745693,-99.1214269
84,Avenida Yucatán,06700,19.4140824,-99.1625995
63,Isabel La Católica,06000,19.4299193,-99.1369075
528,Calzada de La Viga,08300,19.4005881,-99.1244494
539,Avenida Ejército Nacional,11520,19.4382022,-99.1919523
1052,Avenida Universidad,03330,19.3657120,-99.1676327
1728,Calzada de Tlalpan,04220,19.3540817,-99.1444713
126,Cerro de Jesús,04200,19.3446744,-99.1358462
482,Santa Fe,04349,19.3593298,-99.2702958
325,Prado Norte,11000,19.4282957,-99.2084039
4690,Periférico Sur,04500,19.3041656,-99.1880354
4690,Periférico Sur,04500,19.3044580,-99.1919322
51,Isabel la Catolica,06010,19.4311749,-99.1368205
722,Calle Adolfo Prieto,03100,19.3906048,-99.1678376
15,Calle Doctor Olvera,06720,19.4153733,-99.1441010
161,Calle Ignacio Allende,04100,19.3555968,-99.1625813
1312,División del Norte,03600,19.3759394,-99.1580835
3800,Prolongación Vasco de Quiroga,01509,19.3626895,-99.2708972
3800,Prolongación Vasco de Quiroga,05109,19.3613681,-99.2744816
307,Estaño Col.Felipe Angeles,15300,19.4520667,-99.1130365
3417,Calzada Ermita Iztapalapa,09640,19.3476166,-99.0177718
201,Francisco de P Miranda,01480,19.3684254,-99.1921341
126,Avenida Michoacán,06170,19.4113169,-99.1764771
105,Calle Atlixco,06170,19.4113384,-99.1754832
41,Calle Vincente Suárez,06140,19.4116925,-99.1753989
111,Avenida México,06100,19.4101803,-99.1699683
373,Avenida Insurgentes Sur,06760,19.4104957,-99.1672396
202,Avenida Tamaulipas,06170,19.4073267,-99.1774222
42,Calle Fernando Montes de Oca,06140,19.4128517,-99.1746689
7,Calle Andrés de la Concha,03900,19.3685456,-99.1869310
2,Calzada de Los Misterios,06250,19.4620875,-99.1271536
37,Ricardo Castro,06220,19.4608597,-99.1302484
389,Avenida México-Coyoacán,03330,19.3602750,-99.1633963
125,Avenida Benjamín Franklin,06100,19.4057399,-99.1771748
19,Cuauhtémoc,06700,19.4248339,-99.1544457
70,Avenida Morelos,06600,19.4325663,-99.1516388
187,Calzada General Pedro Anaya,04120,19.3546137,-99.1497162
3,Calle Castor,04810,19.3230080,-99.1345445
315,Campeche,06100,19.4086388,-99.1722648
704,Homero,11550,19.4355121,-99.1924985
18,Calle Fernando Montes de Oca,06100,19.4121385,-99.1731389
61,Avenida Tamaulipas,06100,19.4122802,-99.1734712
55,Avenida Tamaulipas,06100,19.4124825,-99.1732945
36,Avenida Tamaulipas,06100,19.4131479,-99.1722223
45,Avenida Tamaulipas,06100,19.4129688,-99.1728545
56,Avenida Tamaulipas,06100,19.4123566,-99.1730154
30,Avenida Tamaulipas,06100,19.4132572,-99.1721363
37,Avenida Tamaulipas,06140,19.4133234,-99.1725591
36,Avenida Tamaulipas,06100,19.4126855,-99.1726828
6,Calle Fernando Montes de Oca,06100,19.4118052,-99.1725219
63,Avenida Tamaulipas,06100,19.4121644,-99.1736002
32,Calle Atlixco,06100,19.4104089,-99.1757031
32,Calle Atlixco,06100,19.4105151,-99.1756977
35,Calle 20 de Agosto,04120,19.3539140,-99.1462551
46,Eje Central Lázaro Cárdenas,06010,19.4310659,-99.1411393
74,Calle Valladolid,06700,19.4190448,-99.1678789
62,Calle San Luis Potosí,06700,19.4144325,-99.1573995
210,Doctor Balmis,06720,19.4148746,-99.1531710
37,San Luis Potosi,06700,19.4156342,-99.1566867
31,Eje 2 Sur (Querétaro),06700,19.4155350,-99.1559949
211,Calle San Luis Potosí,06700,19.4130835,-99.1654004
4,Toluca,06760,19.4072159,-99.1568864
1401,Heriberto Frías,03100,19.3748106,-99.1640997
41,"Del Carmen, Col. Centro",06020,19.4376440,-99.1294928
731,Avenida Azcapotzalco,02000,19.4841167,-99.1856214
18,Calle Moctezuma,04000,19.3454707,-99.1678551
14,Tolnáhuac,06920,19.4598832,-99.1412798
780,"Calz. Ermita Iztapalapa, Col. Granjas San Antonio",09070,19.3565253,-99.1076907
619,"Avenida Luís Cabrera, Col. San Jerónimo Lídice",10200,19.3194192,-99.2390186
25,Calle Arquitecto Carlos Lazo,11870,19.4025750,-99.1909825
371,Calzada Legaria,11260,19.4506799,-99.2032965
189,Oriente 158 Col. Moctezuma 2a Seccion,15530,19.4327232,-99.0981339
S/N,Calz Nativitasy 16 de Septiembre Col. Barrio Xaltocan,16090,19.2542119,-99.1047945
16,Calle Doctor Gálvez,01001,19.3439937,-99.1909228
1431,San Jeronimo,10200,19.3208706,-99.2318798
45,Calle Lago Atter,11410,19.4537054,-99.1943652
20,Calle Álvaro Obregón,10580,19.3048581,-99.2414759
36,Calle Ignacio Allende,04000,19.3503329,-99.1620971
25,Avenida México,04000,19.3523831,-99.1652290
245,Calle Lago Zurich,11529,19.4415451,-99.2041060
5,Corregidora,06000,19.4313341,-99.1309816
431,Calle Lago Alberto,11320,19.4386991,-99.1818831
253,Taine,11570,19.4333532,-99.1849684
18,Esteban Chavero,13200,19.2896153,-99.0143460
47,Calle Santiago Rebull,03900,19.3702334,-99.1907072
386,Contreras,10200,19.3215421,-99.2207183
1983,Calzada de Tlalpan,04040,19.3455142,-99.1451247
69,Juan Salvador Agraz,01219,19.3589552,-99.2784897
1458,Avenida Insurgentes Sur,03230,19.3687660,-99.1804880
576,Calz. Ignacio Zaragoza,15730,19.4141212,-99.0852234
4,Edimburgo,03100,19.3869240,-99.1636016
6,Jardín Santa Catarina,04010,19.3496794,-99.1712102
9A,Avenida Francisco Sosa,04100,19.3493313,-99.1645351
12,Plaza Jardín Centenario,04000,19.3488715,-99.1636866
380,Blv. Miguel de Cervantes,11500,19.4400553,-99.2054214
353,Avenida Moliere,11560,19.4381334,-99.2007707
75-203,Av Roque Velasco Ceron,01150,19.3896939,-99.2027453
131,Pilares,03100,19.3785797,-99.1695428
131,Pilares,03100,19.3785693,-99.1694715
251-705,LINDAVISTA,07300,19.4940692,-99.1273525
46,Mar de los Néctares,04890,19.3151733,-99.1308037
4456,Calzada de Tlalpan,14050,19.2954697,-99.1545323
103,Victoria,07800,19.4750736,-99.1263912
3000,Avenida Universidad,04510,19.3301813,-99.1901616
60,Avenida Cuauhtémoc,06720,19.4234622,-99.1536490
170,Loma Bonita,05100,19.3808629,-99.2741834
2,Rafael Checa,01000,19.3442985,-99.1898226
148,Avenida Tamaulipas,06140,19.4090689,-99.1758132
635,Avenida Insurgentes Sur,03810,19.3960739,-99.1720085
Guanajuato,"239 Col, Roma Norte",06700,19.4159086,-99.1648832
3432-B,Lateral Autopista México-Cuernavaca,14630,19.2716445,-99.1635814
43,Tres Picos,11550,19.4288900,-99.1882290
28,Dr. Francisco Cabrera,13200,19.3017752,-99.0639400
"2600,Colonia Ex Hacienda de San Antonio Coapa",Avenida Canal de Miramontes,04830,19.3224823,-99.1333434
16,Francisco I Madero,14000,19.2892782,-99.1663387
3,Avenida 16 de Septiembre,02000,19.4786314,-99.1868282
679,Avenida Aquiles Serdán,02000,19.4842332,-99.1882740
7,Calle Zapotecos,06800,19.4220039,-99.1385395
15,Manzanillo,06760,19.4115494,-99.1662347
137,República de El Salvador,06060,19.4287764,-99.1312007
5,Calle Bahía Magdalena,11300,19.4368101,-99.1783398
21,Calle Jean M. Nattier,03730,19.3784733,-99.1826063
107,Avenida Emilio Castelar,11550,19.4302864,-99.1969769
69,Calle Río Sena,06500,19.4303961,-99.1662899
86,Calle Río Lerma,06500,19.4299105,-99.1655898
2639,Avenida División del Norte,04100,19.3516126,-99.1515845
397,Paseo de la Reforma,06500,19.4259729,-99.1709652
71,Río Nilo,06500,19.4272359,-99.1712571
170,Río Pánuco,06500,19.4284272,-99.1718987
88,Calle Río Sena,06500,19.4296327,-99.1656224
16 y 18,República de Uruguay,06000,19.4310996,-99.1401223
136,Calz. de la Viga,01364,19.4158438,-99.1276014
369,Lago Alberto,11320,19.4386583,-99.1807737
131,Prolongación Canal de Miramontes,14378,19.2858511,-99.1325359
89,Calle Atlixco,06140,19.4120932,-99.1750153
101,Juan Salvador Agraz,05310,19.3589946,-99.2785178
223,Avenida Campos Elíseos,11560,19.4279026,-99.1941828
426,Cerrada Maguey,05200,19.3617759,-99.2893635
681 Int 3,Pensador Mexicano,15510,19.4237852,-99.0735141
1100,Calzada del Hueso,04960,19.3013470,-99.1021484
1100,Calzada del Hueso,04960,19.3000555,-99.1028842
1100,Calzada del Hueso,04960,19.3014594,-99.1022572
1100,Calzada del Hueso,04960,19.3040842,-99.1020263
19,San Marcos,06060,19.4331159,-99.1252471
4411,Calzada Insurgentes Sur,14430,19.2804080,-99.1708187
4411,Calzada Insurgentes Sur,14430,19.2786364,-99.1722564
5844,Calzada San Pablo,16030,19.2647347,-99.1261520
453,Avenida Patriotismo,03800,19.3878383,-99.1822862
179,Calle Parroquia,03100,19.3712393,-99.1788567
58,Avenida Ricardo Flores Magón,06300,19.4511586,-99.1423502
11,Avenida Ribera de San Cosme,06400,19.4404502,-99.1564871
62,Avenida Ribera de San Cosme,06470,19.4399406,-99.1566566
1007,Canarias,03300,19.3604092,-99.1482414
340 B,Horacio,11570,19.4327932,-99.1826564
314,Spencer,11570,19.4324189,-99.1819000
43,Río Nazas,06500,19.4326834,-99.1668992
48,Calle Benito Juárez,02090,19.4602349,-99.1824053
291,Venustiano Carranza,04010,19.3493544,-99.1699697
757,Avenida Universidad,03100,19.3739818,-99.1631460
540,Avenida Popocatépetl,03330,19.3658432,-99.1672000
918,Avenida Porfirio Diaz,03100,19.3824104,-99.1703706
673,Avenida Miguel Ángel de Quevedo,04320,19.3444032,-99.1635343
37-B,Tlaloc,11370,19.4421611,-99.1686718
74,Calle 21,15010,19.4148183,-99.0938068
767,Avenida Universidad,03100,19.3741470,-99.1628891
789-6,Avenida Universidad,03100,19.3731656,-99.1634867
575,Avenida Universidad,03020,19.3808812,-99.1581801
1403,Angel Urraza,03100,19.3808770,-99.1584131
399,Avenida Universidad,03020,19.3857204,-99.1554386
358,Avenida Universidad,03020,19.3870500,-99.1541817
1000,Avenida Universidad,03310,19.3666875,-99.1655030
225,Avenida Querétaro,06700,19.4141237,-99.1645912
2375,Avenida Insurgentes Sur,01090,19.3417815,-99.1899395
117,Salvador Diaz Mirón,06400,19.4487963,-99.1579553
102,Monterrey,06700,19.4180728,-99.1641416
1048,Avenida México,10710,19.3115718,-99.2257983
1512,Avenida Canal de Tezontle,09020,19.3841182,-99.0829431
1512,Avenida Canal de Tezontle,09020,19.3848328,-99.0820112
239,Guillermo Massieu H.,07320,19.5117052,-99.1387354
239,Guillermo Massieu H.,07320,19.5112721,-99.1382679
239,Guillermo Massieu H.,07320,19.5132523,-99.1382437
97,Juan Salvador Agraz,05310,19.3581639,-99.2781398
9A,Forestal,14370,19.2922209,-99.1461325
24B,Calle Seminario,01780,19.3388509,-99.2199183
261,Puebla,06700,19.4215688,-99.1680372
315,Calle Torcuato Tasso,11570,19.4324134,-99.1835485
18,Calle Minnesota,03810,19.3940435,-99.1761699
52,Avenida Presidente Masaryk,11550,19.4311708,-99.1833261
313,Calle Torcuato Tasso,11570,19.4326483,-99.1832856
430,Calzada Acoxpa,14300,19.3001826,-99.1362924
480,Avenida Patriotismo,03800,19.3872333,-99.1828270
733,Avenida Miguel Ángel de Quevedo,04320,19.3440670,-99.1614826
733,Avenida Miguel Ángel de Quevedo,04320,19.3440536,-99.1614708
866,San Valentín,04600,19.3117686,-99.1615574
767,Avenida Universidad,03100,19.3739179,-99.1633186
326,Schiller,11570,19.4322883,-99.1865382
339,Campos Elíseos,11560,19.4281658,-99.1995371
124,Avenida Paseo de la Reforma,06600,19.4317420,-99.1567886
158,Calle Sabino,06400,19.4509428,-99.1597340
175,Calle Sabino,06400,19.4500096,-99.1596482
195,Calle Sabino,06400,19.4508163,-99.1594926
132,Manuel Carpio,06400,19.4507704,-99.1586772
53,Salvador Diaz Mirón,06400,19.4492600,-99.1595515
137,Manuel Carpio,06400,19.4510835,-99.1590393
123,Manuel Carpio,06400,19.4508340,-99.1576115
152,Jaime Torres Bodet,06400,19.4491015,-99.1578261
188,Cedro,06400,19.4494180,-99.1622700
184,Cedro,06400,19.4492309,-99.1623236
177,Cedro,06400,19.4493494,-99.1619996
156,Salvador Diaz Mirón,06400,19.4490292,-99.1594698
148,Jaime Torres Bodet,06400,19.4486340,-99.1578805
148,Jaime Torres Bodet,06400,19.4485328,-99.1579060
300,Lic. Lazaro Pavia,15900,19.4169090,-99.1152550
292,Lic. Lazaro Pavia,15900,19.4172536,-99.1151598
22,Luis Lara Pardo,15900,19.4171011,-99.1127296
635,Lorenzo Boturini,15900,19.4166015,-99.1151629
151,Jaime Torres Bodet,06400,19.4485047,-99.1576087
104,Salvador Diaz Mirón,06400,19.4486867,-99.1574532
128,Santa María Ribera,06400,19.4475309,-99.1573861
111c,Santa María Ribera,06400,19.4467970,-99.1572231
298,Ret. 8 de L. Pavia,15900,19.4152063,-99.1154498
96,Salvador Diaz Mirón,06400,19.4485274,-99.1567531
313,calle 8,15900,19.4153518,-99.1154888
111,Santa María Ribera,06400,19.4468058,-99.1572712
111,Santa María Ribera,06400,19.4466090,-99.1573056
97,Santa María Ribera,06400,19.4461420,-99.1573928
112,Santa María Ribera,06400,19.4467709,-99.1575028
91,Santa Maria Ribera,06400,19.4457629,-99.1574532
110,Ret. 8 de L. Pavia,15900,19.4154332,-99.1147133
92,Eje 1 Nte.,06400,19.4469070,-99.1579660
112-E,Santa María Ribera,06400,19.4467299,-99.1572887
109,Jaime Torres Bodet,06400,19.4463067,-99.1580888
113,Jaime Torres Bodet,06400,19.4464712,-99.1580393
99,Naranjo,06400,19.4468434,-99.1593307
98,Naranjo,06400,19.4470702,-99.1592793
76,Naranjo,06400,19.4460087,-99.1595012
113,Cedro,06400,19.4467698,-99.1626252
104,Calle Sabino,06400,19.4464989,-99.1605439
111,Fresno,06400,19.4470616,-99.1612537
107,Cedro,06400,19.4465662,-99.1626863
10,Cedro,06400,19.4469359,-99.1621400
11,Mirto,06400,19.4483603,-99.1617759
208,Cedro,06400,19.4502299,-99.1621568
108,Tulipan,06400,19.4507197,-99.1621180
235,Cedro,06400,19.4512751,-99.1616902
1070,Constituyentes,11950,19.3949572,-99.2341835
69 B,Odontología,04360,19.3352459,-99.1806755
145,Avenida de la República,06020,19.4360024,-99.1518245
748,Calzada General Mariano Escobedo,11590,19.4254609,-99.1784768
79,Calle Agricultura,11800,19.4009714,-99.1775715
146,Benjamin Franklin,11800,19.4051408,-99.1767773
46,Avenida Patriotismo,11800,19.4041597,-99.1783094
21,Juan Escutia,06100,19.4139892,-99.1727342
1293,Universidad,03240,19.3600514,-99.1718070
5052,Calzada de Tlalpan,14090,19.2799654,-99.1662160
5062,Calzada de Tlalpan,14090,19.2797300,-99.1664426
7ma,México 1968,04700,19.3030732,-99.1678758
7ma,México 1968,04700,19.3035061,-99.1681440
57,Calle República de Perú,06010,19.4394488,-99.1361916
9,Calle Liverpool,06600,19.4280160,-99.1565630
707,Paseo de la Reforma Norte,06200,19.4516367,-99.1314726
12,Calle Alfareria,15270,19.4463499,-99.1242316
1,Privada Río Churubusco,08100,19.4120764,-99.0729628
39,Huatusco,06760,19.4012056,-99.1695809
155,Calle Atlixco,06170,19.4093834,-99.1764986
147,Calle Beethoven,06220,19.4616147,-99.1365222
148,Calzada de Guadalupe,06220,19.4599811,-99.1271042
2,Melesio Morales,06220,19.4594717,-99.1320304
67,Lazaro Cardenas,06020,19.4607112,-99.1374400
228,Lázaro Cárdenas,06300,19.4497185,-99.1386864
61,Lazaro Cardenas,06220,19.4603164,-99.1375139
836,Calzada de Tlalpan,03530,19.3889861,-99.1384367
953-117,Avenida Insurgentes Sur,03810,19.3844635,-99.1757119
36,20 de Noviembre,06060,19.4308158,-99.1334262
605,Amores,03100,19.3899337,-99.1650643
489,Cuauhtémoc,03020,19.4007013,-99.1558706
77,Paseo de la Reforma,06030,19.4337542,-99.1550611
368,Manuel Gonzalez,06900,19.4551634,-99.1468054
1332,Calzada de la Viga,09430,19.3750635,-99.1219749
583,Río Churubusco,09060,19.3685326,-99.1210248
583,Avenida Río Churubusco,09060,19.3686768,-99.1210447
1220,San Francisco,03100,19.3841122,-99.1749033
954,San Francisco,03100,19.3845729,-99.1749249
455,Avenida Insurgentes Sur,06170,19.4057614,-99.1688204
93,Calle Julio Verne,11550,19.4308871,-99.1960677
1513,Homero,11560,19.4364288,-99.2053662
232,Calle Alfonso Reyes,06100,19.4069519,-99.1730167
32bis,Dante,11590,19.4256275,-99.1776932
21,Tolstoi,11590,19.4252792,-99.1777664
54,Leibnitz,11590,19.4269248,-99.1775802
55,Leibnitz,11590,19.4271424,-99.1773978
5,Villahemosa,06100,19.4056059,-99.1700994
74,Culiacán,06100,19.4054535,-99.1704942
3591,Calzada de Tlalpan,04650,19.3017671,-99.1481619
375,Calle Tonalá,06760,19.4039309,-99.1590147
33,Calle Centenario,04100,19.3514814,-99.1636498
824,División del Norte,03020,19.3874438,-99.1615080
51,Hidalgo,06300,19.4385917,-99.1516556
60,Cozumel,06700,19.4181617,-99.1705645
439,Cuauhtémoc,03000,19.4032105,-99.1556427
92,Avenida Chapultepec,06700,19.4255375,-99.1541008
66,Avenida Tamaulipas,06100,19.4118603,-99.1734435
275,Avenida Álvaro Obregón,06700,19.4168161,-99.1680575
15,Calle República de Argentina,06020,19.4357703,-99.1314225
1812,"Avenida Insurgentes Norte, Gustavo A.Madero ,Lindavista",07300,19.4870639,-99.1249373
199,Calle Frontera,06700,19.4151261,-99.1549956
143,San Luis Potosí,06700,19.4139311,-99.1612587
423,Avenida Paseo de la Reforma,06500,19.4258794,-99.1715780
408,Avenida Paseo de la Reforma,06600,19.4250087,-99.1706938
55,Calle Medicina,04360,19.3350082,-99.1794746
15,Calzada de Tlalpan,03500,19.3800550,-99.1398293
71,James Sullivan,06470,19.4343099,-99.1626229
6,Circular de Morelia,06700,19.4247462,-99.1558188
S/N,Marco Polo,01280,19.3819062,-99.2172161
S/N,Cedros,01520,19.3815366,-99.2175232
104,Avenida Monterrey,06700,19.4176504,-99.1640903
239,Guillermo Massieu H.,07320,19.5119866,-99.1384244
17,Hidalgo,06300,19.4381714,-99.1498419
12,Donceles,06000,19.4369258,-99.1398315
12,Donceles,06000,19.4369059,-99.1397219
42,Donceles,06000,19.4364573,-99.1368351
49,Donceles,06000,19.4364448,-99.1364776
59,Donceles,06000,19.4361145,-99.1355373
75,Donceles,06000,19.4359981,-99.1345482
74,Donceles,06000,19.4361696,-99.1345254
75,Donceles,06000,19.4359732,-99.1344524
79,Donceles,06000,19.4359748,-99.1343915
78,Donceles,06000,19.4361422,-99.1343031
78,Donceles,06000,19.4361282,-99.1342284
78,Calle Donceles,06000,19.4361254,-99.1341973
53,Miguel Lerdo de Tejada,08930,19.3841360,-99.1201381
107,Donceles,06010,19.4356373,-99.1320270
81,Calle Texas,03810,19.3922626,-99.1791165
795,Avenida de los 100 Metros,07700,19.5001227,-99.1483838
L.5 Mz.2,Cecilio Garza Gonzalez,09230,19.3753992,-99.0345075
295,Avenida Baja California,06100,19.4060569,-99.1720845
20,Sur 116,01120,19.4023418,-99.1985045
mz 595 lt 20,San Felipe,04600,19.3154025,-99.1472951
131,Pirineos,03300,19.3625939,-99.1493802
120,Calle General Guadalupe VIctoria,07070,19.4866402,-99.1078390
89,Pedro Negrete,07070,19.4859493,-99.1090324
109,Uryguay,06060,19.4281618,-99.1328083
127,Calle Maestro Antonio Caso,07470,19.4353706,-99.1639197
76,Manuel Ávila Camacho,11000,19.4306183,-99.2075572
73,Francisco I. Madero,06000,19.4329416,-99.1343420
818,Lázaro Cárdenas,03020,19.3860207,-99.1469965
102,Frontera,06700,19.4201423,-99.1560414
1425,Avenida Revolución,01040,19.3557369,-99.1902217
405,Paseo de las Palmas,11000,19.4302878,-99.2114301
38,Calle Jesús de Terán,06030,19.4360081,-99.1508898
43,Calle Fernández Leal,04020,19.3485618,-99.1585324
"col,Buenavista","Forum Buenavista , Centro Comercial , eje norte 259 Pb-2,Cuauhtémoc eje 1 norte",06350,19.4478357,-99.1523967
68;44,Bahia Santa Barbara,11300,19.4375805,-99.1765576
1905,División del Norte,03310,19.3679879,-99.1562514
54-56,Bolivar,06000,19.4304140,-99.1387269
70-72,Belisario Dominguez,06010,19.4379877,-99.1349825
155,Campeche,06760,19.4098165,-99.1652105
119,Calle Correspondencia,03400,19.3925134,-99.1431182
200,Aguascalientes,06100,19.4073616,-99.1713749
84,Calle Salvador Díaz Mirón,06400,19.4484685,-99.1560888
49,Bahia Santa Barbara,11300,19.4372925,-99.1766263
15,Calle Virgilio,11560,19.4308061,-99.1969118
360,Avenida Presidente Masaryk,11560,19.4315659,-99.1967702
3,Avenida Ribera de San Cosme,06470,19.4396977,-99.1560242
111,Avenida Emilio Castelar,11560,19.4300685,-99.1972933
121,Avenida Emilio Castelar,11560,19.4300888,-99.1974100
71 f,Anatole France,11560,19.4300900,-99.1977346
907,avenida horacio,11550,19.4307490,-99.2002987
135,Avenida Emilio Castelar,11560,19.4303234,-99.1984155
151,Avenida Emilio Castelar,11560,19.4303721,-99.1991374
163,Avenida Emilio Castelar,11560,19.4304388,-99.1995330
171,Avenida Emilio Castelar,11560,19.4305046,-99.1999004
213,Avenida Emilio Castelar,11550,19.4315299,-99.2011497
460,Avenida Presidente Masaryk,11550,19.4319304,-99.2015622
53,Calle Oliver Goldsmith,11540,19.4309943,-99.2006032
291,Bolívar,06800,19.4158962,-99.1412026
111,Avenida Emilio Castelar,11560,19.4300796,-99.1971996
121,Avenida Emilio Castelar,11560,19.4300568,-99.1975147
121 H,Avenida Emilio Castelar,11560,19.4300644,-99.1976287
30,Calle Oscar Wilde,11560,19.4307359,-99.1974209
12,Calle Oscar Wilde,11560,19.4303325,-99.1972720
8 C,Calle Oscar Wilde,11560,19.4303957,-99.1972908
98,Calle Anatole France,11560,19.4313519,-99.1977990
100,Calle Anatole France,11560,19.4314505,-99.1977803
5,Arboledas,16100,19.2597631,-99.1321023
100,Camino a San pablo,16030,19.2620878,-99.1251233
18,Emiliano Zapata,16200,19.2494819,-99.1171140
744,Calzada de Guadalupe,07050,19.4832365,-99.1180033
84 C,Calle Julio Verne,11550,19.4301678,-99.1969341
90,Calle Julio Verne,11550,19.4304095,-99.1967299
25,Calle Virgilio,11550,19.4307831,-99.1967529
29,Calle Oscar Wilde,11550,19.4311473,-99.1973001
60,Luis G. Urbina,11560,19.4290365,-99.1969219
31,Calle Julio Verne,11560,19.4282852,-99.1970533
42,Julio Verne,11560,19.4285774,-99.1973859
28,Julio Verne,11560,19.4280580,-99.1974473
30,Julio Verne,11560,19.4281819,-99.1974277
460,Avenida Presidente Masaryk,11560,19.4319095,-99.2012933
97,Lafontaine,11560,19.4316102,-99.1981503
21,Primera Ignacio Allende,11289,19.4536312,-99.1997445
97,Calderón de la Barca,11540,19.4317152,-99.1989832
408,Avenida Presidente Masaryk,11560,19.4317025,-99.1987310
402,Avenida Presidente Masaryk,11560,19.4316899,-99.1986050
97,Calderón de la Barca,11540,19.4317076,-99.1988584
420 A,Avenida Presidente Masaryk,11560,19.4317393,-99.1993039
420 A,Avenida Presidente Masaryk,11560,19.4317492,-99.1993933
77,Calle Edgar Allan Poe,11560,19.4321464,-99.1997181
431,Avenida Presidente Masaryk,11560,19.4321628,-99.1999944
438,Avenida Presidente Masaryk,11560,19.4318341,-99.2005160
436,Avenida Presidente Masaryk,11560,19.4318334,-99.2004195
422,Avenida Presidente Masaryk,11560,19.4317603,-99.1994928
108,Calle Pedro Calderón de la Barca,11550,19.4321565,-99.1991884
426,Avenida Presidente Masaryk,11560,19.4317873,-99.1997344
422,Avenida Presidente Masaryk,11560,19.4317739,-99.1996149
108,Calle Pedro Calderón de la Barca,11560,19.4320971,-99.1992071
419,Avenida Presidente Masaryk,11550,19.4321022,-99.1993171
421,Avenida Presidente Masaryk,11550,19.4321198,-99.1994687
430,Avenida Presidente Masaryk,11560,19.4318037,-99.2000775
440,Avenida Presidente Masaryk,11560,19.4318634,-99.2007716
440,Avenida Presidente Masaryk,11560,19.4318660,-99.2008358
440,Avenida Presidente Masaryk,11560,19.4318704,-99.2008998
440,Avenida Presidente Masaryk,11560,19.4318734,-99.2009500
450,Avenida Presidente Masaryk,11560,19.4318750,-99.2009847
450,Avenida Presidente Masaryk,11560,19.4318809,-99.2010409
454,Avenida Presidente Masaryk,11560,19.4318921,-99.2011561
473,Avenida Presidente Masaryk,11550,19.4323968,-99.2021254
212,Avenida Cicerón,11560,19.4333214,-99.2026980
216,Avenida Cicerón,11560,19.4334301,-99.2032036
310,Avenida Cicerón,11560,19.4334744,-99.2037897
322,Calle Sófocles,11560,19.4340612,-99.2047150
406,Avenida Cicerón,11560,19.4336249,-99.2042175
414,Avenida Cicerón,11560,19.4337083,-99.2046976
515,Avenida Presidente Masaryk,11560,19.4325316,-99.2040190
321,Avenida Presidente Masaryk,11560,19.4324505,-99.2035006
499,Avenida Presidente Masaryk,11550,19.4324215,-99.2032519
349,Calle Lucio Anneo Séneca,11560,19.4324064,-99.2026578
21,Calle Aristóteles,11560,19.4287507,-99.1937649
215 A,Avenida Campos Elíseos,11560,19.4281600,-99.1932453
109,Calle Anatole France,11550,19.4319826,-99.1973998
393,Avenida Presidente Masaryk,11560,19.4319917,-99.1980037
393,Avenida Presidente Masaryk,11550,19.4319907,-99.1980542
389,Avenida Presidente Masaryk,11550,19.4319788,-99.1978920
393,Avenida Presidente Masaryk,11560,19.4319874,-99.1982174
114,Calle Anatole France,11550,19.4319750,-99.1977324
393,Avenida Presidente Masaryk,11560,19.4319891,-99.1981342
393,Avenida Presidente Masaryk,11550,19.4319882,-99.1981784
431,Avenida Presidente Masaryk,11560,19.4321692,-99.2000963
433,Avenida Presidente Masaryk,11560,19.4321844,-99.2003457
433,Avenida Presidente Masaryk,11560,19.4321806,-99.2002170
601,Azores,03300,19.3671231,-99.1548259
290,Campos Elíseos,11560,19.4267757,-99.1970580
290,Campos Elíseos,11560,19.4268099,-99.1969547
306,Calle Sócrates,11560,19.4345607,-99.2039506
311,Calle Sócrates,11560,19.4345796,-99.2040900
315,Calle Sócrates,11560,19.4339523,-99.2041329
318,Calle Sócrates,11560,19.4339296,-99.2039586
303,Calle Platón,11560,19.4344531,-99.2034409
304,Calle Platón,11560,19.4344279,-99.2031459
317,Calle Platón,11560,19.4338259,-99.2034838
320,Calle Platón,11560,19.4338006,-99.2031888
332,Calle Sócrates,11560,19.4334174,-99.2039626
337,Calle Sócrates,11560,19.4334528,-99.2041986
347,Calle Sócrates,11560,19.4326282,-99.2043113
348,Calle Sócrates,11560,19.4326434,-99.2040189
919,Avenida Cuauhtémoc,03570,19.3855120,-99.1575783
168,Manuel Ávila Camacho,11650,19.4342749,-99.2115339
35,Las Flores,04330,19.3394957,-99.1563436
129,Real de los Reyes,04330,19.3407164,-99.1559726
5,Las Flores,04330,19.3404835,-99.1560477
867,Avenida Miguel Ángel de Quevedo,04040,19.3433027,-99.1566384
89,Benito Juárez,03560,19.3708095,-99.1382487
160,Calle Sierra Santa Rosa,11650,19.4306198,-99.2184093
186,Calle Sierra Santa Rosa,11650,19.4302940,-99.2194462
32,Palma,06000,19.4325815,-99.1352045
101-Bis,Independencia,06010,19.4338782,-99.1473339
85,Calle Alejandro Dumas,11550,19.4307209,-99.1957789
58,16 de Septiembre,06000,19.4323884,-99.1368619
24,Lázaro Cárdenas,06000,19.4321339,-99.1409869
76,Avenida Juárez,06010,19.4348419,-99.1471807
501,Cicerón,11560,19.4341068,-99.2049886
504,Avenida Cicerón,11560,19.4337375,-99.2049725
512,Avenida Cicerón,11560,19.4338209,-99.2054526
515,Cicerón,11560,19.4341902,-99.2054687
327,Platón,11560,19.4333643,-99.2034504
330,Calle Lucio Anneo Séneca,11560,19.4332152,-99.2024124
335,Calle Lucio Anneo Séneca,11560,19.4332252,-99.2026055
340,Platón,11560,19.4333240,-99.2032251
343,Platón,11560,19.4325955,-99.2034933
352,Platón,11560,19.4325145,-99.2032573
352,Calle Lucio Anneo Séneca,11560,19.4323906,-99.2024446
331,Calle Sófocles,11560,19.4336072,-99.2049149
355,Calle Sófocles,11560,19.4326157,-99.2049954
342,Calle Sófocles,11560,19.4335844,-99.2046949
360,Calle Sófocles,11560,19.4326030,-99.2047593
328,Calle Plinio,11560,19.4337109,-99.2054701
350,Calle Plinio,11560,19.4326587,-99.2055184
102,Avenida Moliere,11560,19.4325790,-99.2020114
80,Avenida Moliere,11560,19.4331721,-99.2019189
379,Avenida Presidente Masaryk,11550,19.4323539,-99.2024405
495,Avenida Presidente Masaryk,11550,19.4324550,-99.2030481
493,Avenida Presidente Masaryk,11550,19.4324146,-99.2029663
102,Calle Julio Verne,11550,19.4307334,-99.1965093
104,Calle Julio Verne,11550,19.4308447,-99.1964154
104 B,Calle Julio Verne,11550,19.4309003,-99.1963711
350,Avenida Presidente Masaryk,11550,19.4314821,-99.1959956
122,Alejandro Dumas,11550,19.4318729,-99.1960278
353,Avenida Presidente Masaryk,11550,19.4318628,-99.1963255
120,Avenida Luis Gonzaga Urbina,11560,19.4294366,-99.1996675
128,Avenida Luis Gonzaga Urbina,11560,19.4295188,-99.2000484
9,Calle Alfredo de Musset,11550,19.4323007,-99.1965397
3,Calle Alfredo de Musset,11550,19.4318771,-99.1965423
27,Calle Alfredo de Musset,11550,19.4326334,-99.1965115
930,Avenida Horacio,11540,19.4333315,-99.1968776
35,Calle Alfredo de Musset,11550,19.4329268,-99.1964726
41,Calle Alfredo de Musset,11550,19.4332550,-99.1963570
936,Avenida Horacio,11540,19.4334086,-99.1971070
5,Calle Aurora,04000,19.3481672,-99.1691467
202,Francisco Sosa,04010,19.3494110,-99.1710099
202,Francisco Sosa,04010,19.3487943,-99.1713298
1032,Avenida Horacio,11550,19.4338322,-99.1987733
1008,Avenida Horacio,11540,19.4337644,-99.1977494
1010,Avenida Horacio,11540,19.4338074,-99.1979827
1106,Avenida Horacio,11540,19.4338938,-99.1992642
1114,Avenida Horacio,11540,19.4338951,-99.1995729
1104,Avenida Horacio,11540,19.4338855,-99.1991585
1124,Avenida Horacio,11540,19.4339353,-99.2001180
1132,Avenida Horacio,11540,19.4339477,-99.2003749
1204,Avenida Horacio,11540,19.4339794,-99.2006418
1210,Avenida Horacio,11540,19.4340238,-99.2008882
1220,Avenida Horacio,11540,19.4340622,-99.2011494
1224,Avenida Horacio,11540,19.4341097,-99.2013239
81 C,Calle Vallarta,04000,19.3472606,-99.1597374
1213,Avenida Horacio,11540,19.4344820,-99.2010279
128,Avenida Moliere,11560,19.4338880,-99.2017981
1330,Avenida Horacio,11540,19.4343685,-99.2027932
5102,Avenida Congreso de la Unión,07860,19.4627664,-99.1130005
1425,Avenida Horacio,11540,19.4351256,-99.2043219
1429,Avenida Horacio,11550,19.4351876,-99.2044708
1433,Avenida Horacio,11540,19.4351825,-99.2046049
1430,Avenida Horacio,11540,19.4346931,-99.2045580
1520,Avenida Homero,11560,19.4360614,-99.2057974
1414,Avenida Horacio,11540,19.4345831,-99.2038197
1416,Avenida Horacio,11540,19.4345957,-99.2038934
1411,Avenida Horacio,11540,19.4349650,-99.2036990
228,Calle Sócrates,11540,19.4350485,-99.2039618
1120,Avenida Horacio,11540,19.4339133,-99.1999286
144,Oriente 168,15530,19.4289442,-99.0972697
827,Altamira,03580,19.3620249,-99.1409937
50,Calz. Ermita Iztapalapa,03580,19.3598755,-99.1409310
86,Rodolfo Gaona,11200,19.4515397,-99.2171648
139,Campos Eliseos,11560,19.4298563,-99.1901205
11,Ferrocarril de Cuernavaca,10900,19.2965890,-99.2337123
E14/Loc-42,Centro Urbano 2da Sección,04700,19.3071565,-99.1747352
506,Bélgica,03300,19.3669720,-99.1457217
151,Avenida México,04100,19.3548571,-99.1675320
400,Prolongación Paseo de la Reforma,01376,19.3767764,-99.2552785
12,Augusto Rodin,03730,19.3779901,-99.1826179
9A,Plaza Jardín Centenario,04000,19.3496803,-99.1635498
173,Calle Zacatecas,06700,19.4153360,-99.1622319
1140,Matías Romero,03100,19.3794240,-99.1615110
41,Calle Hamburgo,06600,19.4284000,-99.1604003
no 1,Mar Oriental,04890,19.3137634,-99.1326204
680,Calle Petén,03620,19.3738739,-99.1556192
1005 Bis,Sevilla,03300,19.3610475,-99.1530023
125,Cordoba,06700,19.4174149,-99.1584535
125,Cordoba,06700,19.4174468,-99.1584559
168,Avenida Michoacán,06140,19.4112277,-99.1790764
172,Avenida Michoacán,06170,19.4111894,-99.1793537
144,Avenida Mazatlán,06170,19.4110445,-99.1786182
148,Avenida Mazatlán,06140,19.4109493,-99.1787017
134,Avenida Michoacán,06170,19.4113080,-99.1773426
39,Avenida Tamaulipas,06100,19.4131299,-99.1726954
179,Río Lerma,06500,19.4280696,-99.1700605
1166 E,Matías Romero,03100,19.3792446,-99.1609005
1166 C,Matías Romero,03100,19.3792987,-99.1610552
1166 D,Matías Romero,03100,19.3792574,-99.1609635
322,Calle Campeche,06100,19.4085263,-99.1727702
100,Calle 2,08100,19.4086685,-99.0671809
90,Avenida Oaxaca,06700,19.4186793,-99.1672828
306,Amsterdam,06100,19.4141665,-99.1669880
309,Avenida Amsterdam,06140,19.4144142,-99.1665671
101 Lt6,Juan Salvador Agraz Colonia Desarrollo Santa Fe,05348,19.3579298,-99.2776971
447,Avenida Azcapotzalco,02070,19.4749597,-99.1870775
157,República de El Salvador,06090,19.4286004,-99.1298986
843,Av Ejercito Nacional,11529,19.4393668,-99.2035082
60,Santa Teresa,09210,19.3929747,-99.0519217
122,Avenida San Jerónimo,01090,19.3357705,-99.1957900
"3800 Lomas de Santa Fe ,Contadero","Centro comercial Santa Fe ,Av Vasco de Quiroga",01210,19.3613111,-99.2727795
192,Calzada de Guadalupe,07700,19.4653606,-99.1252692
3854,Calzada Ignacio Zaragoza,09100,19.3661139,-99.0059372
"170 Local B,Benito Juarez ,Plaza San Antonio,Mixcoac",Calle Miguel Ángel,03910,19.3845512,-99.1881981
"1623,Gustavo A.Madero 15 de agosto",Calle Eduardo Molina,07420,19.4865121,-99.0942118
557,Calzada de Guadalupe,07810,19.4768771,-99.1199974
183,Colima,06700,19.4198695,-99.1606800
679,Calzada de Guadalupe,07000,19.4806893,-99.1185182
156,Calle Simón Bolívar,06080,19.4236068,-99.1396628
"549 PB-21,Miguel Hidalgo,10de abril",Calzada Legaría,11250,19.4477385,-99.2065295
239,Paseo de las Palmas,11000,19.4305548,-99.2103656
"1341,Colonia Unidad Habitacional el Rosario",Avenida Aquiles Serdán,02430,19.5041488,-99.2058469
151 R1,Avenida del Iman,04700,19.3064516,-99.1648548
15,Havre,06600,19.4283026,-99.1623086
101,Orizaba,06720,19.4184876,-99.1599607
62,Calzada de los Misterios,07300,19.4908275,-99.1196347
83,Avenida Municipio Libre,09450,19.3667883,-99.1367189
462,Cuauhtémoc,03000,19.4030668,-99.1545733
630,Avenida San Jerónimo,10200,19.3294489,-99.2092667
"37 ,Cuauhtémoc,Buenavista",Avenida Puente de Alvarado,06350,19.4385996,-99.1510579
"24 Planta Baja , Álvaro Obregón ,Colonia San Ángel,San Ángel","Puerta Altavista,Av.Desierto de los Leones",01000,19.3495302,-99.1879380
3,Avenida Ribera de San Cosme,06400,19.4403264,-99.1559189
"1512,Dr.Alfonso Ortiz,Área Federal Central de Abastos","Centro comercial parque tenzontle,Av Canal de Tenzontle",09020,19.3853748,-99.0832295
"497 Delegación Gustavo ,A,Madero,Col.Nueva Industrial,Vallejo.",Avenida Miguel Othon de Mendizabal,07700,19.5068873,-99.1471053
819,Avenida San Jerónimo,10200,19.3299601,-99.2157244
1013,Calzada de Tlalpan,03610,19.3826035,-99.1400622
3375,Periférico Sur,14000,19.3075225,-99.2163191
"1886,Iztapalapa , Juan Escutia",Calz.Ignacio Zaragoza,09100,19.3887645,-99.0409312
"1072,Local sa-2, Colonia Nueva Rosita",Avenida Río Churubusco,09420,19.3791035,-99.1020519
400A - 24,Paseo de los Tamarindos,05120,19.3877205,-99.2509353
154,Palenque,03020,19.3929365,-99.1518444
807 intA,Tripoli,03300,19.3636084,-99.1545426
puerta 6a,Virgilio Uribe,1800,19.3177249,-99.1144621
345,Hidalgo,09360,19.3557946,-99.0798508
748,Calzada General Mariano Escobedo,11590,19.4254239,-99.1784898
384,Avenida Hidalgo,08500,19.3544330,-99.0750342
"Los morales , Polanco , CDMX","Corporativo Polanco Av.ejercito nacional Esq.Luis Vives ,Miguel Hidalgo",11510,19.4380696,-99.2095604
"200 Álvaro Obregón ,Zedec , Santa fe",Avenida Vasco de Quiroga,45620,19.3772786,-99.2546859
44,Milan,06600,19.4294393,-99.1569431
87,Río Ebro,06500,19.4287648,-99.1695130
89,Río Ebro,06500,19.4286965,-99.1694768
132,Calle Río Pánuco,06500,19.4295224,-99.1695854
130,Calle Río Pánuco,06500,19.4295831,-99.1694647
21,Ernesto Pugibet,06070,19.4298741,-99.1452394
207,Maestro Antonio Caso,06470,19.4365659,-99.1687808
45,Nayarit,06760,19.4097449,-99.1628468
777,Boulevard de la Luz,01900,19.3135169,-99.2114728
150,Río Danubio,06500,19.4297160,-99.1673000
212,Avenida Emilio Castelar,11550,19.4313111,-99.2013179
254,Fco. Petrarca,11570,19.4336326,-99.1854500
256,Colima,06700,19.4189148,-99.1640314
95,Calle General Prim,06600,19.4310120,-99.1563040
147,Avenida Tamaulipas,06170,19.4096331,-99.1758535
6,Agustín Melgar,06140,19.4179021,-99.1752714
280,Tehuantepec,06100,19.4033251,-99.1702658
5,Calle Amargura,01000,19.3461298,-99.1906303
591,Coronel Lino Merino,09100,19.3897167,-99.0398680
50,Avenida Miguel Ángel de Quevedo,01050,19.3485255,-99.1850310
227,Avenida Miguel Ángel de Quevedo,04310,19.3455900,-99.1802743
38,Calle Galileo,11560,19.4302813,-99.1929935
842,Callao,07300,19.4920471,-99.1237940
952,Calzada de Tlalpan,03500,19.3840815,-99.1392464
15,Adelina Patti,06220,19.4585120,-99.1298097
14,Avenida Juárez,06050,19.4341775,-99.1415871
30,Isabel la Catolica,06000,19.4328771,-99.1361199
22,Cerrada de las Palomas,11650,19.4341014,-99.2127511
22,Cerrada de las Palomas,11650,19.4339274,-99.2127444
45A,Tuxpan,06760,19.4045054,-99.1675073
518,Avenida Revolución,03800,19.3903520,-99.1859346
38 A,Congreso,14000,19.2847637,-99.1677849
16,Andorra,03540,19.3762585,-99.1372910
750,Avenida Azcapotzalco,02011,19.4852669,-99.1856482
2374,Avenida Insurgentes Sur,01070,19.3402992,-99.1899715
32,Calle Ignacio Allende,57210,19.4367668,-99.1379254
42,Orizaba,06700,19.4219432,-99.1605045
5,Calle 5 de Mayo,06000,19.4343005,-99.1357777
451,Avenida Revolución,03800,19.3926063,-99.1859238
81,Calle Alejandro Dumas,11560,19.4304543,-99.1958082
63,Mimosas,06430,19.4609947,-99.1500280
180,Avenida Sonora,06100,19.4132121,-99.1674652
180,Avenida Sonora,06100,19.4132656,-99.1676381
100,Calle General Prim,06600,19.4308352,-99.1564936
2053,Avenida Canal de Miramontes,04920,19.3102150,-99.1244827
3,Entrada B del Estadio Azteca,04650,19.3017614,-99.1481519
1,Entrada B del Estadio Azteca,04650,19.3016766,-99.1480620
5,Entrada B del Estadio Azteca,04650,19.3018917,-99.1483115
4541,División del Norte,14380,19.2901622,-99.1313400
117,Calle Valentín Gómez Farías,04100,19.3546564,-99.1595603
14,Avenida Juárez,06000,19.4340865,-99.1412926
mz 5 lt 1,Calle Tierra,04737,19.3006946,-99.1598654
44,Milán,06600,19.4293446,-99.1569585
181,Calle Chihuahua,06700,19.4169787,-99.1625623
183,Calle Liverpool,06600,19.4233071,-99.1664995
200,Calle Durango,06700,19.4196110,-99.1672259
22,Ignacio Zaragoza,15500,19.4277352,-99.1095517
1056,Patricio Sanz,03100,19.3842179,-99.1717025
77,Calle Alejandro Dumas,11560,19.4303408,-99.1958207
426,Avenida Pedro Henríquez Ureña,04330,19.3354881,-99.1567227
175,Boulevard Picacho Ajusco,14200,19.2990520,-99.2118407
800,Avenida Insurgentes Sur,03100,19.3901720,-99.1734140
44,Calle Dinamarca,06600,19.4277882,-99.1585377
121,Avenida México,08100,19.4044447,-99.0640381
69,Las Rosas,04370,19.3372323,-99.1451219
109-A,Avenida 2,03800,19.3927029,-99.1838854
22,Europa,04020,19.3439598,-99.1560803
217,Calle Alfredo Tennyson,11550,19.4346001,-99.1947451
32,F.C. Cuernavaca,11000,19.4286885,-99.2049954
130,Calle 41,09290,19.3500945,-99.0419370
16,Calle Molinos,03910,19.3727381,-99.1884679
41,Avenida Toluca,01080,19.3405008,-99.2026567
3-b,Calle Varsovia,06600,19.4256894,-99.1687913
271,Lago Naur,11440,19.4470408,-99.1941743
118,Bucareli,06600,19.4290972,-99.1522279
27,Calle Tresguerras,06600,19.4279033,-99.1515520
4,Lucerna,06600,19.4285597,-99.1528148
17,Eugenia,03840,19.3891275,-99.1756829
521,Concepción Beistegui,03100,19.3910030,-99.1720077
925,Adolfo Prieto,03100,19.3878555,-99.1687592
20,San Marcos,06000,19.4332341,-99.1252562
329,Calle Barranca del Muerto,03900,19.3626095,-99.1870516
2792,Poniente 44,02870,19.4595948,-99.1723202
332,Calle Hamburgo,06600,19.4216338,-99.1742109
975,Avenida Santa Lucía,01430,19.3685148,-99.2266723
93,Manuel Carpio,06400,19.4505390,-99.1558525
811,Morena,03020,19.3981545,-99.1568712
40,Havre,06600,19.4266728,-99.1610971
mz141 lt13,Kantunil,14100,19.2869541,-99.2361104
64,Calle Lucerna,06600,19.4299546,-99.1567060
4,Calle Mexicali,06100,19.4297554,-99.1659711
Lt 8,Calle 17,01400,19.3759969,-99.2030831
60-C,Gladiolas,04370,19.3357177,-99.1447536
59,Santa María Ribera,06400,19.4451516,-99.1575743
115,Jaime Torres Bodet,06400,19.4468388,-99.1579861
73-81,Sor Juana Inés de la Cruz,06400,19.4453975,-99.1586533
247,Campos Elíseos,11570,19.4279130,-99.1950268
8,Calle Galileo,11560,19.4282888,-99.1934317
17,Calle Madrid,06030,19.4335074,-99.1568858
12,Dr. Mariano Azuela,06400,19.4425107,-99.1555094
259,Eje 1 Norte Mosqueta,06350,19.4482100,-99.1523056
87,Salvador Diaz Mirón,06400,19.4486930,-99.1561980
175,Dr. Atl,06400,19.4483942,-99.1562602
83,Dr. Atl,06400,19.4488207,-99.1561684
205,Dr. Atl,06400,19.4492743,-99.1560537
207,Dr. Atl,06400,19.4496402,-99.1559726
99 Local 14,Manuel Carpio,06400,19.4505635,-99.1560852
99 Local 14,Manuel Carpio,06400,19.4505947,-99.1561930
109,Manuel Carpio,06400,19.4507353,-99.1569222
152,Jaime Torres Bodet,06400,19.4489573,-99.1578502
106,Salvador Díaz Mirón,06400,19.4487154,-99.1576066
138,Santa María Ribera,06400,19.4481539,-99.1572204
78,Eje Vial 1 Norte,06400,19.4467148,-99.1568060
122,Santa María Ribera,06400,19.4471744,-99.1574103
141 Local 1,Dr. Atl,06400,19.4466794,-99.1565793
91A,Santa María Ribera,06400,19.4456627,-99.1574699
85-A,Santa María Ribera,06400,19.4455514,-99.1574873
85,Jaime Torres Bodet,06400,19.4453085,-99.1582891
58,Sor Juana Inés de la Cruz,06400,19.4449735,-99.1576147
71,Avenida Ribera de San Cosme,06400,19.4420349,-99.1601180
51,Dr. Enrique González Martínez,06400,19.4436064,-99.1559946
72,Santa María Ribera,06400,19.4447168,-99.1578803
68,Santa María Ribera,06400,19.4445574,-99.1579097
61,Santa María Ribera,06400,19.4441477,-99.1577515
67,Sor Juana Inés de la Cruz,06400,19.4452909,-99.1582088
79,Calle Santa María La Ribera,06400,19.4453693,-99.1577434
62,Santa María Ribera,06400,19.4441148,-99.1580573
58-C,Dr. Atl,06400,19.4430272,-99.1574698
55,Avenida Ribera de San Cosme,06400,19.4413453,-99.1588753
94,Jaime Torres Bodet,06400,19.4460864,-99.1584590
259,Avenida Mosqueta,06350,19.4514765,-99.1513212
131,Avenida Insurgentes Nte.,06300,19.4441580,-99.1537674
131,Avenida Insurgentes Nte.,06300,19.4430932,-99.1531934
32,Avenida Insurgentes Centro,06400,19.4429288,-99.1548671
70,Avenida Insurgentes Centro,06400,19.4426128,-99.1548992
70,Avenida Insurgentes Centro,06400,19.4424887,-99.1549367
41 Local A,Avenida Ribera de San Cosme,06400,19.4410637,-99.1581479
70,Avenida Insurgentes Centro,06400,19.4426329,-99.1550200
29,Avenida Ribera de San Cosme,06400,19.4409675,-99.1571261
53,Avenida Ribera de San Cosme,06400,19.4412898,-99.1587215
159 A2,Cedro,06400,19.4484222,-99.1622191
110,Naranjo,06400,19.4477737,-99.1591778
258,Cedro,06400,19.4522008,-99.1617738
132,Jaime Torres Bodet,06400,19.4477433,-99.1580675
117,Dr. Enrique González Martínez,06400,19.4464861,-99.1554760
110,Calle Sabino,06400,19.4466708,-99.1605507
74,Naranjo,06400,19.4459040,-99.1595169
99,Sor Juana Inés de la Cruz,06400,19.4457402,-99.1599810
45 A,Nogal,06400,19.4450938,-99.1644238
106,Avenida Insurgentes Centro,06400,19.4430510,-99.1547975
131,Avenida Insurgentes Norte,06350,19.4440576,-99.1530379
164B,Calle Alfonso Reyes,06170,19.4083864,-99.1758457
219,Avenida Campos Elíseos,11550,19.4280442,-99.1937830
93,Avenida Tamaulipas,06140,19.4109356,-99.1746460
135,Corregidora,14260,19.2865967,-99.1854102
324,Prado Norte,11000,19.4277445,-99.2094897
345,Calle Campeche,06140,19.4093159,-99.1736425
156,Calle Sabino,06400,19.4489130,-99.1601422
87,Benito Juárez,14000,19.2892741,-99.1687465
177,Calzada San Simón,06920,19.4588980,-99.1456006
30-101,Morelos,06040,19.4321932,-99.1494459
25,Calle Etzatlán,15220,19.4517533,-99.1195981
93,Avenida las Rosas,04370,19.3364165,-99.1457068
987,Alvaro Obregón,64000,19.4183916,-99.1580735
9,Plaza Madrid,06700,19.4206409,-99.1664631
665,Calzada General Mariano Escobedo,11590,19.4257347,-99.1791273
469,Centenario,02070,19.4766639,-99.1882554
217,Clavelinas,02800,19.4655259,-99.1700975
84,Calle Guanajuato,06700,19.4169898,-99.1582955
33,Acayucan,06760,19.4066585,-99.1570217
99,Calle Jalapa,06170,19.4186829,-99.1613568
39,5 de Mayo,06000,19.4344207,-99.1365197
1431,Amores,03100,19.3725032,-99.1692708
169,Corregidora,14260,19.2857398,-99.1858489
167,Corregidora,14260,19.2859011,-99.1857660
18,Ayuntamiento,06000,19.4303253,-99.1425615
10,Las Torres,14380,19.2932845,-99.1393163
164,Manuel Ávila Camacho,11010,19.4339357,-99.2111163
235,Periférico Boulevard Manuel Ávila Camacho,11510,19.4373684,-99.2132163
1739,Avenida Horacio,11510,19.4357547,-99.2095780
145,Euler,11560,19.4328811,-99.1833536
343,Horacio,11570,19.4328848,-99.1835355
33,Avenida Emilio Castelar,11560,19.4296406,-99.1939950
311,Avenida Presidente Masaryk,11550,19.4316836,-99.1941283
318 D,Avenida Presidente Masaryk,11560,19.4313338,-99.1941395
310,Avenida Presidente Masaryk,11550,19.4313338,-99.1940097
300,Avenida Presidente Masaryk,11550,19.4313416,-99.1936947
124,Calle Aristóteles,11560,19.4316566,-99.1936076
124,Calle Aristoteles,11550,19.4316914,-99.1936390
66,Calle Galileo,11550,19.4313859,-99.1928245
298,Avenida Presidente Masaryk,11550,19.4313680,-99.1933886
298,Avenida Presidente Masaryk,11550,19.4313782,-99.1932427
294,Avenida Presidente Masaryk,11550,19.4313756,-99.1930610
284,Avenida Presidente Masaryk,11510,19.4313692,-99.1926278
278,Avenida Presidente Masaryk,11550,19.4313705,-99.1923517
62,Newton,11550,19.4313653,-99.1916519
281,Avenida Presidente Masaryk,11550,19.4316334,-99.1923941
50,Arquímedes,11550,19.4306062,-99.1914689
43,Arquímedes,11560,19.4301770,-99.1912334
36,Arquímedes,11550,19.4300623,-99.1915459
27,Arquímedes,11550,19.4290933,-99.1914083
22,Arquímedes,11550,19.4289389,-99.1917196
31 B,Arquímedes,11560,19.4294490,-99.1913779
26,Arquímedes,11560,19.4294235,-99.1916111
24,Arquímedes,11560,19.4293451,-99.1916326
1189,Calzada de Tlalpan,03660,19.3739488,-99.1412791
40,Calle Virgilio,11560,19.4300353,-99.1961903
166,Presa Falcón,11000,19.4441495,-99.2052344
185,Avenida Emilio Castelar,11560,19.4306826,-99.2001624
241,Avenida Revolución,11870,19.3994203,-99.1851549
257,Campos Elíseos,11560,19.4277395,-99.1954305
263,Campos Elíseos,11560,19.4275813,-99.1958553
4,Alejandro Dumas,11560,19.4273076,-99.1967208
10,Alejandro Dumas,11560,19.4274792,-99.1966378
247,Campos Elíseos,11560,19.4277904,-99.1952723
247,Campos Elíseos,11560,19.4280178,-99.1949598
233,Campos Elíseos,11560,19.4279032,-99.1945495
10,Calle Galileo,11560,19.4282321,-99.1935765
8,Calle Galileo,11560,19.4282220,-99.1934740
8 A,Calle Galileo,11560,19.4282353,-99.1935396
199 A,Avenida Campos Elíseos,11560,19.4281904,-99.1926531
189,Campos Elíseos,11560,19.4284332,-99.1921006
185 bis,Campos Elíseos,11560,19.4285104,-99.1919826
8,Municipio Libre,09450,19.3670934,-99.1374336
307,Prolongación Paseo de la Reforma,01310,19.3792729,-99.2537832
8,Municipio Libre,09450,19.3670897,-99.1373801
235,Prolongación Paseo de la Reforma,01310,19.3805676,-99.2518801
701,Calle Enrique Rébsamen,03020,19.3896598,-99.1596071
271,Prolongación Paseo de la Reforma,01310,19.3806384,-99.2519217
1015,Prolongación Paseo de la Reforma,01210,19.3779564,-99.2565834
400,Prolongación Paseo de la Reforma,01310,19.3775920,-99.2541801
400,Prolongación Paseo de la Reforma,01310,19.3774098,-99.2545771
400,Prolongación Paseo de la Reforma,01310,19.3773845,-99.2549419
400,Prolongación Paseo de la Reforma,01310,19.3776376,-99.2544591
400,Prolongación Paseo de la Reforma,01310,19.3772985,-99.2550974
1,Calle Donato Guerra,06600,19.4334840,-99.1508429
1357,Avenida Insurgentes Sur,03920,19.3690595,-99.1810068
1,MANZANA 2 GRUPO 1,01170,19.3889306,-99.2037076
S/N,"scuadrón 201 Esquina Javier Martinez V. s/n, Col. Cristo Rey",01150,19.3899224,-99.2020983
172,Avenida Primero de Mayo,03800,19.3906308,-99.1882152
57,Av Roque Velasco Ceron,01150,19.3890723,-99.2022485
S/N,Unidad Santa Fe IMSS,01170,19.3880198,-99.2073447
S/N,UNIDAD SANTA FE IMSS,01170,19.3899932,-99.2075808
61,Bahia Santa Barbara,11300,19.4369694,-99.1760600
99,Bahia Santa Barbara,11300,19.4361220,-99.1746114
330,Avenida Jardín,02950,19.4686214,-99.1603389
1703,Avenida Horacio,11510,19.4357082,-99.2083456
1719,Avenida Horacio,11510,19.4357124,-99.2088117
1709,Avenida Horacio,11510,19.4357208,-99.2085498
1719,Avenida Horacio,11510,19.4357082,-99.2089227
74,Newton,11560,19.4319177,-99.1909305
69,Arquímedes,11580,19.4311995,-99.1910048
219,Avenida Presidente Masaryk,11560,19.4316987,-99.1907382
74,Newton,11560,19.4319407,-99.1908854
249,Avenida Presidente Masaryk,11560,19.4317506,-99.1913974
249,Avenida Presidente Masaryk,11560,19.4317882,-99.1913378
44,Arquímedes,11560,19.4302392,-99.1915203
363,Heriberto Frías,03020,19.3963786,-99.1597662
304,Calzada Vallejo,02960,19.4681605,-99.1450244
77 B,San Francisco Figuraco,04000,19.3451689,-99.1612811
77B,Alberto Zamora,04000,19.3452344,-99.1612739
375,Avenida Congreso de la Union,15840,19.4113414,-99.1220510
45,Ret. 11-A de F. Servando T. de M.,15900,19.4172541,-99.1052044
47,Asia,04020,19.3442975,-99.1591483
172,Río de la Magdalena,01090,19.3369832,-99.1977384
614,Calle 5 de Febrero,03400,19.3983749,-99.1388851
122,Calle Héroes del 47,04120,19.3513236,-99.1504434
2545,Avenida División del Norte,04000,19.3560239,-99.1528474
175,Calle Río Nazas,06500,19.4302083,-99.1717493
104,Bolívar,06080,19.4269037,-99.1392483
27,Michoacán,06170,19.4111349,-99.1686737
25,Calle Michoacán,06100,19.4110453,-99.1685189
75,Puente de Alvarado,06030,19.4390114,-99.1520335
111,Cairo,15400,19.4431668,-99.1002977
4307,Ángel Albino Corzo,07839,19.4604711,-99.1022545
532,Calzada General Mariano Escobedo,11590,19.4305677,-99.1805513
11,Calle Juan de la Barrera,06100,19.4153424,-99.1725977
33,Avenida Parque España,06100,19.4156078,-99.1720190
102,Calle Veracruz,06100,19.4162387,-99.1720137
247,Avenida Insurgentes Sur,06700,19.4180067,-99.1648052
253,Avenida Insurgentes Sur,06700,19.4177358,-99.1649687
257,Avenida Insurgentes Sur,06700,19.4174848,-99.1651321
259,Avenida Insurgentes Sur,06700,19.4176632,-99.1649873
104,Monterrey,06700,19.4178724,-99.1640417
87,Avenida Río de Tacubaya,01120,19.3985327,-99.1956941
S/N,Akil,14160,19.2986360,-99.2227998
210,Guerrero,06350,19.4481233,-99.1467910
9 Int. 201 A,Gauss,11590,19.4360091,-99.1826492
276,Avenida Popocatépetl,03310,19.3636355,-99.1594857
83,Calle Xicoténcatl,04100,19.3534593,-99.1593223
120,Calle Zacatecas,06700,19.4157003,-99.1597103
1370,Avenida de los Alpes,11000,19.4112204,-99.2234891
96,Calle Anatole France,11560,19.4309232,-99.1978716
9,Lázaro Cárdenas,06000,19.4335058,-99.1412198
9-5,Avenida Miguel Hidalgo,04100,19.3515910,-99.1517116
24,Calle Iglesia,10200,19.3200133,-99.2378245
50,Porfirio Díaz,10200,19.3245558,-99.2302464
5662,Avenida Tláhuac,13219,19.3073949,-99.0596657
134,Bucareli,06000,19.4283615,-99.1524971
115,Ignacio Altamirano,06470,19.4358437,-99.1634237
557,Boulevard Picacho Ajusco,14200,19.2917006,-99.2171087
610,Boulevard Picacho Ajusco,14200,19.2904259,-99.2170807
514,Boulevard Picacho Ajusco,14200,19.2933351,-99.2158537
603,Boulevard Picacho Ajusco,14200,19.2908477,-99.2174089
819,San Jeronimo,10200,19.3297947,-99.2159943
819,San Jeronimo,10200,19.3301322,-99.2162302
"819, Local 21, 22 y 23",San Jeronimo,10200,19.3301249,-99.2158444
819,San Jeronimo,10200,19.3299524,-99.2159303
398,Avenida Chapultepec,06700,19.4223025,-99.1675366
819,San Jeronimo,10200,19.3299708,-99.2161265
819,San Jeronimo,10200,19.3297816,-99.2160712
"819, Local 17",San Jeronimo,10200,19.3303752,-99.2160396
819,San Jeronimo,10200,19.3300886,-99.2159913
819,San Jeronimo,10200,19.3302301,-99.2159125
1130,San Jerónimo,10200,19.3246551,-99.2229014
485c,Avenida Miguel Ángel de Quevedo,04310,19.3451952,-99.1702025
1,Paseo de la Reforma,06030,19.4352744,-99.1508240
174,Cuauhtémoc,04100,19.3511991,-99.1632988
139,Chihuahua,06720,19.4174216,-99.1607926
388,Gral Mariano Escobedo,11590,19.4357194,-99.1827317
206,Alvaro Obregón,06700,19.4171880,-99.1644514
1198 A,Isabel la Catolica,03630,19.3794161,-99.1439832
261,Bolivar,06800,19.4176701,-99.1408193
6,Calle Copenhague,06600,19.4277579,-99.1638969
85,Calle Dakota,03810,19.3954184,-99.1753904
85,Dakota,03810,19.3948795,-99.1752402
168,Avenida Patriotismo,11800,19.3981330,-99.1809050
12,Calle 12 de Diciembre,11800,19.3986680,-99.1790127
50,Lago Managua,11280,19.4565850,-99.1975625
31,Calle Iturbide,06040,19.4333088,-99.1493120
169,Campos Elíseos,11560,19.4289563,-99.1911151
224,Avenida Guelatao,09500,19.3604858,-99.0401174
81,Avenida Nuevo León,06140,19.4124588,-99.1721415
69,Avenida México,06100,19.4119422,-99.1704853
120,Calle Paseo del Río,01070,19.3441428,-99.1839465
78,Millet,03740,19.3770703,-99.1811786
325,Medellín,06760,19.4044828,-99.1629660
173,Chiapas,06700,19.4121509,-99.1640584
156,Dr. Rafael Lucio,06720,19.4193869,-99.1520387
371,Calle Puebla,06700,19.4204935,-99.1733136
513,Avenida Presidente Masaryk,11530,19.4324521,-99.2035826
2804,Avenida División del Norte,04040,19.3472631,-99.1499634
142,Calle Aristóteles,11560,19.4319861,-99.1935904
8,Bruno Traven,03340,19.3621149,-99.1570360
20,Calle Oscar Wilde,11550,19.4309185,-99.1974816
50,Moliere,11560,19.4301176,-99.2024403
254,Calle Aile,04369,19.3279035,-99.1676175
254,Calle Omega,04310,19.3415379,-99.1720554
1449,Avenida Universidad,01030,19.3549370,-99.1749927
47,Manuel Acuña,09280,19.3442858,-99.0532615
160,Regina,06090,19.4268819,-99.1283812
136,Calle Pennsylvania,03810,19.3902431,-99.1783503
66A,Gobernador Protasio Pérez de Tagle,11850,19.4129339,-99.1836894
47,8va cerrada de Anacahuita,04369,19.3256153,-99.1726074
131-1,Chihuahua,06700,19.4173647,-99.1603961
131,Chihuahua,06700,19.4173489,-99.1604501
1763,Avenida Insurgentes Sur,01020,19.3581204,-99.1842377
79,Felipe Carillo Puerto,40000,19.3455101,-99.1640588
14,Calle Tetela del Oro,15210,19.4552585,-99.1170322
55,Newton,11550,19.4308184,-99.1918345
66,Van Dick,03700,19.3788067,-99.1911714
"Manzana 1, Grupo 2, Casa 8","Manzana 1, Grupo 2, Casa 8",01170,19.3883879,-99.2024203
"Manzana 1, Grupo 2, Casa 8","Manzana 1, Grupo 2, Casa 8",01170,19.3883740,-99.2024149
3800,Prolongación Vasco de Quiroga,01219,19.3616091,-99.2761271
5,"Manzana 1, Grupo 5",01170,19.3887624,-99.2031097
6,"Manzana 1, Grupo 6",01170,19.3883475,-99.2030185
7,"Manzana 1, Grupo 7",01170,19.3878668,-99.2029274
129,Jalapa,06700,19.4166537,-99.1609068
138,Calle Guanajuato,06700,19.4164324,-99.1609175
118,Calle Guanajuato,06700,19.4166261,-99.1600756
7,plaza luis cabrera,06700,19.4165089,-99.1596059
9,plaza luis cabrera,06700,19.4161771,-99.1595681
102,Calle Zacatecas,06700,19.4159115,-99.1590478
10,plaza luis cabrera,06700,19.4167276,-99.1589990
139,Calle Zacatecas,06700,19.4156954,-99.1607627
137,Calle Zacatecas,06700,19.4157336,-99.1606505
138,Calle Zacatecas,06700,19.4155843,-99.1605889
251,Fresno,06400,19.4531320,-99.1601990
230,Calle Abraham González,09570,19.3605563,-99.0385573
416-B,Calle Lago Alberto,11320,19.4387515,-99.1791194
11,Coapa,01450,19.2913505,-99.1616102
266,Francisco Sosa,04010,19.3494547,-99.1731828
722,Calzada General Mariano Escobedo,11590,19.4328643,-99.1815191
14,Avenida Juárez,06050,19.4340902,-99.1416544
160,Paseo de los Laureles,04250,19.3438977,-99.1221864
239,Avenida Guillermo Massieu H.,07320,19.5116996,-99.1382894
16,Calle Dolores,06000,19.4334015,-99.1427589
28,Calle Eleuterio Méndez,03660,19.3736132,-99.1440268
757,Avenida Universidad,03100,19.3740230,-99.1632177
34,Avenida Emilio Castelar,11560,19.4291697,-99.1929463
203,Orizaba,06700,19.4127482,-99.1584658
3,Calle Oslo,06600,19.4278367,-99.1634719
1792,Taxqueña,04250,19.3394678,-99.1252736
398,Avenida Melchor Ocampo,04310,19.3422497,-99.1714431
2292,Avenida Canal de Miramontes,04460,19.3280463,-99.1367211
64,Lago Chiem,11450,19.4507286,-99.1904931
14,Calle Torres Adalid,03100,19.3910235,-99.1722286
127,Oriente 146,15530,19.4309912,-99.1031046
30,Genova,06600,19.4270521,-99.1642782
44bis,Lucas Alamán,06800,19.4214564,-99.1404711
999,Guillermo González Camarena,01210,19.3667526,-99.2631787
139,Calle Alfonso Reyes,06100,19.4084402,-99.1765568
49,5 de Mayo,06000,19.4340038,-99.1355046
56,Independencia,06050,19.4329753,-99.1428568
73,Avenida Nuevo León,06700,19.4126697,-99.1720401
143,Medellín,06700,19.4141535,-99.1653448
5 A,Colima,06700,19.4214478,-99.1542019
573,Avenida Insurgentes Sur,03810,19.3989403,-99.1709600
132,Tonalá,06700,19.4155718,-99.1618643
849,Calle Heriberto Frías,03020,19.3866825,-99.1609022
31,Calle del Carmen,06020,19.4365317,-99.1291170
597,Periférico Boulevard Adolfo López Mateos,11830,19.4068550,-99.1930616
619,Periférico Boulevard Adolfo López Mateos,11850,19.4064967,-99.1929773
26,Miguel Hidalgo,04030,19.3512863,-99.1523492
41,Calle Flamencos,03900,19.3686164,-99.1846680
1990,Avenida Paseo de la Reforma,11000,19.4058007,-99.2260134
1143,Avenida Insurgentes Sur,03720,19.3817888,-99.1765251
37,Calle Aguayo,04100,19.3515739,-99.1626278
1832,Avenida Homero,11510,19.4368989,-99.2113769
20,Justina,03500,19.3791463,-99.1393221
44,Calle Abelardo L. Rodríguez,11470,19.4479801,-99.2050067
166,Avenida del Rosal,01470,19.3728339,-99.2015288
70,Avenida Juárez,06050,19.4347237,-99.1460782
194,Calle Fernández Leal,04330,19.3437897,-99.1593158
442,Patricio Sanz,03100,19.3941566,-99.1695427
283,Calle Xicoténcatl,04100,19.3538128,-99.1594026
261,Calle Xicoténcatl,04100,19.3539268,-99.1587071
269,Calle Xicoténcatl,04100,19.3538358,-99.1591685
259,Calle Xicoténcatl,04100,19.3539724,-99.1585100
317,Avenida Presidente Masaryk,11550,19.4316646,-99.1943257
325,Avenida Presidente Masaryk,11550,19.4316893,-99.1947456
4,Avenida Luis Gonzaga Urbina,11560,19.4285653,-99.1939870
131,Avenida Emilio Castelar,11560,19.4302420,-99.1980523
135,Avenida Emilio Castelar,11560,19.4302806,-99.1982248
45,Tlaxcanes,09820,19.3535680,-99.0974133
54,Cuauhtémoc,09840,19.3458569,-99.1024076
3,Carpinteria,15270,19.4439622,-99.1228813
1408,Homero,11560,19.4360101,-99.2036086
6014,Patambán,07820,19.4663863,-99.1035392
253,Avenida Revolución,11870,19.3990896,-99.1851872
189,Eugenia,03020,19.3841507,-99.1481064
01,Calle Río Hondo,01080,19.3443827,-99.1997383
4855,Calzada Desierto de los Leones,01700,19.3427906,-99.2244896
1102,Avenida Lomas de Sotelo,11200,19.4462169,-99.2158780
885,Avenida Lomas de Sotelo,11200,19.4475522,-99.2150773
63,Presa de las Pilas,11500,19.4436838,-99.2106879
63,Presa de las Pilas,11500,19.4436076,-99.2108307
1209,Avenida Revolución,01010,19.3627880,-99.1893522
463,Camino a Santa Fe,01160,19.3889292,-99.2115357
14,Calle Juan de la Barrera,09300,19.3689154,-99.0760971
20,Calle Ferrocarril San Rafael Atlixco,09300,19.3718767,-99.0747705
639,Calzada de Tlalpan,03400,19.3956987,-99.1381624
61,Lorenzo Boturini,15900,19.4181888,-99.1389806
61,Lorenzo Boturini,06800,19.4183425,-99.1407799
20,República de El Salvador,06000,19.4302273,-99.1401532
20,República de El Salvador,06000,19.4302399,-99.1402336
20,República de El Salvador,06000,19.4302589,-99.1403624
16,República de El Salvador,06000,19.4303044,-99.1405528
39,Venustiano Carranza,06000,19.4314402,-99.1382692
1098,Avenida Miguel Ángel de Quevedo,04000,19.3427561,-99.1480377
325,Avenida Paseo de la Reforma,06500,19.4280402,-99.1671860
124,Serapio Rendón,06470,19.4331984,-99.1606321
204,Campos Elíseos,11550,19.4271620,-99.1927936
218,Campos Elíseos,11560,19.4273458,-99.1935967
29,Andrés Bello,11560,19.4272041,-99.1949834
5028B,Calzada Desierto de los Leones,01700,19.3415156,-99.2312421
23,Calle Francisco García Salinas,09100,19.3928176,-99.0470828
1,Calle Pachuca,06140,19.4188614,-99.1757620
133,Campos Elíseos,11550,19.4295383,-99.1896176
64,Nogal,05200,19.3683636,-99.2875135
44,Antonio Caso,06030,19.4340769,-99.1569025
4671,Avenida Tláhuac,09880,19.3190032,-99.0781617
9,Calle Elena,03500,19.3845113,-99.1370593
169,Coahuila,06700,19.4111729,-99.1638613
44,Calle San Miguel,04030,19.3494805,-99.1520470
90,Avenida Querétaro,06700,19.4150487,-99.1587516
55,Calle Cisne,01140,19.3954893,-99.1948703
66,Juan Escutia,06140,19.4148889,-99.1748341
430 B,Calle Centeno,08400,19.4014629,-99.1094131
880,Avenida Ejército Nacional,11530,19.4382302,-99.2033984
275,Calle Barranca del Muerto,03900,19.3619763,-99.1858332
2079,Avenida Universidad,04510,19.3374857,-99.1846036
4,Callejón Condesa,06000,19.4342545,-99.1403016
5561,Lateral Periferico,14040,19.3012242,-99.1639525
17,Avenida San José de los Cedros,05200,19.3700410,-99.2912766
1313,Taxqueña,04200,19.3414267,-99.1403826
150,Calle Volcán,11000,19.4292868,-99.2078273
27B,Calle Ex Arzobispado,11860,19.4046651,-99.1968394
31B,Calle Ex Arzobispado,11860,19.4044730,-99.1968254
79B,General Victoriano Cepeda,11860,19.4047117,-99.1964361
803,Calzada General Ignacio Zaragoza,08100,19.4077758,-99.0762114
342,Paseo de la Reforma,06600,19.4258927,-99.1674830
14,Miguel Hidalgo,14000,19.2884773,-99.1644981
7,Cozumel,06700,19.4212546,-99.1715752
393,Calzada de Tlalpan,03400,19.4025712,-99.1370553
100,Calle París,04100,19.3545161,-99.1594234
2001,División del Norte,03300,19.3660750,-99.1558649
312,Calle Rumania,03300,19.3692070,-99.1460475
833,Calle San Borja,03100,19.3840512,-99.1636451
332,Calle Uxmal,03020,19.3897241,-99.1549173
310,Avenida Universidad,03020,19.3883922,-99.1534358
43A,Calle Profesor Fernando Montes de Oca,03440,19.3854356,-99.1422907
885-B,Avenida Presidente Plutarco Elías Calles,03510,19.3940496,-99.1318619
115,Calzada Chabacano,06890,19.4087152,-99.1292981
579,Avenida Ejército Nacional Mexicano,11520,19.4382427,-99.1936640
579,Avenida Ejército Nacional Mexicano,11520,19.4382758,-99.1935791
32,Avenida Francisco Sosa,04100,19.3492487,-99.1655917
25,Calle Celaya,06100,19.4145692,-99.1672835
65,Calle Mártires de la Conquista,11870,19.4007491,-99.1838249
190,Avenida Revolución,11870,19.4010117,-99.1847267
125,General Emiliano Zapata,03300,19.3653023,-99.1485526
38,Calle José Marti,11870,19.4033750,-99.1850527
25,Calle Celaya,06100,19.4146095,-99.1674392
346,Calle Campeche,06100,19.4091651,-99.1738266
170,Avenida Observatorio,11860,19.4034923,-99.1952810
133,Avenida Nuevo León,06140,19.4095985,-99.1728727
64,Avenida Alvaro Obregón,06700,19.4184985,-99.1575887
39,Calle Tennessee,03840,19.3868555,-99.1764014
73,Calle Havre,06600,19.4253154,-99.1607554
5198,Calle Poniente 122,07750,19.4846610,-99.1481449
825,Avenida Insurgentes Sur,03810,19.3890898,-99.1743711
54,Cuitláhuac,13000,19.2705381,-99.0043772
881,Avenida Insurgentes Sur,03810,19.3875284,-99.1748926
3,Calle Tapachula,09520,19.3620204,-99.0160203
1791,Avenida Insurgentes Sur,01020,19.3522456,-99.1869568
276,Paseo de la Reforma,06600,19.4279664,-99.1642349
10,Calle Capuchinas,03940,19.3672134,-99.1815533
1745,Calle San Francisco,03230,19.3694626,-99.1765841
GeoIT,Calle Pedro Romero de Terreros,03020,19.3940358,-99.1554770
92,Prolongación de Manuel Carpio,06400,19.4503572,-99.1558293
115,Jaime Torres Bodet,06400,19.4467488,-99.1580046
543-401,Calzada General Mariano Escobedo,11560,19.4302507,-99.1806812
4,Calle Plaza del Carmen,01000,19.3460179,-99.1896904
84,Avenida Yucatán,06700,19.4142114,-99.1628312
215,Calle Eduardo Pallarés y Portillo,04040,19.3463796,-99.1536488
259,Eje 1 Norte,06350,19.4509082,-99.1512122
180,Calle Cedro,06400,19.4487812,-99.1623574
206,Avenida Vito Alessio Robles,01030,19.3521584,-99.1793034
1281,Avenida Insurgentes Sur,03740,19.3744544,-99.1789924
1285,Avenida Insurgentes Sur,03740,19.3743394,-99.1790508
199,Calle Malintzin,4100,19.3516828,-99.1646407
645,Calle Sur 111 A,09060,19.3670166,-99.1148682
s/n,Calle Alfonso Toro,09060,19.3668016,-99.1111366
1759,Calle Alfonso Toro,09060,19.3666033,-99.1113957
s/n,Calle Alfonso Toro,09060,19.3677634,-99.1180915
1608,Calle Atanasio G. Saravia,09090,19.3613387,-99.1158511
507,Calle Teniente José Espinosa Fuentes,09060,19.3631660,-99.1111154
27,Calle Nayarit,06760,19.4098754,-99.1620400
62,Calle Río Amazonas,06500,19.4309100,-99.1634047
295,Avenida Paseo de la Reforma,06500,19.4285155,-99.1655895
54,Calle Factor,03900,19.3655997,-99.1838973
71,Calle Puebla,06700,19.4235742,-99.1577050
324-M,Calle Torcuato Tasso,11570,19.4321834,-99.1832983
SN,Calle Pescadores,02100,19.5116393,-99.2027831
0,Peatonal Corales,08900,19.3872384,-99.1086503
11,Calle San Lorenzo,04380,19.3291489,-99.1512529
131,Simón Bolívar,06020,19.4247575,-99.1396827
12,Calle Gauss,11590,19.4363515,-99.1825883
57,Calle Fénix,07460,19.4802634,-99.1047122
170,Calle Lebrija,09860,19.3230612,-99.0791073
170,Calle Lebrija,09860,19.3230357,-99.0790559
155,Calle Lebrija,09860,19.3231432,-99.0790444
155,Calle Atlixco,06170,19.4093158,-99.1765577
37,Manuel Ávila Camacho,01290,19.3786838,-99.2194386
114,Calle Zaragoza,06350,19.4439778,-99.1492897
546,Avenida Popocatépetl,03330,19.3655506,-99.1667950
37,Calle Amado Nervo,06400,19.4432055,-99.1570837
99,Calle Juan Aldama,06350,19.4433876,-99.1505273
4409,Avenida Tláhuac,09890,19.3207406,-99.0945387
5,Avenida Lázaro Cárdenas,06050,19.4337794,-99.1411549
18,Calle Venustiano Carranza,09570,19.3619185,-99.0325273
40,Calle Havre,06600,19.4266671,-99.1610599
39,Calle Gobernador Ignacio Esteva,11850,19.4112874,-99.1886962
2,Lázaro Cárdenas,06000,19.4339084,-99.1407364
5460,Lateral Periférico,04710,19.3023032,-99.1673234
668,Heroica Escuela Naval Militar,04470,19.3260976,-99.1243792
253,Avenida Río Churubusco,08400,19.4005884,-99.0988089
324,Calle Torcuato Tasso,11570,19.4320187,-99.1833011
224-K,Calle Torcuato Tasso,11570,19.4323300,-99.1833005
48,Avenida Presidente Masaryk,11560,19.4311600,-99.1830508
42,Avenida Presidente Masaryk,11560,19.4311410,-99.1828041
323,Calle Torcuato Tasso,11570,19.4320024,-99.1835581
253,Avenida Río Churubusco,08400,19.4003500,-99.0988039
1000,Batallón de San Patricio,66457,19.3722849,-99.2069113
2,Eje Central Lázaro Cárdenas,06000,19.4933740,-99.1452014
835,Avenida Circuito Nuevo Veracruz,91697,19.4935055,-99.1456487
74,Calle Galileo,11560,19.4318138,-99.1928073
24,Calle Pedregal,11040,19.4252122,-99.2033586
385,Calle Bosque de Ombúes,52787,19.4041948,-99.2520928
128,La Purísima,09310,19.3580651,-99.0723033
67,Calle Galileo,11550,19.4313748,-99.1927016
21,Calle Alfredo Tennyson,11550,19.4282279,-99.1954509
213,Calle Hamburgo,06600,19.4244212,-99.1685971
132,Calle Ignacio Mariscal,06030,19.4380171,-99.1545000
132,Calle Ignacio Mariscal,06030,19.4380716,-99.1545050
114,Calle Londres,06600,19.4253759,-99.1639039
S/N,Nilo,02080,19.4669586,-99.1799779
112 C,Calle Santa María Ribera,06400,19.4467133,-99.1575096
1152,Avenida Miguel Ángel de Quevedo,04040,19.3424697,-99.1461428
816,Avenida Aztecas,04300,19.3133046,-99.1683837
121,Calle Puebla,06700,19.4230274,-99.1605436
1636,Canal Río Churubusco,09410,19.4058358,-99.0785675
63B,Calle Yerbabuena,02810,19.4693898,-99.1654591
319,Calle Lago Alberto,11520,19.4398166,-99.1852172
2,Calle Dresde,06600,19.4245865,-99.1692244
479,Calzada General Mariano Escobedo,11560,19.4316502,-99.1813365
29,Calle Copenhague,06600,19.4270462,-99.1636993
138,Calle Guanajuato,06700,19.4164490,-99.1608396
180,Avenida de las Fuentes,01900,19.3284969,-99.2047777
103,Avenida Nuevo León,06700,19.4111158,-99.1727332
797,Calzada de las Bombas,04918,19.3099555,-99.1076625
843B,Avenida Ejército Nacional Mexicano,11520,19.4398487,-99.2033874
230,Avenida Álvaro Obregón,06700,19.4169788,-99.1657786
9,Progreso,04010,19.3501518,-99.1714170
8,Calle Jaime Balmes,11510,19.4383418,-99.2096718
274,Avenida Baja California,06100,19.4057844,-99.1703921
16,Liverpool,06600,19.4277728,-99.1565137
193,Boulevard Miguel de Cervantes,11520,19.4412574,-99.1987167
48,Calle Ernesto Pugibet,06070,19.4298300,-99.1463601
209,Calle Londres,06600,19.4237484,-99.1679654
47,Calle Dinamarca,06600,19.4274878,-99.1587641
602,Calle Concepción Beistegui,03100,19.3902022,-99.1679260
505,Avenida Paseo de la Reforma,11000,19.4250885,-99.2093808
2,Lázaro Cárdenas,06000,19.4338766,-99.1407333
810,Avenida Insurgentes Sur,03100,19.3898313,-99.1734431
158,Avenida Baja California,06760,19.4060005,-99.1643316
375,Calle Laguna de Mayrán,11320,19.4405580,-99.1768590
188,Calle Río Lerma,06500,19.4277505,-99.1702970
2,Calle Tuxpan,06760,19.4068441,-99.1678435
119,Calle Juan Guillermo Villasana,15740,19.4181642,-99.0775230
19,Costado del Atrio de San Francisco,04320,19.3416104,-99.1626719
3237,Calzada de Tlalpan,04650,19.3082562,-99.1426508
3237,Calzada de Tlalpan,04650,19.3083251,-99.1426966
146,Calle General Benjamín Hill,06170,19.4077355,-99.1771664
87,Calle Ayuntamiento,14260,19.2921881,-99.1785251
1090,Calzada Vallejo,02300,19.4880948,-99.1532563
4299,Prolongación Vasco de Quiroga,05370,19.3568757,-99.2836814
923,Calle Altamira,03580,19.3609576,-99.1411267
425,Calle Lago Zurich,11529,19.4418769,-99.2045069
208,Calzada General Mariano Escobedo,11320,19.4428385,-99.1828697
934,Calle Miravalle,03580,19.3598772,-99.1408216
944,Altamira,03580,19.3599437,-99.1415150
2279,Calzada de Tlalpan,04370,19.3366382,-99.1425117
eje 5,Avenida Telecomunicaciones,09225,19.3744809,-99.0546995
93-B,Avenida las Rosas,04370,19.3364196,-99.1457275
93-A,Avenida las Rosas,04370,19.3364514,-99.1456744
49,Calle Laboristas,09440,19.3754940,-99.1320410
18,"Eje 6 Sur, Playa Pie de la Cuesta",09440,19.3772570,-99.1333431
200,"Eje 6, Playa Pie de la Cuesta",09440,19.3771095,-99.1326280
337,"Eje 6 Sur, Playa Pie de la Cuesta",09440,19.3761345,-99.1259202
5906,Calzada Desierto de los Leones,01780,19.3359894,-99.2500893
5910,Calzada Desierto de los Leones,01780,19.3361399,-99.2502314
402,Avenida Municipio Libre,09440,19.3669249,-99.1335724
42,Calle Orizaba,06700,19.4171106,-99.1593361
83,Prolongación Ayuntamiento,04010,19.3467732,-99.1692827
453,Avenida Ejército Nacional Mexicano,11520,19.4382983,-99.1884579
119,Hilario Pérez de León,03610,19.3827082,-99.1409736
6211,Calle Mármol,07820,19.4707096,-99.1129388
41,Calle Pavo Real,01140,19.3979570,-99.1956197
247,Calle Constantino,07870,19.4638064,-99.1301733
64,Calle Carolina,03710,19.3852592,-99.1798629
39,Calle Orizaba,06700,19.4219778,-99.1607517
86,Calle Mártires de la Conquista,11800,19.4005887,-99.1840931
1675,Avenida Paseo de la Reforma,11000,19.4121639,-99.2211439
140,Calle Río Lerma,06500,19.4287737,-99.1681861
s/n,"Oriente 95, esquina Norte 66, Col. Mártires de Río Blanco",07880,19.4618161,-99.1107817
165,Calle Alejandro Dumas,11560,19.4332082,-99.1955454
169-A,Calle Zamora,06140,19.4130352,-99.1801380
4,Calle Mexicali,06100,19.4075477,-99.1724685
880,Prolongación Paseo de la Reforma,01219,19.3589434,-99.2732086
96,Calle Carlos Dolci,01460,19.3770818,-99.1943878
251,Calle Constantino,07870,19.4637762,-99.1301778
188,Avenida México,04100,19.3578100,-99.1698818
113,Calle Carolina,03720,19.3815119,-99.1788837
159,Avenida Nuevo León,06100,19.4082891,-99.1725517
34,Calle Minatitlán,06760,19.4070658,-99.1644010
449,Calle Patricio Sanz,03100,19.3938449,-99.1698638
350,Avenida México-Coyoacán,03330,19.3606821,-99.1627536
296,Paseo de la Reforma,06600,19.4273557,-99.1651818
163,Adolfo López Mateos,03910,19.3800576,-99.1914445
23C,Avenida de las Civilizaciones,02100,19.5107918,-99.2100268
56,Calle Gabino Barreda,06470,19.4396059,-99.1632351
149,calle Londres,06600,19.4251272,-99.1653491
612,Calle José Antonio Torres,06860,19.4092225,-99.1332961
616,Calle Prado Norte,11000,19.4269326,-99.2151468
1,Avenida Bucareli,06600,19.4343366,-99.1503012
3501,Calle Oriente 95,07890,19.4605445,-99.1082955
145,Avenida Juárez,05000,19.3606120,-99.3019009
83,Prolongación Avenida México,05000,19.3563309,-99.3004243
367,Calzada Melchor Ocampo,11590,19.4294027,-99.1742623
375,Avenida José María Castorena,05260,19.3606253,-99.2910956
10,Calle Cándido Avilés,05330,19.3592202,-99.2883772
2977,Carretera Federal México-Toluca,05320,19.3636341,-99.2804801
38,Calle Guerrero,05000,19.3533827,-99.2976207
284,Calle Tetiz,14100,19.2837157,-99.2326189
45,Avenida Marina Nacional,11410,19.4531913,-99.1868302
159,Calzada Legaría,11470,19.4554091,-99.1959335
72,Calle Marsella,06600,19.4247538,-99.1605226
54,Calle Dolores,06000,19.4306757,-99.1431887
128,Calle Centenario,04100,19.3570390,-99.1637005
205,Calle Calkiní,14200,19.2888627,-99.2185166
295,Calle Tizimín,14240,19.2887074,-99.2288067
6,Calle Tetiz,14100,19.2936542,-99.2334572
21,Calle Antonio Van Dyck,03700,19.3786309,-99.1886044
50,Calle Antonio Van Dyck,03700,19.3786948,-99.1899991
20,Calle Caravaggio,03700,19.3801421,-99.1883488
9,Calle Pachuca,10700,19.3095663,-99.2286692
780,Calle Agua,01900,19.3131899,-99.2033082
38,Giotto,03910,19.3749610,-99.1897178
1028,Avenida Doctor José María Vértiz,03600,19.3842187,-99.1523153
1066,Avenida México,10710,19.3110965,-99.2252970
1562,Avenida Revolución,01000,19.3510495,-99.1902707
267,Avenida José Vasconcelos,11850,19.4123019,-99.1819887
35,Calle Roma,06600,19.4295408,-99.1577709
191,Medellín,06700,19.4117283,-99.1646611
12,Avenida Vito Alessio Robles,01030,19.3515834,-99.1852529
43,Calle Veracruz,10700,19.3138239,-99.2274392
203,Calle Emiliano Zapata,10400,19.3171513,-99.2301471
5,Calle Transmisiones,01780,19.3338234,-99.2339431
110-A,Calle Tokio,06600,19.4227696,-99.1736241
257,Calle Río Lerma,06500,19.4266600,-99.1730810
374-A,Calle Bajío,06100,19.4022244,-99.1705355
152,Calle Euler,11570,19.4324664,-99.1831131
158,Calle Liverpool,06600,19.4237573,-99.1649807
4B,Calle Orizaba,06700,19.4239015,-99.1610023
101,Calle Eugenia,03100,19.3887130,-99.1737019
64,Calle Donceles,06000,19.4363013,-99.1352366
319,Calle Xicoténcatl,04100,19.3534396,-99.1611145
49,Calle Ezequiel Montes,06030,19.4366525,-99.1563469
48,Avenida Parque Lira,11840,19.4094812,-99.1906302
92,Calle Revillagigedo,06070,19.4284989,-99.1469799
29,Calle Simón Bolívar,06000,19.4329089,-99.1385759
6,Calle Belisario Domínguez,06000,19.4388201,-99.1396106
53,Avenida Patriotismo,11800,19.4035702,-99.1784664
53,Calle Versalles,06600,19.4296570,-99.1550775
26,Orozco y Berra,06350,19.4392587,-99.1498686
97,Calle General Francisco Arce,09100,19.3900559,-99.0360738
NA,Viaducto Rio de la Piedad,08400,19.4033030,-99.0850504
729,Calzada del Hueso,14300,19.3078813,-99.1341927
417,Avenida Miguel Bernard,07340,19.5047365,-99.1345353
3787,Avenida Insurgentes Sur,14269,19.2923082,-99.1774290
3783,Avenida Insurgentes Sur,14269,19.2923337,-99.1774852
3799,Avenida Insurgentes Sur,14269,19.2921852,-99.1771042
47,Avenida Recreo,08610,19.3954139,-99.1222224
1321,Avenida Universidad,01030,19.3586017,-99.1727236
712-C,Avenida Colonia del Valle,03100,19.3902114,-99.1662626
306,Andador Juan Mancilla Rios,04310,19.3448292,-99.1749563
24,Calzada Candelaria,04330,19.3363233,-99.1478175
271,Monterrey,06760,19.4094810,-99.1621439
271,Monterrey,06760,19.4095231,-99.1620738
74,Calle Kramer,04370,19.3403534,-99.1459913
62,Calle Fernández Leal,04020,19.3475593,-99.1584385
5200,Avenida Canal de Chalco,09940,19.2926563,-99.0769933
32,Calle Belisario Domínguez,06000,19.4382838,-99.1373510
202,Avenida de las Torres,14376,19.2907104,-99.1394491
1413,Avenida San Lorenzo,09850,19.3250920,-99.0754442
966,Avenida San Lorenzo,09850,19.3284535,-99.0750564
7,Calle Miguel E. Schultz,06470,19.4409637,-99.1598651
9,Calle Doctor Mora,06050,19.4363079,-99.1464521
36,Calle Milán,06600,19.4298306,-99.1568149
78,Calle Versalles,06600,19.4281611,-99.1553946
52,Calle Havre,06600,19.4263110,-99.1609198
52,Calle Río Nazas,06500,19.4322515,-99.1669928
500,Avenida Paseo de la Reforma,06600,19.4226602,-99.1739107
346,Calle Campeche,06100,19.4091685,-99.1737700
111,Calle Río Nazas,06500,19.4314420,-99.1692959
22,Calle Parque del Conde,03900,19.3654223,-99.1842894
mz9 lt3,Calle Cacalchén,14240,19.2972385,-99.2288016
125,Calle Jalapa,06700,19.4169941,-99.1609710
119,Calle Comercio,11800,19.4014295,-99.1784747
87,Avenida Circunvalación,15270,19.4431844,-99.1160635
229,Calle Agustín González de Cossio,03100,19.3909350,-99.1699609
91,Calle Cananea,15220,19.4556397,-99.1224942
62,Boleo,06280,19.4559194,-99.1239372
155,Calzada de Guadalupe,06240,19.4600608,-99.1265967
332,Avenida Canal del Norte,15310,19.4493030,-99.1116561
141,Calle Orfebrería,15250,19.4495740,-99.1148165
285,Avenida Canal del Norte,15240,19.4497944,-99.1155048
146,Avenida Canal del Norte,15240,19.4496873,-99.1150253
305,Avenida Congreso de la Unión,15240,19.4493229,-99.1158322
241,Calle Talabarteros,15250,19.4486476,-99.1147866
299,Avenida Canal del Norte,15300,19.4495883,-99.1146158
55,Calle Bondojito,15250,19.4492839,-99.1131928
236,Calle Talabarteros,15250,19.4488375,-99.1148479
52,Calle Electricistas,15300,19.4450220,-99.1074682
338,Avenida Canal del Norte,15300,19.4495023,-99.1125337
344,Avenida Canal del Norte,15300,19.4494414,-99.1122834
28,Calle Tizayuca,15240,19.4480099,-99.1121395
457,Avenida Ingeniero Eduardo Molina,15300,19.4490147,-99.1103191
43,Avenida Ingeniero Eduardo Molina,15300,19.4492226,-99.1102612
285,Calle Plomeros,15240,19.4469807,-99.1133635
168 Bis,Calle Peluqueros,15240,19.4459583,-99.1141042
200,Calle Cobre,15310,19.4530132,-99.1166430
239,Calle Cobre,15220,19.4530581,-99.1201231
265,Avenida 22 de frebrero,02050,19.4816080,-99.1833252
S/N,"Calle Lago Erne SN, Pensil Norte, 11430 Miguel Hidalgo, CDMX",11430,19.4490584,-99.1949129
238,Boulevard Picacho Ajusco,14210,19.2978697,-99.2121322
1922,Boulevard Adolfo López Mateos,01049,19.3575358,-99.1951691
91,Camino de la Unión A,07550,19.4844511,-99.0755778
102,Calle Ahuejote,04369,19.3231931,-99.1669996
330,Avenida Horacio,11540,19.4331156,-99.1869440
294,Avenida Congreso de la Unión,15310,19.4538400,-99.1147093
107,Avenida Congreso de la Unión,15310,19.4536169,-99.1147830
360,Calle Anacahuita,04369,19.3183425,-99.1714894
14,5 de Mayo;Calle 5 de Mayo,09500,19.3476830,-99.0249145
69 Local D,Avenida Melchor Ocampo,11370,19.4392040,-99.1682820
81,16 de Septiembre,06000,19.4318795,-99.1347231
349,Calle Palma,06000,19.4328134,-99.1353740
52,Calle Venustiano Carranza,06000,19.4315703,-99.1371740
104,Calle Gabino Barreda,06470,19.4368301,-99.1639588
73,Calle Venustiano Carranza,06000,19.4310808,-99.1352547
704,Avenida Coyoacán,03100,19.3870680,-99.1670443
66,Calle Miguel Laurent,03200,19.3774004,-99.1746038
750,Avenida Coyoacán,03100,19.3853754,-99.1674655
42,Avenida 12,15000,19.4137249,-99.0964578
820,Calzada del Hueso,04970,19.3005883,-99.1126419
31,Calle Marsella,06600,19.4263640,-99.1576756
82,Calle Durango,06700,19.4213172,-99.1591265
208,Avenida División del Norte,03100,19.3940647,-99.1671737
4,Calle Providencia,03100,19.4004481,-99.1665102
249,Canal Río Churubusco,08500,19.4067173,-99.0775524
107,Calle Vicente García González,07090,19.5081077,-99.0948362
552,Boulevard Picacho Ajusco,14200,19.2922374,-99.2164224
326,Calle José María Parras,09100,19.3900506,-99.0366768
225,Calle Adolfo Prieto,03103,19.3962901,-99.1665824
1267,Avenida Revolución,01010,19.3608635,-99.1913150
30,Giotto,03910,19.3749919,-99.1894889
168,Calle Lago Zurich,11500,19.4448459,-99.2025779
200,Calle Lago Zurich,11529,19.4442963,-99.2025420
7,av plutarco elias calles,03570,19.3668077,-99.1380270
138,Calle Berlín,04100,19.3563690,-99.1594726
43,Avenida Pirineos,03580,19.3614513,-99.1419866
Republicas y,Calle Miraflores,03580,19.3630471,-99.1413486
30,Avenida Repúblicas,03580,19.3626834,-99.1405634
932,Miravalle,03580,19.3600051,-99.1407260
203,BALBOA,03303,19.3706840,-99.1440167
30,Avenida Repúblicas,03570,19.3626726,-99.1404514
714,Miravalle,03570,19.3630370,-99.1401986
1851,Avenida Presidente Plutarco Elías Calles,03580,19.3620919,-99.1390439
446,Avenida Toluca,01780,19.3394511,-99.2165225
226,Prolongación Avenida Juárez,05370,19.3523821,-99.2879504
34,Navojoa,05320,19.3607442,-99.2833782
48,Antonio Noemi,05330,19.3562522,-99.2876581
257,Prolongación Avenida Juárez,05370,19.3537026,-99.2914198
124,Prolongación Avenida Juárez,05330,19.3518575,-99.2867894
414,Prolongación Avenida Juárez,05330,19.3518600,-99.2868412
39,Calle Cañito,11290,19.4626642,-99.1917240
46,Calle Lago Gascasónica,11290,19.4615623,-99.1919603
#68,Calle Cañito,11290,19.4627990,-99.1920572
728,Río San Joaquín;Avenida Río San Joaquín,11250,19.4489913,-99.2085270
7,Calle Pachuca,06140,19.4186172,-99.1758754
64,Havre,06600,19.4257094,-99.1605871
136B,Calle Platino,15220,19.4561720,-99.1225405
100,Calle Sahúayo,15200,19.4495804,-99.1182587
77,Calle Zempoala,03020,19.3986822,-99.1481605
280,Calle Colector 13,07760,19.4864870,-99.1312949
274,Xavier Sorondo,03520,19.3888799,-99.1355076
1,"Circuito Exterior s/n, Ciudad Universitaria, Coyoacán",04510,19.3239041,-99.1846166
76,Avenida Cafetales,14330,19.2980487,-99.1137297
15,Avenida Insurgentes Centro,06470,19.4390978,-99.1561217
60,Juan Salvador Agraz,05109,19.3587389,-99.2773763
418,Calle Oriente 168,15530,19.4394651,-99.0915315
mza 12,Calle Chilpancingo Norte,09180,19.3636694,-98.9951090
49,Sirena,07800,19.4852149,-99.1245491
63,Calle Antonio Van Dyck,03700,19.3788474,-99.1900381
61,Calle Antonio Van Dyck,03700,19.3788297,-99.1898852
59,Calle Antonio Van Dyck,03700,19.3788246,-99.1898329
57,Calle Antonio Van Dyck,03700,19.3788246,-99.1897645
43,Calle Antonio Van Dyck,03700,19.3787980,-99.1896036
41,Calle Antonio Van Dyck,03700,19.3787854,-99.1894695
48,Calle Antonio Van Dyck,03700,19.3786892,-99.1899362
39,Calle Antonio Van Dyck,03700,19.3787462,-99.1893072
37,Calle Antonio Van Dyck,03700,19.3787209,-99.1890819
208,Calzada San Simón,06920,19.4585129,-99.1468617
310,Calle Lago Alberto,11529,19.4395981,-99.1849205
117,Corina,04100,19.3558924,-99.1547735
902,Norte 45,02300,19.4925240,-99.1604827
902,Norte 45,02300,19.4924997,-99.1604438
103,Calle Sabadel,09850,19.3316248,-99.0851906
135,Calle Alejandro Dumas,11550,19.4323800,-99.1955821
5,Volcan popocatepetl,07509,19.4733183,-99.0633721
110,Calle 1545,07918,19.4662824,-99.0611120
509,Avenida Paseo de la Reforma,06500,19.4239552,-99.1757289
453,Avenida Insurgentes Sur,06170,19.4061970,-99.1687128
313,Calle Tonalá,06760,19.4068846,-99.1599318
10,Calle Manuel María Contreras,06470,19.4421130,-99.1637985
11590,"C. Darwin 68, Anzures, Miguel Hidalgo",11590,19.2830886,-99.2340770
1106,Insurgentes Sur,03200,19.3800823,-99.1762764
41,Calle Frontera,06700,19.4231714,-99.1570291
807,Calle Tokio,03300,19.3640810,-99.1535351
1,Roma,06600,19.4291981,-99.1554450
65,Calle José Martí,11800,19.4022818,-99.1773810
"49, local 4",Avenida Jose Martí,11800,19.4033333,-99.1842545
56,Calle General Gabriel Hernández,06720,19.4241619,-99.1476744
56,Calle Francisco Zarco,06300,19.4411737,-99.1460717
116,Avenida Campos Elíseos,11550,19.4294763,-99.1881551
88,Calle Central,08100,19.4108914,-99.0702491
234,Avenida Río Mixcoac,03240,19.3601905,-99.1723179
296,Paseo de la Reforma,06600,19.4276223,-99.1651647
70,Calle Gobernador José Ceballos,11850,19.4100086,-99.1898748
250,Avenida Paseo de la Reforma,06600,19.4285737,-99.1628210
84,Avenida San Antonio,03810,19.3854613,-99.1782191
75,Avenida San Antonio,03840,19.3859685,-99.1770808
68,Calle Darwin,11590,19.4295288,-99.1777397
1638,Avenida Río Consulado,07870,19.4626083,-99.1289913
29,Avenida Presidente Masaryk,11570,19.4314553,-99.1822243
1832-B,Calzada Taxqueña,04260,19.3374898,-99.1214969
75,Calle Isabel la Católica,06000,19.4290388,-99.1371075
13,Calle Silicio,09830,19.3481138,-99.0808029
6,Calle Circonio,09830,19.3481328,-99.0800708
39,Calle Circonio,09830,19.3480070,-99.0796608
523,José María Rico,03100,19.3669741,-99.1711234
193,Calzada General Mariano Escobedo,11320,19.4423788,-99.1833689
245,Calle Lago Como,11320,19.4424757,-99.1842941
75,Calle Lago Tangañica,11520,19.4382494,-99.1930914
209,Calle Colima,06700,19.4196842,-99.1617492
142,Calle Tabasco,06700,19.4194667,-99.1590001
95,Calle Orizaba,06700,19.4192897,-99.1602237
76,Calle Orizaba,06700,19.4203255,-99.1600925
42,Avenida Fray Servando Teresa de Mier,06080,19.4247275,-99.1404058
105,Calle Minería,11800,19.3999397,-99.1769945
"14, Local C",Calle Margil,06060,19.4333393,-99.1259472
233,Calle Lago Iseo,11320,19.4484261,-99.1814406
255,Calle Profesora Aurora Reza,04330,19.3367035,-99.1588357
2638 Altos,Avenida División del Norte,04120,19.3529555,-99.1515457
947,Avenida Miguel Ángel de Quevedo,04330,19.3431979,-99.1537623
40,Avenida 5 de Mayo,06000,19.4342640,-99.1365410
1449,Avenida Universidad,01030,19.3550422,-99.1751628
4,Calle 4,01150,19.3912174,-99.1981196
22,Calle 22,01400,19.3743970,-99.2110320
23,Calle Bahia de Sta. Barbara,11300,19.4377365,-99.1774841
12,Calle Reforma,01080,19.3347198,-99.2046299
93,Calle Yucatán,01080,19.3392644,-99.2014480
167,Calle Durango,06700,19.4201657,-99.1642871
118,Calle Medellín,06700,19.4161342,-99.1655845
197,Avenida Rómulo Escobar Zerman,07800,19.4768738,-99.1263299
74,Calle Montiel,07020,19.4846432,-99.1207481
15,Calle República de Brasil,06000,19.4358046,-99.1337264
30,Calle Bonampak,03600,19.3834746,-99.1518496
91,Calle Pensylvania,04030,19.3453732,-99.1511488
204,Calle Jaime Torres Bodet,06400,19.4517828,-99.1572289
866,Avenida Insurgentes Sur,03100,19.3874922,-99.1743158
866,Avenida Insurgentes Sur,03100,19.3875574,-99.1742912
866,Avenida Insurgentes Sur,03100,19.3876575,-99.1742658
129,Calle Morelos,05000,19.3502083,-99.3021998
105,Calle Lucas Alamán,06800,19.4207895,-99.1373039
33,Calle Aguascalientes,15530,19.4413002,-99.0787075
87,Calle Donceles,06020,19.4359137,-99.1335682
1433,Avenida Paseo Bosque de la Reforma,05129,19.3885518,-99.2629615
s/n,Calle Cuarta 553,07969,19.4527986,-99.0848805
1816,Avenida Canal de Miramontes,04200,19.3447833,-99.1370308
590,Calzada del Hueso,04920,19.3038631,-99.1212991
600,Prolongación Paseo de la Reforma,01210,19.3760630,-99.2571770
907,Avenida Horacio,11550,19.4344657,-99.1960008
60,Avenida Marina Nacional,11410,19.4534867,-99.1860239
193,Boulevard Miguel de Cervantes,11520,19.4414145,-99.1986051
59,Calle Marsella,06600,19.4254305,-99.1596522
3720,Boulevard Adolfo López Mateos,01900,19.3127666,-99.2190603
505,Avenida Santa Fe,05349,19.3581470,-99.2740923
5921,Avenida Tláhuac,09880,19.3187892,-99.0769900
37,Calle Presidente Venustiano Carranza,04020,19.3474443,-99.1610371
243,Calle Lago Zurich,11529,19.4446422,-99.2047507
32,Calle Arteaga,01000,19.3417220,-99.1934497
6730,Avenida Ingeniero Eduardo Molina,07460,19.4769861,-99.1000144
4687,Avenida Tláhuac,09880,19.3198034,-99.0825475
4749,Avenida Tláhuac,09880,19.3196572,-99.0816628
205,Avenida Monterrey,06700,19.4128127,-99.1630157
85,Avenida Hidalgo,06300,19.4376069,-99.1457344
66,Calle Manuel María Contreras,06470,19.4380447,-99.1649656
280,Colector 13,07760,19.4860422,-99.1309895
4,Calle Museo del Carmen,01000,19.3458744,-99.1896766
Calle General Antonio Leon 72,Calle General Antonio León,11850,19.4139178,-99.1857838
191,Calle Eligio Ancona,06400,19.4530180,-99.1594428
50,Calzada San Simón,06920,19.4581880,-99.1400704
205,Avenida Monterrey,06700,19.4131971,-99.1631332
610,Calzada Acoxpa,14390,19.2937750,-99.1269976
4,Calle Felipe Carillo Puerto,04000,19.3485688,-99.1631964
229,Avenida Patriotismo,03800,19.3963382,-99.1806597
9F,Calle Oscar Wilde,11550,19.4302372,-99.1969901
843 b,Avenida Ejército Nacional Mexicano,11520,19.4393996,-99.2018178
58,Naranjo,06400,19.4447331,-99.1596368
58,Calle Naranjo,06400,19.4457250,-99.1594809
324,Cto. Interior Melchor Ocampo,06500,19.4311027,-99.1725421
372,Avenida San Jerónimo,01900,19.3329964,-99.2009985
385,Calle Xicoténcatl,552845,19.3527941,-99.1641409
56,Calle Fernando Montes de Oca,06140,19.4131273,-99.1751918
1311,Gabriel Mancera,03104,19.3753670,-99.1675346
4,Callejón del 57,06000,19.4369810,-99.1392106
1,Avenida Ricardo Flores Magón,06900,19.4501760,-99.1377634
1,Avenida Ricardo Flores Magón,06900,19.4502974,-99.1379216
445,Montes Urales,11000,19.4280341,-99.2059438
40,Periférico Boulevard Manuel Ávila Camacho,11000,19.4293472,-99.2058986
40,Calle Oliver Goldsmith,11550,19.4305435,-99.2009788
390,Boulevard Puerto Aéreo,15530,19.4331898,-99.0895170
13,Avenida Lázaro Cárdenas,06050,19.4330033,-99.1413433
202,Avenida Querétaro,06700,19.4139788,-99.1638578
37-A,Calle Florencia,06600,19.4246806,-99.1666828
100,Avenida Nuevo León,06100,19.4112106,-99.1722752
24,Calle Praga,06600,19.4244757,-99.1694611
4,Calle Miguel Hidalgo,16450,19.2432725,-99.0925582
134,Calle Francisco Márquez,06140,19.4121514,-99.1797677
33,Calle Manzanillo,06700,19.4110031,-99.1661193
48,Calle Chiapas,06700,19.4133368,-99.1571128
213,Ciclovía Medellín,06700,19.4108366,-99.1645934
136-C,Calle Mérida,06700,19.4170746,-99.1567918
28-A,Avenida Yucatán,06700,19.4161390,-99.1661104
225,Avenida Querétaro,06700,19.4141377,-99.1644895
94,Calle General Juan Cano,11850,19.4113342,-99.1855532
15,Calle Goethe,11590,19.4286400,-99.1748678
55,Avenida Amsterdam,06100,19.4151400,-99.1696208
22 - A,Calle Río Sena,06500,19.4331158,-99.1675459
10,Calle Río Grijalva,06500,19.4338272,-99.1689716
68,Calle Río Nazas,06500,19.4319123,-99.1677678
116,Calle Manuel María Contreras,06470,19.4351379,-99.1657039
69,Calle Río Lerma,06500,19.4303233,-99.1652361
293,Avenida Álvaro Obregón,06700,19.4167519,-99.1684496
154,Calle Londres,06600,19.4243294,-99.1652900
76-A,Avenida 2,03800,19.3909342,-99.1840236
373,Calzada de los Misterios,07800,19.4684825,-99.1247430
39,Calzada Emilio Carranza,03560,19.3723213,-99.1400488
52,Avenida 5 de Mayo,06000,19.4342960,-99.1355022
2,Plaza de la Constitución,06000,19.4315263,-99.1339887
35,Calle Oxford,06600,19.4245388,-99.1691827
23,Calle Oxford,06600,19.4248371,-99.1693491
183,Calle Miguel Ángel,03510,19.3924037,-99.1359178
155,Avenida de las Américas,03510,19.3928386,-99.1352054
253,Abeladro Carrillo y Gariel,03520,19.3895124,-99.1350536
170,Miguel Angel,03510,19.3932546,-99.1355186
2811,Luis G. Inclán,03530,19.3885882,-99.1346784
754 Local 2,Calzada de Tlalpan,03520,19.3915438,-99.1380756
158 Local B,Playa Encantada,08830,19.3785409,-99.1279870
158 Local A,Playa Encantada,08830,19.3785406,-99.1279587
15 Local B,Playa Sur,08830,19.3788672,-99.1286645
13 Local A,Playa Sur,08830,19.3788980,-99.1287202
58,Calle Escocia,04040,19.3484022,-99.1472415
2503,Calle Rufino Blanco Fombona,03580,19.3903887,-99.1381716
20,Calle Mercaderes,03900,19.3645068,-99.1829136
3742,Norte 68,07880,19.4603935,-99.1100091
5213,Avenida Congreso de la Unión,07860,19.4643240,-99.1118571
5205,Avenida Congreso de la Unión,07860,19.4642165,-99.1118975
3313,Calle Oriente 91,07890,19.4605910,-99.1107470
139,Calle Anatole France,11550,19.4329943,-99.1973406
142,Calle Frontera,06700,19.4178170,-99.1554050
8,Calle Virginia Fábregas,06470,19.4428878,-99.1651580
151,Calle Jules Massenet,06220,19.4643924,-99.1384566
366,Avenida Monterrey,06760,19.4043086,-99.1606455
70,Correo Mayor,06060,19.4295234,-99.1303061
348,Calle Londres,04100,19.3540963,-99.1662337
97,Avenida Congreso de la Unión,07460,19.4818487,-99.1059895
756,Avenida Aquiles Serdán,02460,19.4864258,-99.1909491
107,Avenida Del Trabajo,06200,19.4518113,-99.1251000
750,Avenida Aquiles Serdán,02160,19.4863536,-99.1908960
96,Calle Gorostiza,06200,19.4515452,-99.1251361
39,Calle Zacatecas,06700,19.4166270,-99.1561491
489,Avenida Paseo de la Reforma,06500,19.4243519,-99.1747470
100,Avenida la Fortuna,07020,19.4803481,-99.1227130
235,Av. Xavier Sorondo,03520,19.3902567,-99.1355578
155,Jorge Washington,03510,19.3936033,-99.1344432
62,Napoleón,03210,19.3936064,-99.1344828
149,Calle Miguel Ángel,03510,19.3934890,-99.1357352
189,Calle Miguel Ángel,03510,19.3922888,-99.1359039
207,Av. Xavier Sorondo,03520,19.3913695,-99.1354184
71,Avenida Xavier Sorondo,03520,19.3913103,-99.1351703
3,Don Luis,03500,19.3799174,-99.1398456
1060,Calzada de Tlalpan,03500,19.3795270,-99.1398982
2,Don Luis,03500,19.3800235,-99.1396014
10,Don Luis,03500,19.3800124,-99.1395089
24,Don Luis,03500,19.3799574,-99.1390000
64,Calle Justina,03500,19.3798588,-99.1381101
1355,Av. Presidente Plutarco Elías Calles,03500,19.3779764,-99.1355116
528,Calle Playa Regatas,08840,19.3783685,-99.1289703
7,Don Luis,03500,19.3798924,-99.1395359
25,Calle Elena,03500,19.3784298,-99.1377828
20,Andador,08830,19.3791314,-99.1283328
31-B,Calle Playa Sur,08830,19.3790983,-99.1278242
26,Calle Playa Hornitos,08830,19.3794325,-99.1281250
519,Calle Playa Regatas,08830,19.3793915,-99.1290838
270,Xavier Sorondo,03520,19.3890527,-99.1355060
266,Xavier Sorondo,03520,19.3892008,-99.1354890
266,Xavier Sorondo,03520,19.3891733,-99.1354920
262,Xavier Sorondo,03520,19.3893507,-99.1354533
259,Xavier Sorondo,03520,19.3894475,-99.1356822
286,Xavier Sorondo,03530,19.3882827,-99.1355912
286,Xavier Sorondo,03530,19.3882444,-99.1355912
287,Manuel Gonzalez,06920,19.4566259,-99.1454387
716,Calle Rumania,03300,19.3641440,-99.1469761
25,Calle Playa Sur,08830,19.3787955,-99.1282030
15,Calle Playa Sur,08830,19.3788630,-99.1286244
11,Calle Justina,03500,19.3813018,-99.1347776
161,Calle Uxmal,03020,19.3956602,-99.1546170
1604,Xola,03023,19.3956951,-99.1507668
22,Calle Caravaggio,03700,19.3801491,-99.1884401
9C,Calle Santander,03920,19.3726401,-99.1797541
9B,Calle Santander,03920,19.3726556,-99.1798146
740,Avenida Colonia del Valle,03100,19.3906444,-99.1653806
75,Avenida Ribera de San Cosme,06400,19.4419953,-99.1606122
66,Avenida Talismán,07810,19.4773985,-99.1172786
3,Calle Cecilio Robelo,15960,19.4247615,-99.1180478
411,Calle Miguel Lerdo de Tejada,07140,19.5600625,-99.1326427
430,Prado Sur,11000,19.4215274,-99.2100667
31,retorno 1 de san luis potosí,09230,19.3823380,-99.0367024
418,Avenida Aztecas,04300,19.3231260,-99.1596991
9,Calle General Joaquín M. Gutiérrez,09100,19.3937851,-99.0497246
235,"Calzada de los Tenorios, 235 Col. Granjas Coapa",14330,19.2991977,-99.1191915
36,Calle Varsovia,06600,19.4243486,-99.1676778
199,Avenida Campos Elíseos,11550,19.4282896,-99.1925629
193,Avenida San Fernando,14050,19.2927997,-99.1682710
310,Avenida Montes Auvernia,11000,19.4097855,-99.2282845
Av. Santa Fé 170 4-20,"Lomas de Santa Fe, Alvaro Obregón",01210,19.3664514,-99.2605928
216,Avenida Ejército Nacional,11590,19.4358006,-99.1794019
35,Filosofía y Letras,04360,19.3341245,-99.1775747
35,Filosofía y Letras,04360,19.3341511,-99.1776067
3,Calle Veracruz,06140,19.4200632,-99.1766959
322,Calle Lerdo,06900,19.4541351,-99.1403548
3368,Avenida Cuitláhuac,02530,19.4688596,-99.1751865
81,Calle Maple,06430,19.4629212,-99.1467888
37,Calle Lago Wenner,11490,19.4445774,-99.1949226
41,Boulevard Miguel de Cervantes Saavedra,11520,19.4409104,-99.1935627
1425,Calz Taxqueña,04200,19.3409158,-99.1365247
410,Avenida Paseo de la Reforma,06600,19.4249519,-99.1706618
159,Calle Colima,06700,19.4201917,-99.1594758
179,Avenida Álvaro Obregón,06700,19.4177973,-99.1632850
264,Calle Puebla,06700,19.4213465,-99.1680938
1325,Calzada Ermita Iztapalapa,09000,19.3583277,-99.0895095
34,Salamanca,06700,19.4206071,-99.1698060
47,Calle Dinamarca,06600,19.4276186,-99.1589282
88,Calle Versalles,06600,19.4274794,-99.1556407
36,Calle Dante,11590,19.4253929,-99.1775397
25,Calle Tolstoi,11590,19.4251663,-99.1779027
70b,Calle Lucerna,06600,19.4300778,-99.1570918
318,Calle Lope de Vega,11560,19.4325398,-99.1871520
318,Calle Lope de Vega,11560,19.4325446,-99.1871337
64,Calle Lucerna,06600,19.4299227,-99.1567685
44,Calle Marsella,06600,19.4255622,-99.1583474
56,Calle Marsella,06600,19.4253508,-99.1590995
37,Calle Londres,06600,19.4279831,-99.1594064
86,Calle Nápoles,06600,19.4249652,-99.1589032
42,Calle Hamburgo,06600,19.4281428,-99.1603540
64,Calle Havre,06600,19.4257444,-99.1605942
222,Avenida Paseo de la Reforma,06600,19.4289050,-99.1621407
26,Calle Puebla,06700,19.4238426,-99.1553835
195,Calle Hamburgo,06600,19.4248673,-99.1680103
12,Calle Oxford,06600,19.4253765,-99.1694062
46,Calle Londres,06600,19.4272013,-99.1599784
52,Calle Turin,06600,19.4270448,-99.1556490
77,Calle Havre,06600,19.4251827,-99.1606959
77,Calle Havre,06600,19.4251475,-99.1607270
51,Calle Lucerna,06600,19.4300485,-99.1556876
51,Calle Lucerna,06600,19.4299588,-99.1557038
51,Calle Lucerna,06600,19.4300302,-99.1557814
51,Calle Lucerna,06600,19.4299948,-99.1557937
51,Calle Lucerna,06600,19.4299252,-99.1558053
51,Calle Lucerna,06600,19.4299606,-99.1558027
81,Calle Marsella,06600,19.4248913,-99.1608592
42,Calle Havre,06600,19.4265566,-99.1610026
15,Calle Versalles,06600,19.4317584,-99.1543399
20,Calle Génova,06600,19.4271301,-99.1642854
24,Calle Barcelona,06600,19.4280176,-99.1546543
92,Calle Versalles,06600,19.4273751,-99.1556885
21,Calle Oxford,06600,19.4249085,-99.1693848
167,Calle Londres,06600,19.4247002,-99.1660080
2,Calle Biarritz,06600,19.4236120,-99.1697923
