House number,Street name,Postal code,Latitude,Longitude
107,장안벚꽃로,2638,37.5657200,127.0709000
63,망원로2길,04015,37.5543430,126.9026560
141,구천면로,05246,37.5425685,127.1208241
55,지양로,08038,37.5205342,126.8344194
197,대림로,07412,37.4984130,126.8980401
15,동호로5길,04596,37.5521380,127.0122740
64,토성로,05537,37.5287140,127.1167720
115,삼각산로,01041,37.6409074,127.0170752
29,삼성로 (Samseongno),06324,37.4871750,127.0656130
18,오금로49길,05742,37.4971396,127.1386359
240,월드컵로,03932,37.5690697,126.8981957
4,방배로20길,06664,37.4855286,126.9952827
272,국회대로,07993,37.5295331,126.8653855
53,구일로10길,08323,37.4960021,126.8744130
5층,강서로52길 89,07646,37.5575150,126.8430930
764,금하로,08645,37.4494858,126.9148116
9,상도로53길 9,06971,37.4980652,126.9530400
302,난곡로,08772,37.4810030,126.9147870
385-1,사가정로,02228,37.5809400,127.0876450
313,가좌로,03441,37.5955436,126.9101078
381,사가정로,02228,37.5810230,127.0870212
174-1,이문로,02412,37.6021060,127.0621750
26,대림로,07070,37.4872880,126.9102520
753,삼성로,06067,37.5221599,127.0481431
4,삼성로147길,06063,37.5227108,127.0476695
198,시흥대로,08629,37.4510630,126.9014313
155,시흥대로,08638,37.4481465,126.9025676
98,관악로,08791,37.4739482,126.9534020
1643,남부순환로,08755,37.4850342,126.9331862
9,성산로20길,03727,37.5609067,126.9319741
310,동소문로,02733,37.6072380,127.0292462
133,이문로,02403,37.5985269,127.0612271
190,서오릉로,03335,37.6136607,126.9125367
97,통일로,03739,37.5635230,126.9674430
2,금호로11길,04723,37.5548231,127.0196947
38,대학5길,08814,37.4691755,126.9399582
12,증가로,03698,37.5695484,126.9316171
1,혜화로,03075,37.5858865,127.0007223
1309,양재대로,05408,37.5234197,127.1341970
18,퇴계로6길,04635,37.5574536,126.9784157
31,성북로2길,02833,37.5896475,127.0073882
127,통일로,03735,37.5659171,126.9660388
85,대림로,07444,37.4896990,126.9045881
306,연서로,03347,37.6226838,126.9275484
9,상일로,05283,37.5479293,127.1731448
352,고산자로,04748,37.5708913,127.0381931
34,거마로20길,05757,37.4964862,127.1498237
572,선릉로,06153,37.5095484,127.0444223
378,천호대로,04808,37.5616893,127.0608793
419,통일로,03646,37.5867139,126.9461142
640,뚝섬로,05100,37.5315073,127.0805619
258,세검정로,03018,37.6014000,126.9612795
458,강남대로,06123,37.5034023,127.0254123
128-8,다산로,04590,37.5549014,127.0112942
203,화랑로,02773,37.6087696,127.0524397
356,광나루로,05008,37.5479106,127.0694072
7,사가정로,02597,37.5705971,127.0490214
1218,양재대로,05649,37.5150373,127.1322169
424-9,구천면로,05292,37.5499148,127.1459899
49,율곡로,03060,37.5764717,126.9847985
161,여의대방로,07391,37.5015798,126.9205556
88,지봉로,03108,37.5780143,127.0155715
8,종로17길,03140,37.5707276,126.9889123
65,신길로,07425,37.4984369,126.9080030
240,사가정로,02526,37.5785843,127.0715932
143,모래내로,03712,37.5695070,126.9171510
239,역삼로,06225,37.4976682,127.0425534
207-1,종로,03129,37.5711747,127.0008836
67,성내로,05396,37.5279858,127.1276675
131,테헤란로,06133,37.5000770,127.0327990
"5, 1층",백제고분로42길,05666,37.5058895,127.1098693
212,학동로,06061,37.5140510,127.0324150
107 한국외국어대학교 인문과학관,이문로,02450,37.5978679,127.0574077
161,신촌로,03766,37.5569282,126.9438836
275,난곡로,08771,37.4785760,126.9149448
154-2,을지로,04549,37.5662151,126.9951726
266,신촌로,04116,37.5570998,126.9551538
187,오금로,05642,37.5089968,127.1151497
42,칠패로,04512,37.5594680,126.9735552
7,국회대로68길,07237,37.5294449,126.9194976
1841,남부순환로,08738,37.4808411,126.9547187
51-33,잠실로,05503,37.5131357,127.0943097
50,63로,07345,37.5197701,126.9397527
36,송파대로30길,05717,37.4957370,127.1210400
13,여의공원로,07235,37.5254260,126.9163510
508,언주로,06152,37.5037404,127.0428501
270,퇴계로,04618,37.5627356,127.0016472
34,거북골로,03674,37.5803622,126.9235338
26,경희대로,02447,37.5949432,127.0518155
30 명진관 지하1층,필동로1길,04620,37.5574893,127.0003480
1,관악로,08826,37.4597588,126.9509801
120,능동로,05029,37.5419683,127.0782159
50,연세로,03722,37.5635392,126.9383488
77 종합복지관 2층,정릉로,02707,37.6102921,126.9959431
20 사범대학관 지하 1층,홍지문2길,03016,37.6023628,126.9546011
124,서경로,02713,37.6152532,127.0113892
"101, 서울대학교병원 (신)본관 지하1층",대학로,03080,37.5793229,126.9995787
208,동남로,05783,37.4958000,127.1314365
28,아차산로7길,04795,37.5475240,127.0553660
37,영동대로96길,06172,37.5116520,127.0655074
214,양산로,07250,37.5223404,126.9065837
94,갈현로,03415,37.6063046,126.9107456
26,송이로,05674,37.5027708,127.1164085
38,남부순환로272길,08806,37.4748450,126.9782621
196,낙산길,03092,37.5813618,127.0120806
13,독립문공원길,03733,37.5719561,126.9583000
38-4,논현로38길,06300,37.4839740,127.0461120
46,신수로,04088,37.5457362,126.9344821
30,안암로9길,02858,37.5809016,127.0247913
434,독서당로,04741,37.5538495,127.0340619
173,독서당로,04734,37.5440580,127.0149050
635,삼성로,06091,37.5165462,127.0510977
2806,남부순환로,06292,37.4892322,127.0531499
332,압구정로,06018,37.5282746,127.0378675
11,양재대로102길,05361,37.5325982,127.1391202
261-28,연희로,03658,37.5798067,126.9345478
11-24,간호대로,03619,37.5959073,126.9479945
5,삼성로107길,06155,37.5114547,127.0534650
103,새말로,05808,37.4828914,127.1256013
46,테헤란로4길,06241,37.4954802,127.0307131
584,한천로,02781,37.6116442,127.0621802
191,성안로,05332,37.5401243,127.1364977
134,압구정로,06029,37.5243480,127.0235133
132,고덕로61길,05227,37.5605498,127.1515430
48,올림픽로4길,05571,37.5065585,127.0742749
422,영등포로,07354,37.5124288,126.9248446
620,강남대로,06035,37.5171349,127.0197490
23,다산로29길,04610,37.5612315,127.0126883
646,선릉로,06092,37.5143539,127.0434154
146,대림로,07422,37.4941686,126.9007813
39,종로41길,03125,37.5729089,127.0061043
37,연희로41길,03650,37.5903383,126.9352455
102,천중로51길,05296,37.5453686,127.1451881
4,문래로4길,07283,37.5203732,126.8835641
8,학동로4길,06110,37.5109147,127.0228955
88,올림픽로43길,05505,37.5273762,127.1093133
60,장위로,02744,37.6138082,127.0432559
3,신촌로4길,04056,37.5576348,126.9287057
80,광장로,04968,37.5477079,127.1060086
12,역삼로71길,06196,37.5026676,127.0545820
24,선유서로26길,07272,37.5238612,126.8884807
61,마천로,05657,37.5082130,127.1274505
8,논현로58길,06272,37.4920311,127.0419675
21,서소문로,03742,37.5625568,126.9666111
195,도신로,07313,37.5115278,126.9129942
277,갈현로,03320,37.6216288,126.9165808
328,종로,03121,37.5723754,127.0141811
6,개포로17길,06303,37.4789575,127.0465551
21,무학로10길,04707,37.5661891,127.0334142
23,강서로46길,07693,37.5510434,126.8373927
16,역삼로7길,06224,37.4953940,127.0331080
14,솔매로49길,01133,37.6270848,127.0270683
162,오패산로,01233,37.6161293,127.0337833
190,보문로,02847,37.5908535,127.0146619
176,자양로,05038,37.5424719,127.0856768
25,목동중앙로,07967,37.5324073,126.8683621
118,상계로,01696,37.6574780,127.0678994
28,동작대로17길,07014,37.4830287,126.9787672
52,동작대로29길,06997,37.4886397,126.9792570
86,사당로17길,07005,37.4866685,126.9720444
6,사당로16아길,07018,37.4809533,126.9716647
7,흥천사길,02825,37.5980185,127.0105689
33,정릉로38마길,02819,37.6014313,127.0166804
154,목동동로,08114,37.5192067,126.8706968
22,청구로8길,04610,37.5620641,127.0144930
85,다산로44길,04578,37.5650724,127.0218508
55,청구로3길,04591,37.5570674,127.0147029
18,뚝섬로3길,04780,37.5420670,127.0496432
9,행당로9길,04713,37.5582290,127.0293506
72,신대방길,07067,37.4889356,126.9100471
131,긴고랑로,04944,37.5590770,127.0894815
28,동일로76가길,04905,37.5688317,127.0801796
284,솔샘로,01202,37.6183081,127.0238655
255,인수봉로,01021,37.6414795,127.0106302
93-5,봉우재로,02139,37.5924400,127.0832470
397,면목로,02219,37.5873640,127.0874990
350,백범로,04368,37.5372658,126.9677293
142,조원로,08762,37.4854189,126.9181169
29,동일로157길,02008,37.6096085,127.0760267
94,구로동로28길,08312,37.4915913,126.8891239
18,마포대로7길,04142,37.5471157,126.9521891
5,왕산로43다길,02487,37.5862577,127.0472758
27,통일로34길,03632,37.5861065,126.9493764
17,강변역로,05047,37.5380399,127.0920061
22,위례성대로16길,05640,37.5109882,127.1239088
44,강남대로12길,06779,37.4705922,127.0412234
64,토성로,05537,37.5287330,127.1168060
41,바우뫼로,06737,37.4716352,127.0267078
34,우현로 (Uhyeon-ro),07690,37.5483601,126.8417581
32,송이로,05674,37.5023280,127.1166870
71,약령시로,02478,37.5831170,127.0378458
52,한천로18길,02628,37.5678250,127.0664420
230-1,사가정로,02526,37.5784903,127.0705968
18,한천로11길,02616,37.5674043,127.0613008
436,망우로,02176,37.5995549,127.1007209
235,영동대로,06283,37.5000671,127.0672774
275,국회대로,07966,37.5303010,126.8654190
12-1,갈현로 17나길(Galhyeon-ro 17na-gil),03429,37.6105130,126.9090868
176,율곡로 (Yulgok-ro),03127,37.5756480,126.9982870
261,풍성로,05371,37.5279735,127.1414364
14,뚝섬로3길,04780,37.5414231,127.0496315
21,녹사평대로26길,04390,37.5308549,126.9913066
1-13,성내천로6길,05728,37.5029313,127.1361242
2584,남부순환로 (Nambusunhwan-ro),06750,37.4836087,127.0327736
25,남부순환로391길,06280,37.4935481,127.0565636
66-12,창경궁로27길,03073,37.5842695,126.9965136
656,마들로,01331,37.6687691,127.0464912
217,목동중앙로,07969,37.5442270,126.8831853
10,헌릉로590길,06365,37.4640996,127.1027348
27,개포로124길,06339,37.4929458,127.0838194
14,삼성로,06331,37.4854800,127.0714813
11,삼성로 (Samseongno),06327,37.4845307,127.0669483
146길 3,언주로,06057,37.5198527,127.0350391
129,봉은사로,06121,37.5057809,127.0281405
212,삼성로,06284,37.4959854,127.0638734
511,영동대로,06164,37.5093758,127.0596764
28,논현로118길,06107,37.5102874,127.0351947
5,논현로102길,06136,37.5049936,127.0356373
26,학동로101길,06077,37.5223252,127.0573866
429,학동로,06068,37.5186258,127.0476723
2917,남부순환로,06280,37.4929498,127.0592055
20,양재대로55길,06341,37.4922058,127.0878218
303,광평로,06349,37.4886794,127.1050084
17,학동로43길,06058,37.5173754,127.0371963
616,봉은사로,06170,37.5143705,127.0626753
25,학동로20길,06115,37.5115546,127.0284464
419,봉은사로,06097,37.5111921,127.0459885
19,남부순환로391길,06280,37.4932911,127.0568027
24,영동대로65길,06187,37.5023067,127.0642127
79,논현로,06307,37.4769862,127.0449161
419,강남대로,06614,37.4997636,127.0261350
110,방배로,06665,37.4840252,126.9962639
131,방배로,06672,37.4856182,126.9947231
116,서초대로,06664,37.4879071,126.9951082
20,중대로,05834,37.4901392,127.1116023
103,디지털로33길 55 이앤씨벤처드림타워2차,08376,37.4867765,126.8929338
44,망우로18다길,02498,37.5853085,127.0609235
453-19,천호구길 (Cheonhogugil),123111,37.5383147,127.1275827
390,사가정로,02238,37.5805012,127.0878984
17,서초대로46길,06646,37.4916151,127.0103287
208,동교로,03994,37.5585615,126.9236259
81,월드컵로,04012,37.5561183,126.9097707
15,월드컵북로15안길,03966,37.5630984,126.9115733
16,강남대로162길,06027,37.5198521,127.0198999
7-16,남부순환로364길,06739,37.4847147,127.0411010
26,경희대로,02447,37.5965253,127.0501230
216,퇴계로,04625,37.5613523,126.9956963
216,퇴계로,04625,37.5613704,126.9958139
212,퇴계로,04625,37.5611592,126.9953237
30,필동로1길,04620,37.5587539,126.9994637
30,필동로1길,04620,37.5586062,126.9997319
41,대사관로11길,04400,37.5355468,127.0017483
1,종로,03154,37.5710655,126.9780349
3,성균관로5가길,03073,37.5841213,126.9970366
2406,남부순환로,06757,37.4793972,127.0136949
2406,남부순환로,06757,37.4792886,127.0118321
160,서운로,06616,37.4976154,127.0240653
27,강남대로61길,06616,37.4983439,127.0237479
8-7,백범로1길,04102,37.5541044,126.9378324
144,마포대로,04212,37.5468530,126.9536099
278,벚꽃로,08511,37.4792218,126.8850109
2406,남부순환로,06757,37.4785521,127.0126322
10,소월로,04527,37.5585473,126.9754142
53,양천로47나길,07521,37.5729736,126.8398458
402,개포로 (Gaepo-ro),06324,37.4849152,127.0583211
87,개포로22길 (Gaepo-ro 22-gil),06311,37.4754206,127.0529443
212,올림픽로,05553,37.5115825,127.0942675
64,동교로23길,03991,37.5585689,126.9189146
510,개포로,06329,37.4893166,127.0682304
512,개포로,06329,37.4893719,127.0689278
40,삼성로,06329,37.4889573,127.0666701
508,개포로,06329,37.4892527,127.0678147
28,동교로47길,03983,37.5642143,126.9242562
26,용마산로22길,04939,37.5638447,127.0894276
37,황새울로311번길,13590,37.5354236,127.0679852
65,개포로22길 (Gaepo-ro 22-gil),06311,37.4754329,127.0508167
105,언주로 (Eonju-ro),06305,37.4819726,127.0529454
107,언주로 (Eonju-ro),06305,37.4830327,127.0524333
310,개포로 (Gaepo-ro),06321,37.4833807,127.0570683
303,개포로 (Gaepo-ro),06320,37.4819078,127.0547505
110,언주로 (Eonju-ro),06317,37.4832775,127.0528275
6,논현로6길,06313,37.4730384,127.0502358
23,논현로6길,06314,37.4739902,127.0511503
86,개포로22길,06314,37.4748704,127.0524486
3,언주로 (Eonju-ro),06316,37.4763466,127.0581252
29,논현로10길,06312,37.4752458,127.0504947
66,논현로,06307,37.4760454,127.0466432
47,개포로28길,06311,37.4769917,127.0518118
36,새문안로3길 (Saemunan-ro 3-gil),03173,37.5735541,126.9729196
42,Sajik-ro-8-gil (사직로8길),03173,37.5739513,126.9731797
30,새문안로3길 (Saemunan-ro 3-gil),03173,37.5728814,126.9729024
103,선릉로 (Seolleungno),06318,37.4855114,127.0571991
401,개포로 (Gaepo-ro),06323,37.4851721,127.0579244
409,개포로 (Gaepo-ro),06323,37.4874067,127.0619321
411,개포로 (Gaepo-ro),06323,37.4878847,127.0628917
48,선릉로 (Seolleungno),06325,37.4835518,127.0596915
50,선릉로 (Seolleungno),06325,37.4836937,127.0595095
38,선릉로 (Seolleungno),06325,37.4830356,127.0603250
30,선릉로 (Seolleungno),06325,37.4824597,127.0611172
17,삼성로4길,06329,37.4866849,127.0689592
117,언주로 (Eonju-ro),06299,37.4862066,127.0505703
7,강남대로65길,06614,37.5002591,127.0253065
26,도산대로68길,06064,37.5217419,127.0447156
22,목동서로2길,07979,37.5424538,126.8815961
7,노원로26가길,01705,37.6531065,127.0695620
658,경리단길 (KyeongRiDanGil),04343,37.5385693,126.9876183
14,자양로13나길,05057,37.5339855,127.0802817
2길 20,왕십리로,04779,37.5429945,127.0469031
30,종로58길,03114,37.5721234,127.0174213
8,강남대로84길,06241,37.4965214,127.0293389
42,대사관로,04402,37.5334155,127.0027578
98,한남대로,04418,37.5373786,127.0051141
54-3,이태원로27가길,04350,37.5349347,126.9920648
3,홍익로,04040,37.5529801,126.9238747
4,와우산로21길,04040,37.5526962,126.9237044
91,와우산로,04040,37.5527196,126.9238627
91,와우산로,04040,37.5527090,126.9238264
93,와우산로,04040,37.5527696,126.9239726
1,홍익로,04040,37.5528642,126.9240289
5-1,홍익로,04040,37.5531789,126.9236347
5,홍익로,04040,37.5531204,126.9237527
7,홍익로,04040,37.5532789,126.9235314
7,홍익로,04040,37.5532746,126.9235046
9,홍익로,04040,37.5533682,126.9234375
9,홍익로,04040,37.5533597,126.9234161
9-1,홍익로,04040,37.5534500,126.9233799
9-1,홍익로,04040,37.5534373,126.9233584
11,홍익로,04040,37.5535276,126.9232739
19,홍익로,04040,37.5540911,126.9225511
20-23,갈현로 15길 (Galhyeon-ro 15-gil),03429,37.6093882,126.9090068
188,서오릉로 (Seooreungno),03335,37.6135896,126.9128277
47,서오릉로 21길(Seooreung-ro 21-gil),122807,37.6119251,126.9063290
48,서오릉로 21길(Seooreung-ro 21-gil),122807,37.6124481,126.9060098
61,남대문시장길,04529,37.5607198,126.9793989
35,서초대로75길,06612,37.5005677,127.0248870
11,연희로,03985,37.5598179,126.9263537
15,충무로,04554,37.5625845,126.9927286
22,이태원로17길 x,04351,37.5352401,126.9915552
274,이촌로,04426,37.5187125,126.9770602
17,한남대로42나길,04417,37.5435738,127.0032820
306,관악로,08730,37.4910484,126.9569073
30,서오릉로 13길(Seooreung-ro 13-gil),03410,37.6105403,126.9125512
109,갈현로 (Galhyeon-ro),03429,37.6076588,126.9106937
201,서오릉로 (Seooreungno),03426,37.6137269,126.9110982
278,벚꽃로,08511,37.4796265,126.8846365
543,논현로,06126,37.5048060,127.0349421
35,연희로,03982,37.5619215,126.9270348
6,율곡로,03142,37.5754455,126.9806886
3,큰우물로,04150,37.5453295,126.9402593
67,선유서로 (Seonyuseo-ro),07278,37.5221322,126.8847125
249,동호로,04605,37.5558805,127.0051752
23,언남길,06780,37.4720917,127.0406975
25-1,포은로,04021,37.5521877,126.9068456
100,퇴계로,04631,37.5602936,126.9829510
684,통일로 (Tongil-ro),03371,37.6088708,126.9339540
26-19,남대문로1길,04526,37.5623513,126.9783532
263,섬밭로 (Seombat-ro),01774,37.6390543,127.0638779
30,갈현로 11길 (Galhyeon-ro 11-gil),03428,37.6051764,126.9075044
21-15,정동길,04518,37.5674284,126.9711270
234,녹사평대로 (Noksapyeong-daero),04343,37.5385579,126.9871146
247,장충단로 (Jangchungdan-ro),04564,37.5664787,127.0071599
66,구로중앙로28길,08299,37.5001593,126.8892945
36,삼성로147길,06063,37.5206109,127.0464997
573,천호대로,04929,37.5566486,127.0819388
10,천호대로109길,04929,37.5572961,127.0811367
63,아차산로17길,04799,37.5478195,127.0660598
324,광나루로,04799,37.5480081,127.0658219
57,아차산로17길,04799,37.5474684,127.0660841
117,능동로13길,05013,37.5465037,127.0674865
166,동일로,05007,37.5468672,127.0669051
392,광나루로,05009,37.5473263,127.0731967
24,보국문로29길,02705,37.6154727,127.0027037
223,거북골로 (Geobukgol-ro),03713,37.5797879,126.9066300
1050,통일로,03306,37.6383051,126.9178680
1050,통일로,03306,37.6367996,126.9179631
12,진관2로,03311,37.6343800,126.9187833
12,사직로1다길,03026,37.5741300,126.9629862
16,사당로17가길,07004,37.4838921,126.9731199
16,사당로17가길,07004,37.4837984,126.9733721
168,고덕로,05257,37.5545076,127.1441089
5,동남로75길,05269,37.5541673,127.1562194
1050,통일로,03306,37.6385806,126.9182379
48-25,진관4로,03303,37.6442832,126.9291185
48-25,진관4로,03303,37.6441657,126.9289290
11,동일로237가길,01612,37.6743446,127.0537016
164,고산자로,04746,37.5548293,127.0347912
121,허준로,07525,37.5653850,126.8538288
12,장문로 (Jangmun-ro),04393,37.5290421,126.9918051
12-9,방배천로,06693,37.4775398,126.9834888
11,상암로4가길,05242,37.5500413,127.1257384
261,덕릉로,01469,37.6408037,127.0398621
19,덕릉로63길,01469,37.6421503,127.0402778
19,덕릉로63길,01469,37.6420738,127.0401893
22,동호로11길,04598,37.5543577,127.0095725
94-4,논현로27길,06748,37.4779534,127.0399803
26-4,가마산로20가길,08284,37.4935360,126.8873122
51,디지털로32가길,08395,37.4812333,126.8978363
11,가마산로20나길,08284,37.4931035,126.8866275
602,선릉로,06097,37.5106348,127.0440021
30-13,연서로29길,03330,37.6204676,126.9173382
24-9,통일로83길,03329,37.6208158,126.9170721
873,통일로,03330,37.6209036,126.9196270
10,연서로27길,03331,37.6180348,126.9184422
18-1,갈현로36길,03329,37.6216991,126.9187162
171,학동로,06046,37.5124711,127.0313936
28,효령로77길,06627,37.4914623,127.0291227
25,공항대로2길,07622,37.5603892,126.8087674
92,초안산로2길,01867,37.6326453,127.0573631
1층,반포대로24길,06617,37.4891272,127.0116240
319,봉은사로,06143,37.5099037,127.0419072
288,난곡로,08772,37.4797198,126.9151237
5,난곡로64길,08772,37.4856838,126.9039975
1474,남부순환로,08771,37.4814467,126.9142517
6,난곡로58길,08772,37.4797399,126.9154443
201,시흥대로,08632,37.4516046,126.9013081
26,덕릉로 83길,01662,37.6602235,127.0739955
384,한글비석로 (Hangeulbiseok-ro),01662,37.6595646,127.0731058
383,한글비석로 (Hangeulbiseok-ro),01699,37.6593495,127.0728854
69,사당로17길,07003,37.4861375,126.9724658
14,포은로,04026,37.5495074,126.9092259
32,천왕로32,08364,37.4803508,126.8397388
36,신림로11길,08814,37.4688559,126.9385180
179,월드컵북로,03947,37.5676913,126.9085143
287,왕십리로,04744,37.5598533,127.0362594
702,올림픽로,05244,37.5440238,127.1256481
13,가좌로7다길,03483,37.5846992,126.9182457
39,신림로3길,08825,37.4675347,126.9446500
16,난곡로52길,08772,37.4782738,126.9161957
14,효령로18길,06697,37.4787939,126.9919905
149,국사봉1길,07043,37.4955541,126.9335958
32-2,방배천로6길,06692,37.4792491,126.9844091
18,방배천로16길,06677,37.4819478,126.9837912
96,화곡로63길,07588,37.5588691,126.8479410
117,방학로3길,01395,37.6579935,127.0389254
33-6,도봉로123길,01440,37.6529303,127.0348250
2,신도림로,08212,37.5055651,126.8772632
2,신도림로,08212,37.5055902,126.8773044
750,금하로 (Geumha-ro),08645,37.4499228,126.9128334
750,금하로 (Geumha-ro),08645,37.4499205,126.9127749
726,금하로,08644,37.4504764,126.9102948
22,신반포로33길,06522,37.5099064,127.0109987
16,시흥대로90길,08620,37.4613517,126.8988972
359,한글비석로 (Hangeulbiseok-ro),01699,37.6575298,127.0748256
369,한글비석로 (Hangeulbiseok-ro),01699,37.6583614,127.0740242
698,덕룡로,01715,37.6597818,127.0755910
361,한글비석로 (Hangeulbiseok-ro),01699,37.6579363,127.0746920
3,한글비석로 (Hangeulbiseok-ro) 15길,01699,37.6580860,127.0744982
699,덕릉로,01662,37.6598865,127.0752151
25,덕릉로82길,01715,37.6584336,127.0767632
12,덕릉로 83길,01662,37.6599896,127.0747490
690,덕릉로,01715,37.6591753,127.0756618
688,덕릉로,01715,37.6589343,127.0756350
15,시흥대로88가길,08620,37.4615548,126.9000710
15-8,송파대로36가길,05678,37.5001466,127.1159559
5,영동대로3길,06331,37.4882475,127.0738598
9,영동대로3길,06331,37.4880024,127.0736984
2,신도림로,08212,37.5055085,126.8772660
340,목동서로 (Mokdongseoro),08089,37.5186031,126.8607214
6,효창목길,04186,37.5470984,126.9585680
32,연세로7길,03789,37.5577148,126.9349834
129,다산로,04598,37.5553370,127.0107752
25,방학로15길,01362,37.6604397,127.0242893
25,방학로15길,01362,37.6603874,127.0243196
19,방학로15길,01362,37.6606496,127.0243837
34,삼양로19길,01199,37.6151215,127.0207348
131,수명로1길,07630,37.5541585,126.8257048
16,연서로41길,03338,37.6263847,126.9272304
22-5,난곡로15길,08858,37.4676411,126.9192579
297,강서로 (Gangseo-ro),07639,37.5524189,126.8359906
289,강서로 (Gangseo-ro),07639,37.5516136,126.8360373
281,강서로 (Gangseo-ro),07639,37.5509250,126.8359859
277,강서로 (Gangseo-ro),07639,37.5504473,126.8360560
271,강서로 (Gangseo-ro),07639,37.5500853,126.8360751
271,강서로 (Gangseo-ro),07639,37.5498261,126.8360775
267,강서로 (Gangseo-ro),07639,37.5497037,126.8360897
267,강서로 (Gangseo-ro),07639,37.5494687,126.8360937
267,강서로 (Gangseo-ro),07639,37.5496421,126.8359830
267,강서로 (Gangseo-ro),07639,37.5495051,126.8359830
259,강서로 (Gangseo-ro),07639,37.5489491,126.8360704
259,강서로 (Gangseo-ro),07639,37.5488234,126.8360725
14,강서로45길,07639,37.5480844,126.8354557
14,강서로45길,07639,37.5480823,126.8354134
28,강서로45길,07639,37.5480329,126.8347400
46,강서로45길,07639,37.5480434,126.8336779
18,강서로45길,07639,37.5483270,126.8354749
263-24,강서로 (Gangseo-ro),07639,37.5494422,126.8348284
36,강서로45라길,07639,37.5492972,126.8343203
301,강서로47길,07632,37.5527331,126.8361335
337,강서로 (Gangseo-ro),07632,37.5559123,126.8371275
46,강서로47길,07633,37.5529794,126.8336130
54,강서로47길,07633,37.5531474,126.8333072
25,강서로47길,07638,37.5526590,126.8348183
36,강서로47길,07633,37.5529242,126.8342715
38,강서로47가길,07639,37.5508899,126.8355421
35,강서로45라길,07638,37.5493248,126.8341003
118,강서로45길,07638,37.5505101,126.8316945
31,강서로47라길,07638,37.5517317,126.8326015
35,강서로47길,07638,37.5527197,126.8342327
67,강서로47길,07638,37.5529102,126.8324364
72,강서로47길,07633,37.5531374,126.8321899
86,강서로47길,07633,37.5531960,126.8314073
174,강서로45길,07638,37.5528760,126.8306063
174,강서로45길,07638,37.5526196,126.8307172
108,강서로47길,07634,37.5535087,126.8300732
108,강서로47길,07634,37.5535331,126.8299469
165,강서로47길,07635,37.5533939,126.8270107
165,강서로47길,07635,37.5534989,126.8269275
165,강서로47길,07635,37.5534891,126.8270138
68-35,수명로,07635,37.5528329,126.8268334
68-23,수명로,07635,37.5525628,126.8265920
68-27,수명로,07635,37.5527287,126.8266510
68-35,수명로,07635,37.5531646,126.8267717
72,수명로,07635,37.5523523,126.8260931
72,수명로,07635,37.5524310,126.8262138
80,수명로,07635,37.5532646,126.8264015
80,수명로,07635,37.5531731,126.8263801
78,수명로,07635,37.5530264,126.8263533
74,수명로,07635,37.5526394,126.8262272
74,수명로,07635,37.5525586,126.8261870
110,수명로1길,07643,37.5536454,126.8255085
31,수명로,07644,37.5498057,126.8233021
188,남부순환로,07506,37.5485936,126.8196811
36,마곡중앙로 (Magokjungang-ro),07811,37.5571764,126.8269654
33,마곡중앙로 (Magokjungang-ro),07630,37.5576498,126.8261625
33,마곡중앙로 (Magokjungang-ro),07630,37.5592126,126.8264048
33,마곡서로 (Magokseo-ro),07810,37.5574594,126.8224837
49-4,강서로45길,07640,37.5476578,126.8330813
111,송파대로,05837,37.4821235,127.1238883
7-19,증산로5길,03499,37.5828170,126.9076531
25,신촌로,03785,37.5580612,126.9295075
24,목동동로10길,08014,37.5194505,126.8723462
17,갈현로 17길(Galhyeon-ro 17-gil),03429,37.6115078,126.9092329
78,서오릉로,03395,37.6072752,126.9223751
48,올림픽로4길,05571,37.5072008,127.0743561
48,올림픽로4길,05571,37.5065605,127.0742859
50,동호로15길,04604,37.5543101,127.0083037
B동 5층 525호,서부샛길,606,37.4801739,126.8771231
241,마천로,05733,37.4995261,127.1444256
241,마천로,05733,37.4995719,127.1445286
932,양재대로,05699,37.4964535,127.1134771
24,사가정로53길,02213,37.5817165,127.0893071
73,오현로25다길,01149,37.6260552,127.0337634
18,강서로45라길,07639,37.5486012,126.8340756
30,강서로47길,07633,37.5528843,126.8345301
36,강서로45라길,07639,37.5492979,126.8345201
6,강서로47가길,07639,37.5523901,126.8354881
174,강서로45길,07638,37.5530778,126.8306695
169,강서로47길,07635,37.5535071,126.8267693
76,수명로,07635,37.5528071,126.8263639
26,강서로47길,07633,37.5528632,126.8347365
36,강서로47길,07633,37.5530133,126.8342834
301,강서로47길,07632,37.5528451,126.8361537
233,하늘길,07505,37.5528678,126.8122268
233,하늘길,07505,37.5529969,126.8120852
41,동작구 국사봉길,07042,37.4978787,126.9300558
1,동작구 국사봉5길,07043,37.4977787,126.9303078
7,국사봉5길,07043,37.4978049,126.9306173
68,고산길,04108,37.5544614,126.9406526
11,당산로28길,07264,37.5248230,126.8979049
4,영산로23길,07264,37.5243054,126.8976057
407,백제고분로,05621,37.5075302,127.1099770
9,백제고분로44길,05665,37.5072797,127.1117538
40,송파대로42길,05665,37.5067687,127.1113615
5,백제고분로42길,05666,37.5060183,127.1096884
422,송파대로,05667,37.5049648,127.1078371
4,백제고분로46길,05665,37.5085188,127.1118296
405,백제고분로,05621,37.5073897,127.1098151
8-23,백제고분로46길,05665,37.5073850,127.1115539
1010,통일로 (Tongil-ro),03311,37.6327985,126.9188351
30,월곡로 11길 (Wolgok-ro 11-gil),02799,37.6008525,127.0393512
42,월곡로 (Wolgok-ro),02796,37.5962107,127.0391146
215,밤고개로 (Bam Hill-ro),06370,37.4749563,127.1067921
252,밤고개로 (Bam Hill-ro),06377,37.4717327,127.1069645
58,구로중앙로18길,08303,37.4959544,126.8922492
29-7,연서로13길,03414,37.6097321,126.9127859
19,신대방1가길,07073,37.4868085,126.9090127
26,신대방1나길,07073,37.4864350,126.9076488
23,신대방길,07070,37.4879699,126.9112878
658,시흥대로,07069,37.4904409,126.9080396
36,신대방길,07067,37.4880477,126.9103812
40,발산로 (Balsan-ro),07644,37.5509853,126.8187818
13,한남대로20길,04401,37.5347547,127.0075563
184,가산디지털2로,08501,37.4843809,126.8779206
219,가산디지털1로,08501,37.4844273,126.8793889
16,구천면로42길,05310,37.5460475,127.1350081
334,모래내로,03658,37.5801524,126.9341838
333,모래내로 (Moraenae-ro),03654,37.5804075,126.9337815
298,연희로 (Yeonhui-ro),03653,37.5836129,126.9362008
575,올림픽로,05520,37.5333141,127.1212221
24-1,돈화문로,03139,37.5707736,126.9920591
390,백제고분로,05667,37.5059960,127.1091389
"441 (능동, 육영재단어린이회관)",광나루로,04991,37.5468262,127.0766379
19-11,선릉로132길,06066,37.5196197,127.0466959
28,삼성로135길,06067,37.5198989,127.0470416
42,삼성로135길,06066,37.5198890,127.0456666
14,위례성대로22가길,05654,37.5090455,127.1327447
202,위례성대로,05654,37.5092276,127.1330903
206,위례성대로,05654,37.5090271,127.1334108
196,위례성대로,05654,37.5094052,127.1326518
198,위례성대로,05654,37.5092810,127.1328425
192,위례성대로,05654,37.5095183,127.1322503
194,위례성대로,05654,37.5094498,127.1323848
188,위례성대로,05654,37.5096186,127.1321058
91,관천로,08704,37.4864835,126.9226389
43,월정로,07900,37.5437856,126.8282625
110-1,관악로,08791,37.4751349,126.9531335
14,월정로50길,07903,37.5417111,126.8317046
270,월정로 (Woljeong-ro),07903,37.5414822,126.8304523
11,월정로46길,07903,37.5409886,126.8333573
13,화곡로13길,07903,37.5405692,126.8334951
9,월정로42길,07903,37.5404318,126.8333556
123,동남로83길,1234,37.5605079,127.1535165
123,아리수로64길,1234,37.5606521,127.1538675
123,동남로85길,1234,37.5607901,127.1535806
1231,아리수로66길,1234,37.5607687,127.1552536
764,금하로,08645,37.4496013,126.9144265
50-1,연세로,03722,37.5609750,126.9382960
4,방화대로6바길,07645,37.5547334,126.8191514
38,백제고분로45길,05618,37.5108220,127.1075663
38,백제고분로45길,05618,37.5109187,127.1077168
4-9,오금로18길,05619,37.5103181,127.1102690
56,독산로8길,08649,37.4478725,126.9075220
54,독산로8길,08649,37.4479678,126.9074684
56-2,독산로8길,08649,37.4478395,126.9073982
136-2,화곡로68길,07565,37.5563547,126.8611396
275,장충단로 (Jangchungdan-ro),04563,37.5686230,127.0087204
254,강서로 (Gangseo-ro),07691,37.5487080,126.8367143
254,강서로 (Gangseo-ro),07691,37.5482310,126.8367244
254,강서로 (Gangseo-ro),07691,37.5484905,126.8367143
254,강서로 (Gangseo-ro),07691,37.5481601,126.8368200
26,우현로 (Uhyeon-ro),07690,37.5477336,126.8431436
242,강서로 (Gangseo-ro),07694,37.5474357,126.8366692
242,강서로 (Gangseo-ro),07694,37.5470489,126.8366651
242,강서로 (Gangseo-ro),07694,37.5476710,126.8366692
7,증산로5길,03500,37.5826282,126.9070997
22,방화대로6마길,07645,37.5540137,126.8178639
1,방화대로6나길,07645,37.5550405,126.8168590
26,방화대로6라길,07645,37.5561439,126.8185433
202,시흥대로,08629,37.4519455,126.9019957
210,시흥대로,08628,37.4526299,126.9018445
26,망원로8길,04010,37.5563024,126.9060720
256,수색로 (Susaengno),03502,37.5822603,126.8957447
214,시흥대로,08628,37.4539727,126.9012257
214,시흥대로,08628,37.4529690,126.9016424
214,시흥대로,08628,37.4529821,126.9017239
201,시흥대로,08632,37.4523108,126.9010315
267,증산로,03500,37.5818581,126.9070799
261-5,증산로,03500,37.5816457,126.9064021
11,증산로5길,03500,37.5828360,126.9068629
75,증산서길,03493,37.5833122,126.9062252
70,증산서길,03500,37.5827042,126.9058832
69,증산서길,03493,37.5827848,126.9057229
64,증산서길,03500,37.5823819,126.9055966
64,증산서길,03500,37.5823306,126.9056891
62,증산서길,03500,37.5822232,126.9054765
64,증산서길,03500,37.5823648,126.9056336
64-7,증산서길,03500,37.5822378,126.9058246
55-1,임정로,04209,37.5447007,126.9578510
325-9,천중로21 강변파크빌 102호,05244,37.5457898,127.1243166
62,보라매로,08709,37.4934717,126.9276244
33,낙성대역4길,08793,37.4744201,126.9606540
60,성지3길,15231,37.5461321,126.9161857
55,우정국로,03144,37.5744002,126.9821168
55-1,임정로,04209,37.5445252,126.9577940
632,뚝섬로,05100,37.5318248,127.0797892
587,뚝섬로,05068,37.5334098,127.0755591
452,강남대로,06123,37.5028370,127.0257105
221,서운로,06608,37.5022874,127.0204439
37-6,잠원로,06511,37.5082464,127.0057112
95,시흥대로41길,08635,37.4506703,126.9000906
23,시흥대로51길,08635,37.4508625,126.9001756
179,시흥대로,08636,37.4500066,126.9019288
179,시흥대로,08636,37.4498107,126.9020042
45,시흥대로47길,08634,37.4497140,126.8994776
81,시흥대로,08640,37.4412362,126.9029299
77,시흥대로,08640,37.4409547,126.9030782
70,시흥대로73길,08611,37.4565132,126.8957944
47,선릉로162길,06015,37.5261781,127.0444411
146,어울마당로,04053,37.5562675,126.9260884
135-2,능동로,05011,37.5430604,127.0717952
23,강남대로61길,06616,37.4981776,127.0243996
201,압구정로,06004,37.5303548,127.0296135
10,서초대로71길,06616,37.4980652,127.0248782
37,월드컵로,04023,37.5524336,126.9116508
23,이화여대5길,03766,37.5583253,126.9447063
11,이문로1길,02461,37.5885816,127.0526949
21,이태원로19길,04351,37.5353410,126.9915967
51,성수이로,04781,37.5401115,127.0550969
1층,개포로,06339,37.4953499,127.0853829
1층,영동대로,06283,37.4991175,127.0679940
570,송파대로,05510,37.5157687,127.0990767
19 상암디지털드림타워,월드컵북로56길 (Worldcupbuk-ro 56-gil),03923,37.5823308,126.8884356
7,백제고분로36가길,05614,37.5038631,127.1011748
135-9,창경궁로,03136,37.5745871,126.9968647
67,"Usadan-ro 10-gil, Yongsan-gu, Seoul, Korea",04408,37.5323687,126.9991105
22,우사단로10길,04407,37.5330861,126.9967633
3,서초대로,06655,37.4906798,127.0059522
41,성촌6길,06765,37.4673059,127.0228820
62,태봉로,06764,37.4639736,127.0248775
202,퇴계로,04625,37.5609235,126.9939069
1,종로,03154,37.5711844,126.9778484
1,종로,03154,37.5710610,126.9778578
38,위례성대로,05627,37.5157618,127.1163025
41,망우로18다길,02498,37.5854755,127.0609975
573,천호대로,04929,37.5565407,127.0818132
174,사임당로,06627,37.4923360,127.0286130
9,Hakdong-ro 3-gil,06044,37.5121070,127.0223316
14,Seolleung-ro 125-gil,06099,37.5148802,127.0408308
30-1,Teheran-ro 14-gil,06239,37.4974063,127.0334001
13,Eonju-ro 30-gil,06292,37.4883726,127.0514976
309,강남대로,06628,37.4902702,127.0304849
12,Nonhyeon-ro 38-gil,06296,37.4851034,127.0426693
343,강남대로,06626,37.4935291,127.0292808
4층,충무로7길,04542,37.5656643,126.9916515
8,Nonhyeon-ro 101-gil,06126,37.5046177,127.0343423
19,월드컵북로56길 (Worldcupbuk-ro 56-gil),03923,37.5824001,126.8883303
249,동호로,04605,37.5555154,127.0051801
3,상암로 41길,05307,37.5463448,127.1413767
194,서운로,06613,37.5004769,127.0231621
197,서운로,06608,37.4999858,127.0214972
197,서운로,06608,37.5010681,127.0232184
8-12,연남로3길,03988,37.5618256,126.9216865
364,사평대로,06611,37.5037619,127.0231999
447,강남대로,06611,37.5021617,127.0250251
27,관악로30길,08734,37.4867633,126.9601186
31,청룡길,08786,37.4803369,126.9460898
3,청룡5길,08786,37.4807062,126.9462588
22,청룡3길,08786,37.4805849,126.9474604
16,천호대로155길,05329,37.5387231,127.1261732
27,청룡길,08786,37.4804687,126.9461121
29,청룡길,08786,37.4804043,126.9460979
33,녹번로,03380,37.6051020,126.9284111
22 3층,독산로85길,08543,37.4725106,126.9019949
22,선릉로157길,06018,37.5262998,127.0381819
35-10,증산로15길,03448,37.5895227,126.9078966
20-2,연서로 11길,03413,37.6087002,126.9135449
34,솔샘로15다길,02708,37.6106221,127.0038435
156,와우산로,04061,37.5548205,126.9303371
300,디지털로,08379,37.4845924,126.8963929
47,삼일대로30길,03132,37.5744505,126.9903077
81,동일로173가길,01856,37.6218908,127.0724119
50,양녕로,08747,37.4865028,126.9471127
20,강서로16길,07757,37.5328057,126.8473930
383,구천면로,05257,37.5508644,127.1413822
22,방배로26길,06588,37.4893048,126.9941673
16,방배로28길,06586,37.4903180,126.9930990
57,서초대로27길,06586,37.4904881,126.9934333
4,천호대로,02586,37.5749195,127.0239803
511,개포로,06328,37.4897742,127.0691197
330,방화대로,07597,37.5704296,126.8170135
31,진관2로,03306,37.6349044,126.9210617
12,성내로,05398,37.5302004,127.1218657
428,강남대로,06129,37.5007387,127.0267002
320-28,동호로,04615,37.5625535,127.0027683
27,대사관로11길,04400,37.5349600,127.0016191
74,원효로,04365,37.5322848,126.9520197
117,논현로,06746,37.4803091,127.0433520
44,망우로18다길,02498,37.5853687,127.0609020
23-15,한강대로7길,04380,37.5246643,126.9600424
3,청룡5길,08786,37.4805701,126.9464261
25,청룡16길,08831,37.4765939,126.9448151
25,청룡16길,08831,37.4761896,126.9439846
86-5,보문로32길,02844,37.5903872,127.0214667
8,청룡3길,08786,37.4806825,126.9465904
405,한강대로,04320,37.5545547,126.9707793
174,구로중앙로,08213,37.5034468,126.8825086
369,청파로,04303,37.5524224,126.9683560
48,장문로,04393,37.5272247,126.9951956
16,삼일대로4길,04553,37.5619242,126.9901287
71,마곡중앙1로,07809,37.5586161,126.8193218
71,마곡중앙1로,07809,37.5585844,126.8200201
88,쑥고개로,08831,37.4791462,126.9462904
125,보광로,04391,37.5339870,126.9941963
55,한강대로23길,04377,37.5299526,126.9648271
23-12,올림픽로48길,05398,37.5294618,127.1218703
87,Yulgok-ro 10-gil,03134,37.5736164,126.9917726
12-39,청룡9길,08831,37.4780534,126.9464889
40,청계천로,04521,37.5685960,126.9813158
40,청계천로,04521,37.5684251,126.9815416
56,마곡동로,07803,37.5601380,126.8338003
86,마곡중앙8로,07803,37.5608999,126.8368212
93,마곡중앙6로,07803,37.5599550,126.8378014
438,강남대로,06123,37.5015279,127.0263683
116,학동로,06111,37.5115945,127.0236940
7-4,Myeongdong 10-gil,04537,37.5633151,126.9853605
176,석촌호수로,05602,37.5063926,127.0967087
328,면목로,02214,37.5812176,127.0886906
지하 1721,남부순환로,08757,37.4823889,126.9419387
지하 1822,남부순환로,08787,37.4812230,126.9527151
지하163,공항대로,07800,37.5602492,126.8247463
7,도림로,08320,37.4853612,126.8866651
433,선릉로,06212,37.5037808,127.0487281
112,사당로23길,07001,37.4882192,126.9730798
여의도동 28-2,여의대로,07320,37.5217462,126.9190098
291,시흥대로,08608,37.4592060,126.8970978
11,새문안로 5가길,03173,37.5729413,126.9739136
65,증산서길,03500,37.5821931,126.9054295
68,월드컵북로,03999,37.5601353,126.9167752
68,성미산로,03999,37.5596425,126.9154447
10,Samil-daero 26-gil,03133,37.5731967,126.9887130
23,이태원로45길,04349,37.5363568,126.9981961
52,한강대로62길,04382,37.5326708,126.9734274
35,대학로9길,03079,37.5819697,127.0000775
157-6,성미산로,03980,37.5648318,126.9237637
43,개포로110길,06337,37.4912233,127.0796421
5F,학동로30길,06104,37.5131780,127.0322375
29,도봉로154길,01328,37.6712961,127.0457700
37,양화로21길,03994,37.5597747,126.9243132
8,성북로26길,02837,37.5949836,126.9949740
28,희우정로5길,04019,37.5506311,126.9050105
19,면목로72가길,02197,37.5866527,127.0891285
72,겸재로54길,02206,37.5859625,127.0914584
43,면목로72길,02198,37.5877415,127.0902459
400,면목로,02197,37.5876733,127.0879113
38,겸재로54길,02198,37.5875766,127.0916643
9,겸재로50길,02199,37.5886903,127.0910152
207,겸재로,02162,37.5892216,127.0905754
244-1,녹사평대로,04343,37.5394349,126.9874204
221,이태원로,04349,37.5352908,126.9982368
819,선릉로,06019,37.5251840,127.0395668
17,압구정로46길,06017,37.5274811,127.0366188
170,위례광장로,05849,37.4785738,127.1428630
170,위례광장로,05849,37.4789204,127.1428823
170,위례광장로,05849,37.4789618,127.1429015
170,위례광장로,05849,37.4791311,127.1429110
170,위례광장로,05849,37.4793920,127.1429089
170,위례광장로,05849,37.4803442,127.1429767
56,남대문로,04530,37.5622718,126.9819168
56,남대문로,04530,37.5622071,126.9817733
6-25,도봉로180길,01320,37.6822036,127.0465127
38,도봉로180길,01320,37.6825930,127.0481576
83,삼청로,03054,37.5828142,126.9817124
83,삼청로,03054,37.5828446,126.9817124
28,도봉로180길,01320,37.6823268,127.0474220
542,Namdaemunno 5(o)-ga,04637,37.5547727,126.9741041
20,도봉로180길,01320,37.6827837,127.0470397
28,도봉로180길,01320,37.6826272,127.0475691
28,도봉로180길,01320,37.6829104,127.0474221
46,도봉로180길,01320,37.6821388,127.0478394
46,도봉로180길,01320,37.6820867,127.0477414
아름채빌 302동302호,난곡로26나길,08856,37.4679699,126.9232835
16,필동로,04624,37.5601038,126.9958691
23,동호로14길,04607,37.5566611,127.0106699
50,종로1길,03142,37.5746919,126.9795815
80,회나무로,04346,37.5406712,126.9954012
4,언주로147길,06048,37.5201279,127.0338892
38 지하1층,도봉로180길,01320,37.6825349,127.0482812
70,마곡중앙6로,07803,37.5598096,126.8342376
4,통일로61길,03382,37.6067160,126.9326573
3-1,통일로61길,03382,37.6066578,126.9326866
46,군자로12길,05004,37.5507517,127.0722665
46,군자로12길,05004,37.5507124,127.0722913
46,군자로12길,05004,37.5507517,127.0723160
177,워커힐로,04963,37.5553271,127.1101533
177,워커힐로,04963,37.5543623,127.1112212
2,서울숲6길,04768,37.5479081,127.0417090
17,자하문로10길,03043,37.5794717,126.9725009
118,독서당로,04420,37.5365669,127.0122588
63,창경궁로16길,03127,37.5750479,127.0015027
180-3,퇴계로,04627,37.5606990,126.9919065
182,퇴계로,04627,37.5608516,126.9919378
86,독막로,04074,37.5475204,126.9228399
30,종로58길,03114,37.5720620,127.0179438
30,종로58길,03114,37.5717253,127.0179134
95,송파대로37길,05698,37.4981435,127.1018942
95,송파대로37길,05698,37.4983436,127.1025969
30,이화여대7길,03766,37.5587467,126.9439907
지하 205,왕산로,02559,37.5799754,127.0446284
45,효령로53길,06652,37.4865684,127.0129615
12-5,강남대로98길,06129,37.5004003,127.0279865
37,성미산로26길,03984,37.5622988,126.9234243
57,월드컵북로6길,03991,37.5594269,126.9213098
343,강남대로,06626,37.4935182,127.0292568
1,연무장7가길,04782,37.5432402,127.0547729
1,연무장7가길,04782,37.5432259,127.0547864
43,서울숲길,04766,37.5480749,127.0425289
119,올림픽로,05501,37.5120851,127.0843473
40-7,서울숲2길,04768,37.5463133,127.0429582
403-1,증산로,03442,37.5923538,126.9137192
33,마장로9길,04571,37.5700392,127.0194257
16-9,퇴계로34길,04262,37.5600164,126.9927137
22,종로44길,03119,37.5705894,127.0115280
411,오패산로,01065,37.6372984,127.0264681
2,백제고분로,05500,37.5193380,127.0764649
200-12,종로,03195,37.5704255,126.9999576
231,영동대로,06283,37.4998344,127.0674141
22,역삼로4길,06252,37.4921753,127.0323551
387,사가정로,02228,37.5809182,127.0878067
398,사가정로,02249,37.5803251,127.0888845
332,면목로,02213,37.5816026,127.0888215
334,면목로,02213,37.5817390,127.0887669
333,면목로,02228,37.5817767,127.0884791
8,면목로48길,02213,37.5821539,127.0891900
178,보문로,02847,37.5901985,127.0156879
1,장한로28가길,02523,37.5730702,127.0723613
53,한천로14길,02628,37.5669368,127.0656328
12,보국문로,02718,37.6056801,127.0115232
1,정릉로26길,02814,37.6044694,127.0111539
80,정릉로36길,02815,37.6025749,127.0142147
56,성대로,07044,37.4984004,126.9338548
10,마장로23길,04706,37.5670735,127.0332301
127,왕산로,02570,37.5782755,127.0376264
13,풍성로57길,05376,37.5296673,127.1359019
68,압구구정로29길,06004,37.5325070,127.0291281
126-1,독막로,04078,37.5474638,126.9276288
6,도봉로181길,01303,37.6839227,127.0455894
13,강남대로42길,06267,37.4854527,127.0352277
108 3층,을지로,04542,37.5660585,126.9899259
68,긴고랑로,04921,37.5615321,127.0833013
87,도봉산길,01300,37.6860524,127.0326718
16,시흥대로18길,08653,37.4403116,126.9044017
97,시흥대로,08639,37.4433385,126.9032932
443,도산대로,06016,37.5241536,127.0444891
454,도산대로,06062,37.5238496,127.0462499
430,도산대로,06062,37.5234514,127.0430007
442,도산대로,06062,37.5232512,127.0440572
442,도산대로,06062,37.5233830,127.0442763
32,삼성로149길,06062,37.5231847,127.0448717
32,삼성로149길,06062,37.5232519,127.0448444
16,삼성로145길,06063,37.5225405,127.0469618
26,압구정로80길,06015,37.5247180,127.0445721
43-12,아리수로78길,05220,37.5605039,127.1643845
9-14,아리수로93길,05211,37.5649416,127.1739152
219,사당로2가길,07030,37.4856078,126.9670285
48,사가정로51길,02221,37.5829594,127.0880821
20-15,동일로101길,02130,37.5897636,127.0790416
40,겸재로61길,02173,37.5919964,127.0949013
668,마들로,01330,37.6696587,127.0465179
197,대림로,07412,37.4982976,126.8980585
25,대림로23길,07419,37.4927457,126.8982706
28,증가로10길,03665,37.5784404,126.9238857
229-1,명일로,05344,37.5392251,127.1462154
84,만리재옛길,04208,37.5501763,126.9600556
169,대방천로,07430,37.4993739,126.9098518
32,오리로15길,08256,37.4938894,126.8315016
859,덕릉로,01633,37.6729272,127.0832564
236,백제고분로,05584,37.5027234,127.0925526
268,삼양로,01121,37.6273418,127.0183872
32,삼성로149길,06062,37.5232194,127.0449249
458,도산대로,06062,37.5238456,127.0467767
79,곰달래로,07772,37.5304841,126.8415804
12,혜화로,03076,37.5868290,127.0006022
38,북아현로22길,03748,37.5647995,126.9547025
346,능동로,04927,37.5602711,127.0815066
50,덕릉로82길,01717,37.6587711,127.0780000
56,노원로17길,01787,37.6421309,127.0687063
279,한글비석로,01713,37.6525480,127.0774758
19,종로35가길,03126,37.5720378,127.0050662
568,뚝섬로,05091,37.5338424,127.0728903
210,위례광장로,05848,37.4812379,127.1441618
90,신흥로,04339,37.5461280,126.9855719
92,다산로,04597,37.5524660,127.0090055
32,세검정로4길,03622,37.5938213,126.9496589
20,도봉로136나길,01400,37.6563472,127.0436190
20,개화동로23길,07612,37.5667208,126.8067563
84,남대문로,04534,37.5646213,126.9827355
330,면목로,02214,37.5813394,127.0887288
10,면목로44길,02214,37.5812397,127.0890959
10,면목로44길,02214,37.5812689,127.0890131
14,사가정로53길,02213,37.5813249,127.0892393
14,사가정로53길,02213,37.5813526,127.0892689
12,면목로44길,02214,37.5811803,127.0893047
109,독막로,04067,37.5479290,126.9258799
12,용마산로99길,02175,37.5919464,127.0972819
92,봉우재로70길,02175,37.5916785,127.0970926
93,봉우재로70길,02175,37.5914587,127.0972280
86,대학로,03087,37.5792034,127.0032743
81,삼봉로,03150,37.5724108,126.9818206
30,새문안로3길,03173,37.5724804,126.9730067
99,송월길,03734,37.5695902,126.9634175
7,다산로36나길,04584,37.5605316,127.0195491
5,삼일대로6길,04553,37.5625050,126.9893110
253,다산로,04569,37.5656421,127.0159306
58 롯데캐슬피렌체 상가 113호,정릉천동로,02566,37.5769778,127.0354867
86,안암로,02477,37.5833436,127.0305556
476,고산자로,02571,37.5821165,127.0389077
201,회기로,02444,37.5903420,127.0581766
131,전농로,02539,37.5767518,127.0575401
10,홍릉로,02490,37.5813013,127.0451544
52,이화여대길,03760,37.5619842,126.9445190
1722,남부순환로,08784,37.4822550,126.9414195
29,보라매로3길,08708,37.4913742,126.9251466
526,호암로,08793,37.4645218,126.9317382
118,조원로,08762,37.4850201,126.9155352
38,문성로31길,08775,37.4806770,126.9284999
249-1,관악로,08727,37.4867705,126.9567093
209,능동로,05006,37.5495788,127.0738780
25-1,광장로5길,04965,37.5496799,127.1043367
25,아찬산로30길,05073,37.5395210,127.0674192
85,광나루로56길,05116,37.5359404,127.0952350
242,자양로,04975,37.5479662,127.0888278
2,은평터널로7길,03445,37.5924392,126.9063525
15,통일로80길,03344,37.6203059,126.9221231
170,은평로,03462,37.6011049,126.9264727
214,응암로,03467,37.5910010,126.9177126
20,통일로71길,03391,37.6128627,126.9267155
9,신촌로20길,04102,37.5548088,126.9383244
3,백범로17길,04136,37.5473576,126.9436659
277,토정로,04159,37.5421647,126.9406203
24,삼개로,04173,37.5380612,126.9472952
14-1,마포대로14길,04210,37.5482993,126.9561381
174,마포대로,04207,37.5493339,126.9554382
89,마포대로,04156,37.5431769,126.9499679
507,도산대로,06011,37.5247138,127.0484614
24,여의대로,07320,37.5223150,126.9202103
1,가마산로51길,07380,37.5034220,126.9006923
3,버드나루로19길,07229,37.5284003,126.9077247
172-1,당산로,07220,37.5296320,126.8988455
379,여의대방로,07333,37.5190676,126.9310032
92,양평로,07206,37.5365082,126.8971152
1,의사당대로,07233,37.5312440,126.9139338
28,고덕로27길,05236,37.5558389,127.1380381
23,동남로71길,05270,37.5515476,127.1546875
90,화랑로5길,02748,37.6061939,127.0405768
116,삼선교로16길,02876,37.5830517,127.0103797
59,성북로,02880,37.5926524,127.0019170
145,안암로,02841,37.5882647,127.0307463
64,종암로,02800,37.5960168,127.0358566
25,신천로,05504,37.5172779,127.1007986
10,동남로4길,05805,37.4891668,127.1239362
19,올림픽로45길,05537,37.5272517,127.1159843
101,법원로,05856,37.4839621,127.1200991
66,충민로,05838,37.4775778,127.1249983
256,백제고분로,05584,37.5023218,127.0948097
101,오금로,05548,37.5132124,127.1079615
836,논현로,06025,37.5230842,127.0286103
37,논현로152길,06024,37.5217053,127.0312856
206,도산대로,06047,37.5196686,127.0290284
42-8,낙산길,03088,37.5800512,127.0065883
112-5,창경궁로,03075,37.5854114,127.0008625
37,용마산로,04924,37.5570761,127.0878664
14,강서로45길,07639,37.5480807,126.8353716
14,강서로45길,07639,37.5481296,126.8354199
28,강서로45길,07639,37.5480307,126.8348070
6,율곡로,03142,37.5754552,126.9805255
1,종로,03154,37.5711853,126.9780093
1,종로,03154,37.5709100,126.9778605
"20 잠실아이파크 103,104호",올림픽로8길,05561,37.5099089,127.0799762
297,망우로,02098,37.5970314,127.0856555
289,올림픽로,05510,37.5146393,127.1027979
562,송파대로,05510,37.5151763,127.0991717
570,송파대로,05510,37.5155544,127.0990534
232,한글비석로,01743,37.6483618,127.0769344
859 1층,도봉로,01304,37.6811588,127.0453041
21,노량진로6길,06940,37.5121045,126.9358850
183,문래로,08042,37.5184679,126.9024432
118,동작대로29길,06998,37.4912299,126.9765472
9,사당로23바길,07002,37.4896093,126.9709093
45-15,정릉로,02703,37.6126047,126.9907556
233,삼성로,06279,37.4981789,127.0610202
155,삼성로,06291,37.4940100,127.0629819
306,삼성로,06191,37.4994612,127.0609618
10-3,능동로37길,04919,37.5582095,127.0792729
85,긴고랑로,04936,37.5608602,127.0852777
24,아차산로51길,05043,37.5380364,127.0851572
11,용마산로,04931,37.5547181,127.0881200
83,등용로,06947,37.5085456,126.9320101
439,퇴계로,04576,37.5658675,127.0205172
52-1,삼성로120길,06085,37.5189222,127.0546390
73-10,북촌로11길,03052,37.5840508,126.9826145
3,회나무로,04343,37.5385635,126.9873070
20,길음로,02725,37.6047539,127.0230392
460,퇴계로,04579,37.5651439,127.0227988
136,위례광장로,05852,37.4755135,127.1419527
136,위례광장로,05852,37.4755296,127.1420995
51,남대문로9길,04523,37.5667905,126.9792968
290,위례광장로,05852,37.4751117,127.1426483
57,한글비석로,01784,37.6368308,127.0682274
30,종로58길,03114,37.5724151,127.0172695
10,월드컵로12길,04004,37.5550381,126.9116931
10,월드컵로12길,04004,37.5551909,126.9116574
10,월드컵로12길,04004,37.5551645,126.9116975
74,월드컵로,04004,37.5558081,126.9106433
3,성균관로7길,03071,37.5868094,126.9962090
43,풍성로,05522,37.5351945,127.1181987
7,은평로2길,03450,37.5974848,126.9121082
20,은평로2길,03450,37.5962986,126.9116463
32,은평로,03450,37.5979956,126.9114639
34,은평로,03450,37.5980874,126.9118949
30,은평로,03450,37.5979288,126.9112133
29,증산로21길,03450,37.5961967,126.9114813
29,증산로21길,03450,37.5962080,126.9116359
316,가좌로,03451,37.5958476,126.9102639
316,가좌로,03451,37.5958295,126.9102271
316,가좌로,03451,37.5957981,126.9102755
312,가좌로,03451,37.5957248,126.9104182
312,가좌로,03451,37.5956676,126.9104995
310,가좌로,03451,37.5954921,126.9107262
68,은평로,03449,37.5988288,126.9154235
38,은평로,03450,37.5981546,126.9122707
22,은평로,03450,37.5977425,126.9105449
15,증산로21길,03451,37.5959965,126.9130357
19,증산로21길,03451,37.5960992,126.9124965
19,증산로21길,03451,37.5960913,126.9125727
16,증산로21길,03450,37.5960805,126.9131103
11,증산로21가길,03450,37.5970220,126.9133511
11-17,증산로21가길,03450,37.5972331,126.9128186
15,증산로23길,03450,37.5976289,126.9135150
306,가좌로,03452,37.5951687,126.9110808
9,연서로,03421,37.6000971,126.9157339
298,가좌로,03452,37.5947492,126.9116348
294,가좌로,03452,37.5945484,126.9119173
10,증산로21길,03450,37.5959421,126.9138492
8-15,증산로21길,03450,37.5961942,126.9139371
9,증산로23길,03450,37.5973448,126.9141914
13,증산로23길,03450,37.5975788,126.9136641
1167,오리로,08363,37.4878236,126.8373756
31,중앙로14길,08218,37.5074799,126.8630711
1,망원로,03954,37.5558154,126.8970831
282,동남로,05740,37.5005821,127.1370683
186,송이로,05796,37.4908685,127.1267065
441,송파대로,05616,37.5058102,127.1062400
171,송이로,05827,37.4920970,127.1260001
474,송파대로,05624,37.5085315,127.1046355
48,중대로9길,05712,37.4971228,127.1191638
126,오금로,05618,37.5114579,127.1089016
20,올림픽로47길,05537,37.5285486,127.1168986
320,중대로,05720,37.5086455,127.1339505
388,송파대로,05668,37.5023805,127.1102156
263,마천로,05734,37.4982919,127.1463243
75,삼학사로,05603,37.5039604,127.0968474
247,오금로,05645,37.5064051,127.1207754
567,송파대로,05503,37.5161906,127.0930921
94,올림픽로35길,05504,37.5200577,127.1038808
435,올림픽로,05507,37.5202932,127.1136034
138,석촌호수로,05600,37.5071410,127.0923422
85,삼전로,05566,37.5061992,127.0893349
29-1,송이로,05672,37.5027085,127.1169209
378,송파대로,05676,37.5014963,127.1110037
611,올림픽로,05519,37.5363759,127.1223550
104,석촌호수로,05566,37.5077740,127.0884449
345,송파대로,05698,37.4980968,127.1037991
240,올림픽로,05554,37.5109271,127.0972658
293,백제고분로,05614,37.5028729,127.0989785
108,석촌호수로,05566,37.5076500,127.0888707
432,백제고분로,05662,37.5092289,127.1118796
13,양산로4길,05779,37.4899584,127.1446584
62,새말로,05841,37.4809069,127.1217328
30-1,토성로,05536,37.5302179,127.1136659
76,올림픽로,05556,37.5115999,127.0791398
44,삼학사로,05679,37.5011314,127.0970953
119,올림픽로,05501,37.5121548,127.0841320
212,올림픽로,05553,37.5113273,127.0939697
229,성내천로,05747,37.4994735,127.1531636
9,올림픽로35가길,05510,37.5175823,127.1032186
80,중대로,05833,37.4917455,127.1177801
161,백제고분로,05568,37.5054638,127.0848740
318,동남로,05730,37.5036535,127.1386839
264,마천로,05735,37.4981159,127.1461104
88,올림픽로,05556,37.5115277,127.0805173
258,가락로,05634,37.5109769,127.1189124
203,오금로,05643,37.5081192,127.1166437
200,위례광장로,05849,37.4812503,127.1426432
55,법원로,05841,37.4799436,127.1218894
17,새말로5길,05807,37.4841637,127.1239973
145,올림픽로,05502,37.5119427,127.0877880
80,삼전로,05606,37.5055526,127.0895079
23,동남로18길,05783,37.4941955,127.1330781
140,가락로,05676,37.5022690,127.1115108
125,새말로,05809,37.4830581,127.1277137
473,오금로,05744,37.4945441,127.1419768
56,삼전로,05581,37.5037753,127.0879205
4450,송파대로,05625,37.5068248,127.1061480
146,석촌호수로,05600,37.5069641,127.0932195
1148,양재대로,05657,37.5097542,127.1272828
162,가락로,05675,37.5031902,127.1134368
161,동남로,05826,37.4927328,127.1281203
115,백제고분로,05570,37.5068658,127.0799940
422,오금로,05770,37.4968065,127.1367664
16,마천로5길,05657,37.5095336,127.1272217
88,삼학사로,05612,37.5049778,127.0973995
498,오금로,05772,37.4929970,127.1439256
44,오금로35길,05660,37.5064785,127.1292408
224,시흥대로,08628,37.4538124,126.9012758
52,은평로,03449,37.5984420,126.9136265
52-3,은평로,03449,37.5983282,126.9138333
56,은평로,03449,37.5984840,126.9140684
56,은평로,03449,37.5985568,126.9141813
60,은평로,03449,37.5986235,126.9144596
56,은평로,03449,37.5985900,126.9143208
139,허준로,07525,37.5643690,126.8553806
15,양산로9길,07270,37.5268136,126.8886023
12-1,양산로9길,07271,37.5263983,126.8889052
50-1,양산로,07272,37.5251938,126.8885679
75,논현로175길,06029,37.5237008,127.0231038
33,망우로18라길,02498,37.5858350,127.0615771
37,망우로18다길,02498,37.5856874,127.0609874
36,망우로18다길,02498,37.5857436,127.0608542
39-2,망우로18라길,02498,37.5855921,127.0611704
27-4,망우로18다길,02498,37.5860753,127.0610665
33,망우로18다길,02498,37.5863351,127.0608932
42,망우로18라길,02498,37.5856763,127.0611303
41,망우로18다길,02498,37.5853937,127.0609980
31-6,망우로18다길,02498,37.5860768,127.0610518
31-8,망우로18다길,02498,37.5859829,127.0612640
13,선릉로72길,06199,37.5003821,127.0522609
21,선릉로72길,06199,37.5005956,127.0528348
342,선릉로,06199,37.5003919,127.0512089
137,방배로,06672,37.4862625,126.9943670
141,방배로,06672,37.4865012,126.9941652
286-5,가좌로,03452,37.5941634,126.9126132
8-11,증산로19길,03451,37.5953238,126.9137044
8-3,증산로19길,03451,37.5948821,126.9135494
280,가좌로,03452,37.5935861,126.9130602
280,가좌로,03452,37.5935214,126.9131673
280,가좌로,03452,37.5935660,126.9132312
41-8,구로동로43길,08282,37.4951751,126.8802754
60-3,은평로,03449,37.5985543,126.9146631
475,증산로,03449,37.5986384,126.9154135
8-12,증산로23길,03449,37.5979817,126.9145363
463,증산로,03449,37.5975013,126.9151195
465,증산로,03449,37.5977303,126.9151557
473,증산로,03449,37.5984116,126.9153517
5,증산로23길,03450,37.5972188,126.9145781
7-5,증산로23길,03450,37.5971333,126.9142973
7-9,증산로23길,03450,37.5969663,126.9142582
7-17,증산로23길,03450,37.5967410,126.9141835
2,증산로21길,03450,37.5958377,126.9144575
2,증산로21길,03450,37.5958325,126.9144946
445,증산로21길,03450,37.5958241,126.9146158
7-3,증산로21길,03451,37.5956817,126.9139193
7,증산로21길,03451,37.5958100,126.9139799
3,증산로21길,03451,37.5957631,126.9142569
7-5,증산로21길,03451,37.5955562,126.9138577
7-5,증산로21길,03451,37.5955965,126.9138745
7-7,증산로21길,03451,37.5954681,126.9138533
439,증산로,03451,37.5953413,126.9144270
8-12,증산로21길,03451,37.5951777,126.9137815
8-8,증산로19길,03451,37.5950492,126.9138373
8,증산로19길,03451,37.5947049,126.9136552
7,증산로19길,03452,37.5945686,126.9136547
419,증산로,03452,37.5938707,126.9140232
276-8,가좌로,03452,37.5937070,126.9133842
272,가좌로,03452,37.5932444,126.9135070
272,가좌로,03452,37.5931553,126.9136511
418,증산로,03452,37.5931809,126.9139374
66,은평로,03449,37.5988263,126.9151647
64,은평로,03449,37.5987715,126.9149809
66,은평로,03449,37.5988182,126.9151456
279,가좌로,03441,37.5932624,126.9128655
281,가좌로,03441,37.5933414,126.9127698
283-3,가좌로,03441,37.5936467,126.9124087
299,가좌로,03441,37.5945860,126.9112077
283,가좌로,03441,37.5935447,126.9125153
12-7,은평로2길,03450,37.5970107,126.9114681
28,한남대로10길,04420,37.5318747,127.0095983
222-11,목동동로,08000,37.5253655,126.8727219
40,양평로,07214,37.5335310,126.9026845
110,강서로45길,07638,37.5501379,126.8318401
110,강서로45길,07638,37.5501985,126.8318708
830,선릉로,06014,37.5261068,127.0405199
135,양평로,07207,37.5384625,126.8926581
281,을지로,04566,37.5662336,127.0091598
83-21,왕십리로,04769,37.5445010,127.0441761
46,군자로12길,05004,37.5507202,127.0725146
46,군자로12길,05004,37.5511210,127.0725678
46,군자로12길,05004,37.5513392,127.0726892
46,군자로12길,05006,37.5516014,127.0726146
46,군자로12길,05006,37.5518772,127.0726288
4,계동2길,03057,37.5798417,126.9868528
19,장위로40다길,02770,37.6117153,127.0536547
108,삼각산로,01083,37.6406261,127.0161805
110,삼각산로,01083,37.6406577,127.0163215
6,율곡로,03142,37.5754797,126.9799186
315,가좌로,03441,37.5957248,126.9098674
317,가좌로,03441,37.5958226,126.9097251
313,가좌로,03441,37.5955756,126.9100702
319,가좌로,03441,37.5959085,126.9096152
321,가좌로,03441,37.5960713,126.9093524
309,가좌로,03441,37.5954122,126.9102420
192,은평터널로,03441,37.5955085,126.9089084
186,은평터널로,03441,37.5951300,126.9087160
269,가좌로,03442,37.5927216,126.9136737
269,가좌로,03442,37.5926828,126.9137562
269,가좌로,03442,37.5926116,126.9137361
405,증산로,03442,37.5925112,126.9137187
403,증산로,03442,37.5922451,126.9136894
15,성수일로11길,04791,37.5495562,127.0499328
230,명일로,05345,37.5392123,127.1469132
1461,천호대로,05284,37.5461010,127.1705123
107,동남로82길,05220,37.5604113,127.1629447
20,아리수로97길,05209,37.5668453,127.1777735
161,풍성로,05390,37.5307526,127.1299798
395-16,증산로,03442,37.5918160,126.9128594
397,증산로,03442,37.5918170,126.9135695
401-1,증산로,03442,37.5921458,126.9135394
401,증산로,03442,37.5920883,126.9136528
399,증산로,03442,37.5919777,126.9136039
27,논현로76길,06224,37.4976864,127.0410377
144,구천면로,05247,37.5422809,127.1208154
6,한남대로42길,04417,37.5421198,127.0029197
23,한남대로21길,04401,37.5339324,127.0064944
13,동호로7길,04596,37.5532653,127.0111370
2,다산로8길,04597,37.5529772,127.0096343
217,목동중앙로,07969,37.5442110,126.8831758
11,영동대로82길,06174,37.5072524,127.0655360
32,승방4길,08807,37.4752302,126.9805758
249,마포대로,04117,37.5570709,126.9578818
247,마포대로,04117,37.5557646,126.9570800
247,마포대로,04117,37.5565938,126.9559271
248,위례서로,05790,37.4865984,127.1421423
248,위례서로,05790,37.4865327,127.1421088
248,위례서로,05790,37.4864687,127.1420994
66,충민로,05838,37.4775828,127.1256820
201,송파대로,05854,37.4874239,127.1193809
141,동남로,05827,37.4918211,127.1262770
164,창덕궁길,03051,37.5842109,126.9868259
123,위례송파로,05846,37.4870279,127.1488374
124,위례송파로,05847,37.4844355,127.1463934
123,위례송파로,05846,37.4868230,127.1484509
123,위례송파로,05846,37.4868899,127.1485627
123,위례송파로,05846,37.4869504,127.1486714
441,광나루로,04991,37.5469394,127.0783958
12,위례북로4길,05776,37.4884418,127.1524730
29,소월로44길,04344,37.5415911,126.9930173
123,위례송파로,05846,37.4859266,127.1484033
34,망우로72길,02176,37.5985905,127.1026213
14 (1층),용마산로116길,02176,37.5992866,127.1012465
17,용마산로117길,02072,37.6002205,127.0994870
24,용마산로117길,02072,37.6003416,127.0991358
61,여의나루로,07327,37.5232998,126.9262770
12,국회대로74길,07238,37.5301159,126.9209985
7,국회대로68길,07237,37.5295118,126.9194374
7,국회대로70길,07238,37.5299819,126.9198532
4,국회대로72길,07238,37.5303435,126.9198693
23,국회대로68길,07237,37.5284908,126.9203548
17,국회대로66길,07237,37.5285963,126.9194401
20,국회대로74길,07238,37.5295480,126.9216087
15,국제금융로7길,07338,37.5231491,126.9321269
15,국제금융로7길,07338,37.5232410,126.9318342
301,테헤란로,06152,37.5030334,127.0430920
16,무학로,04707,37.5655086,127.0303197
20,무학로,04707,37.5658616,127.0302989
18,무학로,04707,37.5657776,127.0302912
224,서초중앙로,06599,37.5016460,127.0122051
15,증산로17가길,03442,37.5917190,126.9125756
30,삼학사로19길,05600,37.5063229,127.0938163
308,여의대방로,07319,37.5137105,126.9266056
16,여의대방로62길,06900,37.5139079,126.9283370
20,여의대방로62길,06900,37.5139370,126.9287518
662,경인로,08209,37.5089467,126.8893162
14,증산로17길,03442,37.5904935,126.9116902
20,증산로17길,03442,37.5904841,126.9111553
2,증산로17가길,03442,37.5904776,126.9119867
8-1,증산로17길,03442,37.5903983,126.9123474
8,증산로17길,03442,37.5904164,126.9125154
1층,장한로28가길17,02523,37.5741530,127.0725024
7,장한로28가길,02523,37.5732043,127.0725546
7,장한로28가길,02523,37.5733940,127.0724098
11,장한로28가길,02523,37.5735835,127.0725166
140,장한로,02523,37.5729047,127.0720621
53,쑥고개로,08785,37.4797376,126.9424036
30,장승배기로28길,06924,37.5122958,126.9420153
11,성대로2길,07042,37.4990863,126.9314105
9,상도로53길,06971,37.4980513,126.9530660
48,장승배기로19길,06935,37.5084990,126.9373317
9-2,연희로24길,03723,37.5714702,126.9355379
395,증산로,03442,37.5915530,126.9134797
393,증산로,03442,37.5913897,126.9134393
387-1,증산로,03442,37.5909851,126.9133321
383,증산로,03442,37.5904935,126.9132031
6,증산로17길,03442,37.5904399,126.9126679
58,증산로17길,03443,37.5917981,126.9073318
58-1,증산로17길,03443,37.5919197,126.9071760
60,증산로17길,03443,37.5919653,126.9070594
62,증산로17길,03443,37.5920122,126.9069438
64,증산로17길,03443,37.5920702,126.9067905
2,은평터널로7길,03445,37.5923335,126.9063699
149,은평터널로,03445,37.5924637,126.9065604
197,은평터널로,03440,37.5960762,126.9089564
193-1,은평터널로,03440,37.5958747,126.9088646
327,가좌로,03440,37.5963386,126.9088489
329,가좌로,03440,37.5964305,126.9086710
335,가좌로,03440,37.5965541,126.9080704
2,가좌로11가길,03439,37.5965376,126.9075974
2,가좌로11가길,03439,37.5965632,126.9075120
16,을지로5길,04539,37.5669876,126.9849786
9-12,은평터널로13길,03440,37.5954491,126.9071657
5,은평터널로13길,03440,37.5957631,126.9083364
15,가좌로11길,03440,37.5960911,126.9067805
5-6,가좌로11길,03440,37.5962033,126.9073782
3-1,가좌로11나길,03439,37.5965005,126.9070303
318,가좌로,03451,37.5960926,126.9099201
164,은평터널로,03444,37.5937425,126.9080359
18,가좌로11길,03439,37.5960874,126.9063695
19,가좌로11길,03440,37.5959828,126.9064218
19,은평터널로13길,03440,37.5953204,126.9066490
242,백제고분로,05584,37.5020547,127.0932723
185,은평터널로,03440,37.5952583,126.9085275
9-9,은평터널로13길,03440,37.5952129,126.9074948
19,가좌로11나길,03440,37.5963568,126.9057198
20,가좌로11나길,03439,37.5964814,126.9055751
25-1,가좌로11가길,03439,37.5968587,126.9051269
164,은평터널로,03444,37.5937149,126.9080456
164,은평터널로,03444,37.5937208,126.9080208
164,은평터널로,03444,37.5937696,126.9080543
164,은평터널로,03444,37.5937443,126.9080646
164,은평터널로,03444,37.5937024,126.9080121
164,은평터널로,03444,37.5936962,126.9080376
194,은평터널로,03441,37.5956639,126.9089614
194,은평터널로,03441,37.5958551,126.9090868
318,가좌로,03451,37.5960857,126.9099478
46,증산로21길,03450,37.5961914,126.9098318
37,증산로21길,03451,37.5961500,126.9106633
29,증산로21길,03450,37.5962070,126.9115608
20,은평로2길,03450,37.5962976,126.9116287
20,은평로2길,03450,37.5963052,126.9116564
1,증산로21길,03450,37.5962269,126.9131587
24,증산로21길,03450,37.5962162,126.9121610
24,증산로21길,03450,37.5962267,126.9121159
26,증산로21길,03450,37.5962688,126.9120336
26,증산로21길,03450,37.5962660,126.9119663
6-8,은평로2길,03450,37.5976003,126.9116450
26,증산로21길,03450,37.5963031,126.9120566
19,증산로21길,03451,37.5960944,126.9125513
19,증산로21길,03451,37.5960785,126.9125136
19,증산로21길,03451,37.5960761,126.9125405
18-1,증산로21길,03450,37.5961371,126.9126853
16-1,증산로21길,03450,37.5960993,126.9129757
16-1,증산로21길,03450,37.5961096,126.9129218
16,증산로21길,03450,37.5960812,126.9130856
16,증산로21길,03450,37.5960856,126.9130579
14,증산로21길,03450,37.5960516,126.9132735
14,증산로21길,03450,37.5961617,126.9132700
14,증산로21길,03450,37.5960919,126.9132346
14,증산로21길,03450,37.5961280,126.9132434
15,증산로21길,03451,37.5959816,126.9130879
15,증산로21길,03451,37.5960010,126.9130059
3,증산로21가길,03450,37.5963213,126.9131965
3,증산로21가길,03450,37.5963612,126.9132086
5,증산로21가길,03450,37.5964823,126.9132394
5,증산로21가길,03450,37.5964547,126.9132187
8,증산로21가길,03450,37.5967161,126.9133850
10,증산로21가길,03450,37.5968830,126.9134419
46,은평로,03449,37.5983444,126.9131041
52,은평로,03449,37.5984305,126.9134950
52,은평로,03449,37.5984379,126.9135195
52,은평로,03449,37.5984448,126.9135484
52,은평로,03449,37.5984514,126.9135703
52,은평로,03449,37.5984796,126.9137111
52,은평로,03449,37.5984650,126.9136722
52,은평로,03449,37.5984618,126.9136411
143,사임당로,06624,37.4917776,127.0252692
143,사임당로,06624,37.4918333,127.0254442
157,사임당로,06625,37.4923049,127.0266399
157,사임당로,06625,37.4923040,127.0269580
209,잠실로,05552,37.5140396,127.1065213
1220,양재대로,05648,37.5152532,127.1332409
446,도림천로,08378,37.4863439,126.8984499
477,위례순환로,05814,37.4768787,127.1351626
477,위례중앙로,05814,37.4756186,127.1343150
18,서초중앙로31길,06593,37.5009259,127.0097541
20,역삼로63길,06197,37.5024295,127.0521543
230,봉은사로,06135,37.5081769,127.0375020
323,삼성로,06203,37.5006149,127.0596077
32-6,언주로93길,06139,37.5036234,127.0393248
211,언주로,06273,37.4927951,127.0462939
280,광평로,06367,37.4873110,127.1030943
23,학동로37길,06053,37.5168368,127.0342799
34,삼성로147길,06063,37.5207932,127.0465824
35-5,강남대로160길,06028,37.5203695,127.0212135
212,삼성로,06284,37.4996053,127.0658806
17,도산대로62길,06064,37.5222517,127.0430908
26,논현로164길,06025,37.5230573,127.0302741
2912,남부순환로,06289,37.4906935,127.0561248
513,영동대로,06164,37.5118203,127.0591391
46,학동로4길,06114,37.5086311,127.0240523
3-4,언주로157길,06024,37.5236160,127.0324843
66-6,밤고개로24길,06377,37.4706457,127.1048536
413,봉은사로,06097,37.5110149,127.0452251
52-3,봉은사로43길,06100,37.5127619,127.0395470
658,개포로,06339,37.4950898,127.0846357
46-2,헌릉로571길,06376,37.4678962,127.0999462
107,학동로,06044,37.5117027,127.0224692
175,자곡로,06372,37.4741611,127.1026410
10,밤고개로1길,06349,37.4880134,127.1018421
68,논현로,06307,37.4763156,127.0464016
311,테헤란로,06151,37.5037491,127.0448199
57,언주로30길,06293,37.4892992,127.0541634
22,개포로21길,06306,37.4802063,127.0472793
19,언주로69길,06226,37.4961177,127.0437749
221,선릉로,06276,37.4942173,127.0497541
3-8,학동로53길,06060,37.5171961,127.0396712
12,삼성로96길,06168,37.5087391,127.0569269
16-6,도산대로45길,06021,37.5233863,127.0358864
14-8,테헤란로70길,06193,37.5046422,127.0527823
57,압구정로29길,06005,37.5312293,127.0269211
12,도곡로63길,06207,37.4977890,127.0543843
3-12,테헤란로33길,06141,37.5019009,127.0385115
10,삼성로86길,06185,37.5055965,127.0583124
6,언주로108길,06144,37.5078192,127.0400515
35,언주로148길,06054,37.5211872,127.0373801
60,도산대로99길,06011,37.5270794,127.0484144
13,압구정로10길,06028,37.5226380,127.0220437
212,삼성로,06284,37.4996233,127.0659472
724,선릉로,06065,37.5192680,127.0407193
12,도산대로17길,06037,37.5195075,127.0248448
15,남부순환로391길,06280,37.4930777,127.0567959
6,강남대로146길,06043,37.5145704,127.0205766
50,선릉로132길,06069,37.5185741,127.0451514
19,언주로153길,06026,37.5222842,127.0315964
56,논현로63길,06255,37.4917048,127.0362999
648,삼성로,06084,37.5179996,127.0510072
22-4,논현로128길,06105,37.5134755,127.0331355
80,일원로5길,06342,37.4926880,127.0863273
18,영동대로118길,06081,37.5160980,127.0611103
240,도산대로,06048,37.5209840,127.0334685
10,양재대로55길,06341,37.4931474,127.0909809
10,밤고개로1길,06349,37.4880133,127.1018308
29,논현로10길,06312,37.4753115,127.0503827
309,테헤란로,06151,37.5035476,127.0444153
173,양재천로,06302,37.4818828,127.0451097
8,개포로25길,06306,37.4794490,127.0483517
322,테헤란로,06211,37.5032316,127.0465683
19,남부순환로365길,06269,37.4867991,127.0391332
7,선릉로145길,06056,37.5213167,127.0389057
33,강남대로84길,06233,37.4975821,127.0310786
35,학동로56길,06092,37.5149088,127.0431733
354,강남대로,06242,37.4946425,127.0297143
31,선릉로86길,06193,37.5041586,127.0520306
38,봉은사로6길,06128,37.5025359,127.0275425
21,역삼로78길,06202,37.5010939,127.0575207
12,봉은사로38길,06137,37.5077714,127.0367033
8,삼성로70길,06186,37.5021048,127.0599962
554,언주로,06144,37.5074687,127.0401578
5-3,언주로149길,06048,37.5203107,127.0337713
32,압구정로79길,06012,37.5251528,127.0497400
636,강남대로,06034,37.5185694,127.0192800
212,삼성로,06284,37.4959984,127.0671748
40,도산대로68길,06065,37.5210802,127.0441805
23,논현로151길,06037,37.5197987,127.0262890
212,삼성로,06284,37.4996414,127.0660138
18,강남대로126길,06114,37.5095352,127.0240357
10,삼성로149길,06062,37.5234706,127.0467294
26,압구정로34길,06022,37.5263932,127.0305251
13,도곡로3길,06253,37.4910354,127.0326672
513,영동대로,06164,37.5117693,127.0591686
13,언주로113길,06109,37.5091943,127.0362900
9,개포로124길,06339,37.4939413,127.0829421
27,헌릉로622길,06365,37.4628485,127.1068456
40-1,봉은사로51길,06100,37.5128649,127.0422379
127,일원로,06361,37.4831474,127.0853694
10,헌릉로590길,06365,37.4644664,127.1027456
30,논현로16길,06312,37.4770823,127.0487322
260,자곡로,06370,37.4771403,127.1129392
42-10,논현로26길,06300,37.4832218,127.0457824
14,개포로22길,06307,37.4778329,127.0479539
139,역삼로,06244,37.4946020,127.0346794
57,언주로30길,06293,37.4893907,127.0540924
43,도산대로50길,06056,37.5196256,127.0381468
19,언주로67길,06229,37.4955344,127.0440764
7,테헤란로77길,06159,37.5069175,127.0544841
19,강남대로126길,06114,37.5097154,127.0240447
13,역삼로3길,06242,37.4943380,127.0310414
406,테헤란로,06192,37.5044122,127.0499464
13,도산대로53길,06019,37.5240416,127.0382485
26-8,선릉로72길,06200,37.5001511,127.0534272
35,언주로103길,06136,37.5067477,127.0358653
401,도곡로,06206,37.4969688,127.0532411
3-12,테헤란로33길,06141,37.5018956,127.0384874
29,언주로147길,06049,37.5193223,127.0319062
30,압구정로2길,06027,37.5197390,127.0201584
12,도산대로66길,06064,37.5228915,127.0442026
28,압구정로14길,06029,37.5225304,127.0231990
212,삼성로,06284,37.4956529,127.0656411
55,학동로20길,06115,37.5100747,127.0271845
6,선릉로138길,06065,37.5193260,127.0411937
8,언주로173길,06023,37.5283851,127.0327847
206,선릉로,06281,37.4914286,127.0556519
517,테헤란로,06164,37.5086084,127.0597450
62,강남대로118길,06121,37.5071426,127.0278333
15,개포로130길,06339,37.4940956,127.0842407
45,삼성로122길,06085,37.5192812,127.0557648
317,봉은사로,06103,37.5099763,127.0415961
62,일원로3길,06342,37.4926042,127.0848130
39-2,헌릉로569길,06376,37.4664103,127.0988675
17,언주로149길,06048,37.5201128,127.0327105
31,도산대로81길,06010,37.5264190,127.0469747
201,언주로,06274,37.4884804,127.0486894
15,논현로18길,06307,37.4779630,127.0461997
327,테헤란로,06150,37.5043694,127.0472687
221,선릉로,06276,37.4942013,127.0497138
110,언주로,06317,37.4854018,127.0546875
23,강남대로102길,06123,37.5026149,127.0272926
33,도곡로2길,06265,37.4878763,127.0342119
26,학동로4길,06114,37.5122995,127.0218021
30,테헤란로6길,06240,37.4966089,127.0310799
14,테헤란로64길,06192,37.5039789,127.0509698
71,압구정로29길,06002,37.5334140,127.0274358
432,테헤란로,06194,37.5057662,127.0547475
35,테헤란로25길,06131,37.5027583,127.0348911
405,도곡로,06207,37.4973586,127.0546499
555,선릉로,06145,37.5079840,127.0448112
5,삼성로64길,06191,37.5004417,127.0604920
295,광평로,06349,37.4883894,127.1038956
308,영동대로,06177,37.5020933,127.0676418
21,학동로101길,06075,37.5217852,127.0571524
132,압구정로,06029,37.5242605,127.0232104
212,삼성로,06284,37.4995872,127.0658139
401,학동로,06069,37.5175814,127.0416233
8,도산대로33길,06026,37.5211734,127.0301967
410,테헤란로,06192,37.5045556,127.0507527
21,테헤란로83길,06168,37.5088223,127.0571973
71,강남대로118길,06118,37.5072393,127.0286351
14,도곡로1길,06253,37.4910774,127.0322935
10,봉은사로97길,06087,37.5146899,127.0585375
7,언주로113길,06109,37.5092972,127.0367637
14,양재대로33길,06343,37.4906081,127.0830394
710,헌릉로,06371,37.4647270,127.1170085
16,언주로147길,06048,37.5198715,127.0329512
8-6,자곡로7길,06372,37.4739699,127.1000090
6,논현로28길,06302,37.4822304,127.0435336
4-3,논현로16길,06312,37.4759166,127.0471981
327,테헤란로,06150,37.5044226,127.0472325
57,언주로30길,06293,37.4893450,127.0541279
34-3,논현로145길,06040,37.5172267,127.0258021
19,선릉로69길,06218,37.4981647,127.0506814
272,강남대로,06265,37.4877664,127.0328903
6,선릉로135길,06059,37.5187758,127.0400243
121,역삼로,06243,37.4940537,127.0326396
6,봉은사로84길,06163,37.5129252,127.0553246
38,언주로168길,06020,37.5258036,127.0366533
9,테헤란로25길,06131,37.5012900,127.0349439
51,선릉로162길,06015,37.5261580,127.0447832
46,압구정로2길,06034,37.5187610,127.0206576
405,도곡로,06207,37.4974254,127.0546295
24,도산대로30길,06049,37.5183143,127.0298604
307,개포로,06319,37.4846200,127.0560768
72-1,압구정로29길,06004,37.5322776,127.0283897
27,삼성로92길,06169,37.5083733,127.0585150
26,학동로101길,06077,37.5224210,127.0576077
421,역삼로,06197,37.5014547,127.0530714
32,강남대로112길,06120,37.5057928,127.0269460
17-5,역삼로3길,06242,37.4945088,127.0309078
16,압구정로34길,06022,37.5270424,127.0305733
46-8,논현로38길,06296,37.4852819,127.0453717
29,도산대로101길,06013,37.5270141,127.0529561
39,삼성로85길,06196,37.5042457,127.0542723
10,학동로4길,06110,37.5107605,127.0229339
110,테헤란로,06232,37.4980546,127.0293648
781,양재대로,06340,37.4933770,127.0950605
15,양재대로55길,06342,37.4918769,127.0874681
328,선릉로,06199,37.4990214,127.0518807
151,삼성로,06291,37.4931449,127.0629809
5,개포로109길,06335,37.4923262,127.0745709
306,역삼로,06216,37.4989726,127.0469391
37,봉은사로78길,06155,37.5104175,127.0538518
26,학동로101길,06077,37.5223888,127.0575298
19,선릉로82길,06198,37.5029299,127.0516277
212,삼성로,06284,37.4995879,127.0658454
62,논현로79길,06239,37.4962630,127.0339455
32,강남대로110길,06124,37.5036706,127.0274712
516,도곡로,06282,37.4991729,127.0629734
51,일원로5길,06343,37.4922128,127.0842976
2921,남부순환로,06280,37.4934887,127.0597536
20,언주로113길,06108,37.5092528,127.0357350
230,역삼로,06227,37.4969225,127.0419100
17,압구정로11길,06000,37.5255687,127.0201500
17-5,역삼로3길,06242,37.4944988,127.0308697
212,삼성로,06284,37.4996131,127.0659384
46,학동로4길,06114,37.5086152,127.0240717
29,논현로95길,06131,37.5018111,127.0336479
9,밤고개로31길,06378,37.4653541,127.1093141
127,일원로,06361,37.4831431,127.0853063
5,개포로82길,06329,37.4888477,127.0676369
39,삼성로85길,06196,37.5042216,127.0542693
225,선릉로,06276,37.4953607,127.0527073
801,선릉로,06019,37.5235596,127.0388204
212,삼성로,06284,37.4993241,127.0649959
19,학동로101길,06075,37.5216175,127.0572173
10,광평로19길,06354,37.4854914,127.0866977
24,강남대로156길,06035,37.5183951,127.0210810
49,광평로51길,06347,37.4921332,127.0997346
180,자곡로,06373,37.4737069,127.1033474
265,개포로,06305,37.4808468,127.0529810
37,도산대로50길,06056,37.5199652,127.0378031
7,강남대로44길,06266,37.4858311,127.0342382
71,압구정로29길,06002,37.5335924,127.0283048
6,양재대로55길,06341,37.4913156,127.0883004
2912,남부순환로,06289,37.4907244,127.0561623
328,선릉로,06199,37.4989958,127.0518888
40,도산대로51길,06018,37.5256996,127.0382612
8,봉은사로43길,06103,37.5097916,127.0399357
7,학동로5길,06044,37.5121925,127.0228587
27,광평로51길,06347,37.4896917,127.1009739
29,도산대로101길,06013,37.5270168,127.0529633
21,도산대로46길,06057,37.5208333,127.0370792
57,선릉로130길,06089,37.5175293,127.0463185
210,위례광장로,05849,37.4812481,127.1439766
7,신촌역로,03780,37.5571777,126.9426347
24-7,가좌로11길,03439,37.5960447,126.9054200
344,가좌로,03438,37.5980791,126.9066664
155,원효로,04363,37.5350146,126.9603922
151,사임당로,06624,37.4920952,127.0263411
190,사당로27길,06989,37.4908898,126.9715999
11,흑석한강로,06982,37.5058170,126.9666128
20,여의대방로44길,06944,37.5081121,126.9262882
74,대방동길,06946,37.5044643,126.9274059
74,대방동길,06946,37.5054479,126.9262267
11,삼학사로,05598,37.4990539,127.0957178
11,삼학사로,05598,37.4987937,127.0957363
213,양산로,07246,37.5228537,126.9067414
16,오리로21가길,0848,37.4993128,126.8275451
8,오리로21가길,08248,37.4990889,126.8275947
24,오리로21가길,08248,37.4988811,126.8277792
11,오리로21가길,08248,37.4991079,126.8270205
300,올림픽로,05551,37.5135775,127.1041813
75,동광로,06584,37.4930129,126.9905309
52,송이로17길,05702,37.5014495,127.1250227
17,수표로18가길,03192,37.5688486,126.9906281
50,종로1길,03142,37.5746536,126.9788867
157,사임당로,06625,37.4923770,127.0267370
175,은평터널로,03440,37.5944409,126.9080915
169,은평터널로,03440,37.5940356,126.9078514
44,양녕로27길,07047,37.4993869,126.9414015
321,가좌로,03441,37.5961011,126.9093330
114,법원로,05854,37.4857086,127.1204659
235,증산로,03506,37.5796085,126.9047552
8,여의대방로,07065,37.4927975,126.9104233
22,여의대방로,07065,37.4923458,126.9115587
112,포은로,04010,37.5569857,126.9045912
8,백제고분로7길,05561,37.5098923,127.0797654
84,정릉로36길,02815,37.6024859,127.0139343
1층,마곡중앙8로86,07803,37.5607220,126.8370234
123,백범로,04136,37.5468274,126.9447747
123,백범로,04136,37.5467873,126.9448829
291-5,독막로,04136,37.5450493,126.9457206
136,백범로,04136,37.5470274,126.9463840
196,마포대로,04202,37.5512413,126.9561872
5,마곡중앙8로5길,07794,37.5615513,126.8370683
61,동소문로22길,02849,37.5904207,127.0187269
39-1,왕십리로21길,04714,37.5596665,127.0307884
107,증가로,03693,37.5763177,126.9249070
175,한강대로,04375,37.5345799,126.9726407
10,선릉로122길,06092,37.5147851,127.0427690
10,선릉로122길,06092,37.5147859,127.0427798
55,강남대로122길,06115,37.5092386,127.0272155
140,가좌로,03655,37.5844946,126.9241475
9,영동대로82길,06174,37.5071660,127.0653569
40,잔다리로,04042,37.5519636,126.9193810
12-1,도림로139길,07290,37.5138942,126.8927674
17,연세로7안길,03788,37.5580433,126.9358068
41,서초대로77길,06612,37.5012364,127.0249292
120,월드컵로,03971,37.5590269,126.9076731
10,신반포로41길,06532,37.5103164,127.0169692
194,신반포로,06545,37.5052575,127.0054509
47,서울숲2길,04768,37.5463448,127.0439685
31,봉은사로16길,06127,37.5043055,127.0291864
10,오금로16길,05618,37.5107808,127.1087830
46-1,대사관로,04402,37.5333605,127.0032334
2-1,행당로13길,04714,37.5583528,127.0316557
312,중대로,05720,37.5080789,127.1336238
56,강남대로122길,06115,37.5091232,127.0273609
64,언주로172길,06018,37.5267166,127.0390264
374,강남대로,06181,37.4962503,127.0289015
18,테헤란로64길,06192,37.5037808,127.0512202
1158,양재대로,05652,37.5105205,127.1277229
33,언주로164길,06020,37.5256332,127.0363121
237-1,동작대로,06994,37.4979764,126.9831610
167,을지로,04545,37.5668296,126.9966619
31,창경궁로5길,04545,37.5669083,126.9962676
22,성지길,04071,37.5477323,126.9131340
4,선릉로131길,06059,37.5179572,127.0406249
517,삼성로,06158,37.5077943,127.0555332
6,영중로,07304,37.5169396,126.9066334
22,논현로17길,06775,37.4760169,127.0446185
12,학동로55길,06065,37.5182366,127.0420512
36,압구정로48길,06017,37.5261519,127.0368801
35,성지길,04071,37.5470966,126.9132297
13,연세로5가길,03789,37.5571698,126.9358758
8,한강대로81길,04321,37.5430900,126.9719229
16,이태원로36길,04404,37.5344463,126.9993707
703,선릉로,06060,37.5176744,127.0408347
78,가락로,05695,37.5000656,127.1050928
1308,동일로,01760,37.6494378,127.0623860
64,대흥로,04150,37.5457237,126.9402052
15-16,신림로59길,08776,37.4825905,126.9294086
35,다산로39길,04611,37.5644360,127.0138578
23,압구정로42길,06017,37.5272995,127.0352363
43,녹사평대로32길,04390,37.5328047,126.9907497
159,방학로,01384,37.6623038,127.0344989
9,대사관로24길,04402,37.5330732,127.0047223
147,와우산로,04053,37.5543116,126.9294211
54-1,자하문로,03043,37.5809651,126.9715036
13,퇴계로20길,04629,37.5596587,126.9858364
11,강남대로98길,06129,37.5008073,127.0275959
59,헌인릉1길,06795,37.4653783,127.0865985
28-2,언주로93길,06139,37.5033800,127.0398273
23,압구정로46길,06017,37.5271721,127.0365281
7,압구정로18길,06031,37.5244588,127.0246225
7,압구정로18길,06031,37.5244558,127.0245763
35,압구정로48길,06018,37.5261475,127.0371097
85,마곡중앙8로,07794,37.5611719,126.8370291
2-2,당산로45길,07213,37.5333497,126.9011309
20,언주로170길,06017,37.5267206,127.0352453
39,봉은사로6길,06128,37.5026694,127.0279797
23,압구정로46길,06017,37.5271721,127.0365426
31,율곡로6길,03131,37.5757202,126.9893472
13,언주로134길,06058,37.5168621,127.0367096
13-17,압구정로4길,06028,37.5224819,127.0215264
15-9,독막로8길,04073,37.5469160,126.9183459
109,마포대로,04146,37.5445210,126.9507401
25,신림로12길,08837,37.4718501,126.9387431
23,선릉로157길,06018,37.5261588,127.0378961
159-6,퇴계로,04553,37.5617072,126.9900174
104,아차산로,04782,37.5444317,127.0556017
23,선릉로157길,06018,37.5261545,127.0378778
39,퇴계로,04528,37.5578721,126.9769017
39-2,퇴계로,04528,37.5578929,126.9770820
50,남대문시장4길,04528,37.5579707,126.9770783
48,남대문시장4길,04528,37.5580337,126.9770963
46,남대문시장4길,04528,37.5581511,126.9770953
73,포은로,04017,37.5535902,126.9058376
134,사평대로55길,06535,37.5097655,127.0204336
2,남대문로,04528,37.5600178,126.9761918
15-3,연희로22길,03723,37.5706621,126.9348541
55,강남대로122길,06115,37.5092530,127.0272422
17,연무장길,04782,37.5437662,127.0514702
14,역삼로78길,06201,37.5014986,127.0570779
37,삼성로71길,06201,37.5014001,127.0559276
34,삼성로71길,06201,37.5016122,127.0561540
34-1,남대문시장4길,04528,37.5584511,126.9770681
15-16,신림로59길,08776,37.4825763,126.9294508
23,압구정로42길,06017,37.5272890,127.0352622
3,성수일로1길,04779,37.5417437,127.0474823
30,삼성로71길,06201,37.5017058,127.0564772
444,역삼로,06201,37.5019215,127.0556941
41,삼성로71길,06201,37.5012730,127.0555591
75,와우산로22길,04067,37.5490300,126.9241920
4,선릉로131길,06059,37.5180077,127.0405857
15-16,신림로59길,08776,37.4826103,126.9293626
461,압구정로,06011,37.5253778,127.0472756
71,연남로,03975,37.5653268,126.9191700
54-6,이태원로27가길,04350,37.5351392,126.9921077
38,연무장길,04781,37.5428876,127.0534820
455,강남대로,06611,37.5028204,127.0245906
64,가로수길,06029,37.5222677,127.0228658
14,도산대로61길,06016,37.5247315,127.0430927
61,한강대로62길,04382,37.5320971,126.9735712
21,다산로18길,04591,37.5567341,127.0131717
60,신촌로,04057,37.5563178,126.9324697
21-16,백제고분로41길,05625,37.5075846,127.1063974
9,강남대로85길,06536,37.5073660,127.0222810
20,백제고분로21길,05605,37.5055444,127.0905739
12,이태원로54가길,04400,37.5371729,127.0016168
50,테헤란로39길,06138,37.5056415,127.0406501
31,토정로,04083,37.5457383,126.9144793
19-1,백제고분로41길,05625,37.5076913,127.1072809
41,강남대로154길,06035,37.5186745,127.0222710
23,난계로30길,02586,37.5743435,127.0248453
50,도산대로99길,06011,37.5268439,127.0493630
20,월드컵로5길,04023,37.5519936,126.9111634
8,논현로139길,06041,37.5166483,127.0286779
31,돌곶이로,02788,37.6070396,127.0607259
15,강남대로122길,06114,37.5081845,127.0242749
12,반포대로4길,06719,37.4818637,127.0133949
63,와우산로,04049,37.5502482,126.9228739
13,퇴계로22길,04629,37.5603198,126.9866510
63,노원로26길,01705,37.6530772,127.0708104
9,봉은사로68길,06154,37.5113204,127.0502255
85,서빙고로91나길,04398,37.5244190,126.9960184
16-12,양화로12길,04043,37.5514383,126.9184908
404,도산대로,06062,37.5229864,127.0398662
14,한남대로21길,04401,37.5343254,127.0062345
9,논현로152길,06025,37.5211067,127.0289730
20-11,잔다리로,04042,37.5513101,126.9207030
64,가로수길,06029,37.5222734,127.0228228
27,성수이로7길,04780,37.5415261,127.0536830
356,뚝섬로,04774,37.5399410,127.0502725
5-1,서울숲2길,04768,37.5475607,127.0397388
202,마장로,04707,37.5664105,127.0321219
36,월드컵로14길,04003,37.5561587,126.9124141
44,효창원로93길,04185,37.5476191,126.9614916
86,독막로,04074,37.5474775,126.9227219
14,도산대로61길,06016,37.5247334,127.0431372
31,도산대로59길,06016,37.5259197,127.0421163
2,연무장7가길,04782,37.5431258,127.0546424
217,목동중앙로,07969,37.5442465,126.8832503
"144-1, 4층",새창로,04363,37.5346866,126.9617549
27,한남대로18길,04419,37.5347580,127.0086860
5-1,서울숲2길,04768,37.5475638,127.0397719
17,논현로151길,06037,37.5199714,127.0268409
57,대사관로11길,04400,37.5358294,127.0011987
23,한남대로27가길,04400,37.5377198,127.0025527
21,방배중앙로29길,06554,37.4963727,126.9842334
27-6,압구정로4길,06028,37.5217465,127.0208129
6,자양로15길,05055,37.5360517,127.0831364
49,서초대로74길,06626,37.4934031,127.0281179
212,원효로,04368,37.5374545,126.9656055
1921,남부순환로,08801,37.4775985,126.9626963
161-11,성미산로,03980,37.5651910,126.9236906
46,독서당로,04410,37.5323243,127.0071084
11-4,필운대로5가길,03037,37.5798212,126.9681258
13,다산로38길,04585,37.5632401,127.0165917
8-1,연무장9길,04782,37.5429099,127.0561114
35-16,필운대로,03039,37.5791791,126.9683161
15,선릉로155길,06019,37.5253998,127.0383733
46,도산대로81길,06010,37.5272280,127.0464204
55-4,가로수길,06028,37.5217574,127.0225090
549,천호대로,04919,37.5576091,127.0792202
530,천호대로,04996,37.5576569,127.0768897
409-1,능동로,04908,37.5657104,127.0839727
136,면목로,04908,37.5654608,127.0811795
289,능동로,04997,37.5557176,127.0783911
245,능동로,04998,37.5521924,127.0766033
26,아차산로30길,05072,37.5397749,127.0669614
85,광나루로56길,05116,37.5355475,127.0954106
14,독막로,04072,37.5484667,126.9148493
10,효령로31길,06686,37.4817179,126.9967408
2,필운대로3길,03039,37.5787088,126.9687522
66,광성로6길,04096,37.5473510,126.9401623
42,이태원로54길,04400,37.5365142,127.0014341
244-1,다산로,04585,37.5648606,127.0163613
6-1,성수일로3길,04779,37.5422211,127.0480625
522,강남대로,06114,37.5085632,127.0229035
8-3,한강대로15길,04379,37.5260111,126.9639316
15-3,선릉로161길,06018,37.5270392,127.0391714
416,영동대로,06176,37.5064430,127.0654264
283,가락로,05628,37.5130811,127.1198841
17,동소문로24가길,02845,37.5916945,127.0195085
45,연대동문길,03721,37.5644110,126.9443785
4,압구정로46길,06017,37.5284559,127.0367061
20-9,잔다리로6길,04042,37.5519389,126.9206924
13,한강대로40길,04382,37.5304000,126.9700171
189,이태원로,04350,37.5347757,126.9949852
664,올림픽로,05328,37.5408112,127.1246252
"402, 시계탑빌딩 9층",강남대로,06134,37.4987890,127.0278347
231,삼성로,06279,37.4978449,127.0609981
283,가락로,05628,37.5130426,127.1198607
48,동교로29길,03984,37.5624615,126.9227662
125,대학로,03078,37.5824488,127.0014665
50,연세로,03722,37.5638705,126.9386330
50,연세로,03722,37.5638811,126.9385600
12,선릉로155길,06018,37.5255815,127.0388493
213,여의동로,07345,37.5187522,126.9397475
46,압구정로2길,06034,37.5190916,127.0206485
14,이태원로54가길,04400,37.5371031,127.0015854
22,사당로,07027,37.4951020,126.9568905
37,성수이로22길,04798,37.5437960,127.0616903
168-24,녹사평대로,04390,37.5331445,126.9901035
28-20,독막로3길,04047,37.5498156,126.9180003
331,도산대로,06019,37.5232889,127.0381803
29,녹사평대로46길,04345,37.5373819,126.9883835
13,강남대로92길,06134,37.4986447,127.0284920
10,동교로29길,03984,37.5609650,126.9239187
44,능동로13길,05011,37.5438985,127.0701083
58-18,이태원로54길,04400,37.5357835,127.0007683
124,테헤란로,06234,37.4987812,127.0316711
260,하늘길,07505,37.5492572,126.8145602
260,하늘길,07505,37.5495638,126.8144331
66,무학봉길,04714,37.5607686,127.0301235
8,논현로157길,06032,37.5224811,127.0274351
55,마곡동로,07802,37.5600991,126.8330691
22,능동로35길,04996,37.5571035,127.0779905
125,남대문로,04521,37.5683375,126.9823590
23,서초중앙로18길,06634,37.4915025,127.0155592
210,디지털로,08515,37.4788789,126.8895969
17,면목로37길,02237,37.5791335,127.0853264
351,월드컵북로,03912,37.5765763,126.8929309
14,삼성로,06331,37.4877892,127.0737407
8-10,종암로9길,02810,37.5959810,127.0348951
22,길음로13길,02715,37.6102041,127.0191615
62,언주로172길,06018,37.5267598,127.0387936
15,서울숲4길,04768,37.5474603,127.0427568
837,언주로,06023,37.5252781,127.0327608
505,테헤란로,06168,37.5075887,127.0574294
9,강남대로85길,06536,37.5073512,127.0222591
369,봉천로,08750,37.4838428,126.9411478
100,한강대로,04386,37.5285414,126.9684167
108,을지로,04550,37.5660426,126.9899114
14-7,선릉로137길,06056,37.5194798,127.0390057
57,천호대로168가길,05383,37.5356259,127.1292409
13,선릉로155길,06019,37.5253611,127.0386259
70-7,동일로143길,02012,37.6051572,127.0745169
137,마장로,04700,37.5703243,127.0239103
11,면목로27나길,02243,37.5753156,127.0826830
8,회나무로12길,04345,37.5389449,126.9895495
36,압구정로48길,06017,37.5261543,127.0368396
14,오목로54길,08005,37.5234857,126.8730469
3,동교로41길,03984,37.5624961,126.9241138
22,마곡중앙4로,07631,37.5580547,126.8295052
19,양화로15안길,04031,37.5539393,126.9185614
37,성수이로22길,04798,37.5437694,127.0616793
44,능동로13길,05010,37.5440026,127.0698746
58-18,이태원로54길,04400,37.5357783,127.0007379
151,사임당로,06624,37.4921860,127.0261740
157,사임당로,06625,37.4923419,127.0267886
151,사임당로,06624,37.4920699,127.0257736
151,사임당로,06624,37.4920855,127.0258294
151,사임당로,06624,37.4920924,127.0258578
151,사임당로,06624,37.4921466,127.0260596
151,사임당로,06624,37.4921542,127.0260943
151,사임당로,06624,37.4922760,127.0259660
55,마곡동로,07802,37.5601782,126.8331086
23,성내로3가길,05397,37.5304404,127.1241883
199,백범로,04195,37.5434265,126.9529931
24,압구정로48길,06017,37.5269709,127.0366467
11-20,한강대로80길,04352,37.5434184,126.9734200
158,반포대로,06594,37.4949065,127.0080018
27-5,동교로38길,03982,37.5617899,126.9256735
20,강남대로102길,06128,37.5022562,127.0273481
46,테헤란로83길,06166,37.5103949,127.0567610
89,독서당로,04419,37.5347754,127.0103194
33-14,동교로38길,03982,37.5617389,126.9262740
41-26,연무장길,04782,37.5434136,127.0543227
36,Samil-daero 10-gil,04551,37.5655633,126.9894710
372,능동로,04937,37.5624081,127.0826388
18,새창로6길,04169,37.5412302,126.9526400
"100;100,",연희로,03724,37.5668389,126.9312124
15,서울숲4길,04768,37.5474379,127.0427450
21,우사단로14길,04405,37.5343623,126.9968199
31-7,대사관로34길,04410,37.5318582,127.0061633
13-1,뚝섬로9길,04784,37.5386666,127.0568095
55,방배로32길,06585,37.4923457,126.9943287
16-22,양화로8길,04044,37.5494036,126.9152154
20-6,아차산로31길,05017,37.5416908,127.0698982
31,다산로24길,04589,37.5575616,127.0144070
8-1,연무장7길,04782,37.5434374,127.0546870
24-3,도림로141가길,07288,37.5158826,126.8905511
111,성수일로,04791,37.5505046,127.0516519
12,백제고분로50길,05630,37.5139134,127.1160634
121,회기로,02454,37.5916015,127.0500853
54,강남대로94길,06133,37.5002484,127.0317208
54,동작대로25길,07008,37.4850258,126.9796125
15,자하문로9길,03040,37.5793063,126.9703835
18,선릉로161길,06018,37.5274792,127.0390325
29,논현로122길,06106,37.5124187,127.0343285
14,양화로16길,04039,37.5533743,126.9203874
135-1,한강대로,04376,37.5316602,126.9699036
31-3,돈화문로11나길,03133,37.5739356,126.9900385
26,한남대로27가길,04399,37.5379272,127.0026816
61-6,양화로7길,04029,37.5535200,126.9135793
52,회나무로44길,04346,37.5390668,126.9952280
8,서초대로1길,06568,37.4869357,126.9831813
28,압구정로50길,06018,37.5265377,127.0375600
42,나루터로15길,06524,37.5172671,127.0171009
21,대사관로34길,04410,37.5322029,127.0060470
11,삼성로135길,06068,37.5198827,127.0484666
23,경인로67길,08208,37.5105872,126.8894503
20-1,한강대로54길,04382,37.5323474,126.9726900
34,한강대로52길,04382,37.5315064,126.9726870
15,양화로21길,03994,37.5589067,126.9249529
64,왕십리로,04778,37.5433269,127.0449152
22,마곡중앙4로,07631,37.5580755,126.8295754
92,우사단로10길,04407,37.5318835,127.0003133
254,이태원로,04400,37.5374711,127.0013114
164,동교로,04031,37.5557914,126.9201004
39,도산대로51길,06018,37.5258442,127.0380821
46,연세로7안길,03787,37.5584001,126.9343574
53,바우뫼로,06762,37.4723818,127.0281021
400-12,Yangcheon-ro,07573,37.5654669,126.8457753
19-10,대사관로31길,04401,37.5343984,127.0054018
38,도산대로49길,06019,37.5254619,127.0373059
34,이태원로42길,04400,37.5360837,127.0004688
63-15,동일로184길,01834,37.6253490,127.0768973
173,동호로,04597,37.5534974,127.0110796
78,삼선교로,02862,37.5894553,127.0141611
1600-12,남부순환로,08776,37.4834548,126.9288154
755,선릉로,06055,37.5220449,127.0392262
6-8,이태원로19길,04350,37.5347103,126.9922541
32-4,영신로,07307,37.5145606,126.9084093
7-12,퇴계로81길,04570,37.5661392,127.0176264
68,디지털로9길,08512,37.4812584,126.8862047
33,선릉로157길,06018,37.5263204,127.0370187
37,성수이로,04775,37.5385871,127.0545712
54,이태원로14길,04390,37.5320912,126.9914664
13-2,북촌로6길,03056,37.5803289,126.9856590
103,아리수로61길,05204,37.5653169,127.1476541
22,"Yeongdeungpo-gu, Yangpyeong-ro, 22",07223,37.5331174,126.9038337
10fl,Yangpyeong-ro 22,07223,37.5342901,126.9039157
10,잔다리로6길,04042,37.5519498,126.9195228
13,압구정로50길,06018,37.5273709,127.0381421
194,마장로,04707,37.5664470,127.0315391
231,신촌로,03774,37.5574036,126.9515697
47-14,해등로34길,01360,37.6590007,127.0195051
10,잔다리로6길,04042,37.5519216,126.9195273
237,공항대로,07803,37.5594331,126.8337122
3-26,회나무로13가길,04344,37.5411606,126.9902033
22-1,독서당로51길,04718,37.5501229,127.0266113
27,을지로12길,04550,37.5649940,126.9909077
8,창덕궁1길,03057,37.5794026,126.9889290
262-24,연희로,03653,37.5812146,126.9369633
20-1,금호산2길,04730,37.5488182,127.0217824
36,면목로35길,02237,37.5788101,127.0841081
62,성내로,05399,37.5280162,127.1267921
410,광나루로,05021,37.5465848,127.0752587
15,다산로44길,04577,37.5650239,127.0177674
65,오금로11길,05545,37.5151300,127.1139867
795,올림픽로,05241,37.5522246,127.1279643
7,선릉로152길,06014,37.5242636,127.0402028
25,독막로3길,04044,37.5495406,126.9168750
30,마장로,04566,37.5676510,127.0130681
10,봉은사로29길,06109,37.5084702,127.0347454
15,논현로157길,06032,37.5223023,127.0266710
24,마조로,04762,37.5597936,127.0412775
55,화랑로40길,02781,37.6136876,127.0646920
28,와우산로,04075,37.5469513,126.9230686
49,선릉로162길,06015,37.5262403,127.0445946
21,국회대로37길,07220,37.5286782,126.9003050
243,동교로,03984,37.5617131,126.9241248
57,성수이로20길,04787,37.5421387,127.0630044
382,강남대로,06232,37.4970996,127.0285074
12,테헤헤란로113길,06171,37.5113217,127.0665708
10,자양로28길,05039,37.5422927,127.0847805
64,양평로,07222,37.5350776,126.8999033
39,동소문로24길,02845,37.5919509,127.0188858
43 605호,양산로,07270,37.5259128,126.8882076
78,고산자로32길,02561,37.5773313,127.0425917
21,연세로,03789,37.5575783,126.9366924
88,관악로14길,08789,37.4780575,126.9572209
24,이화여대2가길,03767,37.5584506,126.9462523
12,충무로9길,04543,37.5669775,126.9918370
19-11,와우산로21길,04041,37.5519194,126.9228677
39,동소문로24길,02845,37.5919228,127.0188664
325,퇴계로,04565,37.5653978,127.0240767
95,한강대로,04378,37.5290373,126.9669424
355,아차산로,05026,37.5371901,127.0825508
27,선릉로132길,06065,37.5185341,127.0434821
67,시흥대로73길,08613,37.4560736,126.8957008
6,천중로53길,05304,37.5408487,127.1454526
26,학동로44길,06098,37.5140562,127.0374088
98,보광로,04406,37.5317200,126.9951388
524,도곡로,06282,37.4995670,127.0637208
54-1,수표로,04550,37.5659841,126.9899022
38,창덕궁1길,03057,37.5794609,126.9870987
28,강남대로98길,06129,37.5008806,127.0286790
437,강남대로,06612,37.5013671,127.0255130
109,동작대로,07008,37.4862373,126.9815843
48,개포로31길,06304,37.4822675,127.0489626
26,아차산로11길,04796,37.5457812,127.0600722
34,종로35길,03126,37.5726228,127.0038659
63,한천로14길,02628,37.5666050,127.0662013
30,만리재옛길,04209,37.5466675,126.9561308
18,한남대로21길,04401,37.5340876,127.0061737
10,동작대로9길,07014,37.4806660,126.9809634
24,Yeoui-daero,07320,37.5221948,126.9200207
63,신흥로11길,04338,37.5451949,126.9854838
19,대사관로5길,04400,37.5350882,127.0004279
9,방배로35길,06561,37.4926740,126.9888493
14,한강대로62나길,04382,37.5342733,126.9744995
31,도산대로59길,06016,37.5258392,127.0424916
58,왕십리로,04778,37.5424865,127.0452596
14-38,보광로60길,04406,37.5333251,126.9949502
319,면목로,02238,37.5804852,127.0882220
319,면목로,02238,37.5804363,127.0882167
319,면목로,02238,37.5803842,127.0882502
319,면목로,02238,37.5804321,127.0881429
315,면목로,02238,37.5802578,127.0880235
311,면목로,02238,37.5799769,127.0879130
309,면목로,02238,37.5797714,127.0876945
1-4,사가정로52길,02238,37.5804149,127.0878667
3,사가정로52길,02238,37.5804710,127.0877404
5,사가정로52길,02238,37.5803899,127.0876318
9,사가정로52길,02238,37.5803172,127.0875833
9,사가정로52길,02238,37.5803062,127.0875394
3-4,사가정로50길,02238,37.5803361,127.0877874
9-3,사가정로52길,02238,37.5802336,127.0877111
11,사가정로52길,02238,37.5802470,127.0874839
11,사가정로52길,02238,37.5802092,127.0874693
17,사가정로52길,02238,37.5800454,127.0873207
22,사가정로52길,02238,37.5798428,127.0869012
22,사가정로52길,02238,37.5798057,127.0867933
22,사가정로52길,02238,37.5797881,127.0868597
19,사가정로52길,02238,37.5799527,127.0872260
8,면목로39길,02238,37.5797290,127.0870969
8,면목로39길,02238,37.5797173,127.0871600
8,면목로39길,02238,37.5797651,127.0871801
8,면목로39길,02238,37.5798060,127.0872251
8,면목로39길,02238,37.5797875,127.0872671
8,면목로39길,02238,37.5798532,127.0871749
8,면목로39길,02238,37.5798060,127.0871341
8,면목로39길,02238,37.5797672,127.0870932
305,면목로,02238,37.5796514,127.0873539
305,면목로,02238,37.5796149,127.0874424
305,면목로,02238,37.5796991,127.0874592
305,면목로,02238,37.5797377,127.0875371
305,면목로,02238,37.5796703,127.0875495
303,면목로,02239,37.5794783,127.0871804
303,면목로,02239,37.5794961,127.0872302
303,면목로,02239,37.5794429,127.0871478
303,면목로,02239,37.5794155,127.0870950
303,면목로,02239,37.5795379,127.0871773
5,면목로39길,02239,37.5796032,127.0869508
5,면목로39길,02239,37.5795899,127.0870498
5,면목로39길,02239,37.5796053,127.0869870
5,면목로39길,02239,37.5795892,127.0869083
301,면목로,02239,37.5793741,127.0868756
31,사가정로52길,02239,37.5795523,127.0868139
31,사가정로52길,02239,37.5795200,127.0867847
31,사가정로52길,02239,37.5794948,127.0867219
31,사가정로52길,02239,37.5794744,127.0866741
18,면목로39길,02238,37.5799493,127.0864348
384,사가정로,02238,37.5805681,127.0872460
384,사가정로,02238,37.5805303,127.0872252
5-17,사가정로50길,02238,37.5805108,127.0868755
382,사가정로,02238,37.5806329,127.0868755
380,사가정로,02238,37.5806616,127.0865599
5,사가정로50길,02238,37.5805750,127.0865720
5,사가정로50길,02238,37.5805548,127.0865733
5,사가정로50길,02238,37.5805229,127.0865847
9,사가정로50길,02238,37.5804071,127.0865639
11,사가정로50길,02238,37.5803109,127.0864961
13,사가정로50길,02238,37.5802008,127.0864483
15,사가정로50길,02238,37.5801212,127.0864611
320,면목로,02249,37.5803908,127.0885339
320,면목로,02249,37.5803538,127.0886010
318,면목로,02249,37.5802966,127.0884709
318,면목로,02249,37.5802466,127.0885268
318,면목로,02249,37.5801822,127.0884994
398,사가정로,02249,37.5803207,127.0887982
398,사가정로,02249,37.5802917,127.0888297
398,사가정로,02249,37.5802668,127.0888581
5,면목로42길,02249,37.5801024,127.0886721
5,면목로42길,02249,37.5800646,127.0887484
316,면목로,02249,37.5800713,127.0883474
6,면목로42길,02249,37.5799767,127.0885110
20,사가정로54길,02249,37.5799596,127.0886851
314,면목로,02249,37.5799535,127.0882665
314,면목로,02249,37.5798925,127.0882603
314,면목로,02249,37.5798763,127.0881365
22,사가정로54길,02249,37.5798301,127.0884629
310,면목로,02249,37.5797930,127.0880629
310,면목로,02249,37.5797541,127.0880127
310,면목로,02249,37.5797217,127.0880851
310,면목로,02249,37.5796523,127.0880186
310,면목로,02249,37.5795866,127.0879403
310,면목로,02249,37.5795505,127.0879147
310,면목로,02249,37.5796902,127.0879217
306,면목로,02249,37.5794923,127.0877048
306,면목로,02249,37.5794593,127.0876986
306,면목로,02249,37.5794292,127.0877694
306,면목로,02249,37.5793920,127.0877986
52,용마산로51길,02250,37.5803858,127.0891221
52,용마산로51길,02250,37.5803401,127.0891113
52,용마산로51길,02250,37.5803010,127.0891421
52,용마산로51길,02250,37.5802552,127.0891991
404-6,사가정로,02250,37.5803127,127.0893143
50,용마산로51길,02250,37.5802250,127.0892753
50,용마산로51길,02250,37.5802006,127.0893384
51,용마산로51길,02249,37.5801982,127.0890415
11,사가정로54길,02249,37.5801175,127.0889541
395,사가정로,02249,37.5808541,127.0886203
395,사가정로,02249,37.5808216,127.0886337
395,사가정로,02249,37.5808084,127.0887637
324,사가정로,02249,37.5809242,127.0887145
324,사가정로,02249,37.5809506,127.0886433
397,사가정로,02214,37.5807688,127.0890029
397,사가정로,02214,37.5808030,127.0889264
397,사가정로,02214,37.5807743,127.0889480
326,면목로,02214,37.5810596,127.0886764
7,사가정로53길,02214,37.5810450,127.0890030
326-1,면목로,02214,37.5811443,127.0886713
330,면목로,02214,37.5813119,127.0887073
6,면목로44길,02214,37.5813026,127.0888318
9,사가정로53길,02214,37.5811382,127.0890567
8,사가정로53길,02214,37.5810685,127.0892451
18,면목로44길,02214,37.5810967,127.0895690
18,면목로44길,02214,37.5810653,127.0895535
330-1,면목로,02213,37.5815293,127.0887298
330-1,면목로,02213,37.5814778,127.0887707
330-1,면목로,02213,37.5814677,127.0887130
330-1,면목로,02213,37.5814400,127.0887948
7,면목로44길,02213,37.5814518,127.0891031
7,면목로44길,02213,37.5814252,127.0890573
19,사가정로53길,02213,37.5815480,127.0891127
19,사가정로53길,02213,37.5816172,127.0889764
19,사가정로53길,02213,37.5816060,127.0889925
334-1,면목로,02213,37.5818356,127.0887773
334-1,면목로,02213,37.5819142,127.0887826
336,면목로,02213,37.5820651,127.0887598
336,면목로,02213,37.5819859,127.0887967
338,면목로,02213,37.5822107,127.0887571
338,면목로,02213,37.5822038,127.0888249
338,면목로,02213,37.5821921,127.0889094
8,면목로48길,02213,37.5821767,127.0890701
8,면목로48길,02213,37.5821651,127.0891471
27,사가정로53길,02213,37.5819500,127.0891611
23,사가정로53길,02213,37.5818104,127.0890829
336,면목로,02213,37.5820314,127.0889100
21,사가정로53길,02213,37.5817339,127.0891546
1,면목로44가길,02213,37.5812423,127.0896425
1,면목로44가길,02213,37.5812030,127.0896546
15,면목로44길,02213,37.5812184,127.0894990
13,면목로44길,02213,37.5812870,127.0893787
20,사가정로53길,02213,37.5815054,127.0892777
24,사가정로53길,02213,37.5817182,127.0892781
26,사가정로53길,02213,37.5818406,127.0893152
26,사가정로53길,02213,37.5818169,127.0892985
20-3,사가정로53길,02213,37.5814776,127.0894194
11,면목로45길,02228,37.5816676,127.0879017
11,면목로45길,02228,37.5816383,127.0879302
11,면목로45길,02228,37.5815992,127.0879302
240,월드컵로,03932,37.5672032,126.8972262
240,월드컵로,03932,37.5685628,126.8981831
240,월드컵로,03932,37.5685411,126.8959068
240,월드컵로,03932,37.5694605,126.8989716
240,월드컵로,03932,37.5694780,126.8990160
387,사가정로,02228,37.5809172,127.0877220
3,사가정로51길,02228,37.5810163,127.0877551
3,사가정로51길,02228,37.5810403,127.0878201
385-1,사가정로,02228,37.5809308,127.0876022
7,사가정로51길,02228,37.5811093,127.0878470
9,사가정로51길,02228,37.5812507,127.0878691
5,면목로43길,02228,37.5812555,127.0876217
385,사가정로,02228,37.5809593,127.0874840
383,사가정로,02228,37.5809523,127.0873455
381-1,사가정로,02228,37.5809733,127.0871898
21,면목로43길,02228,37.5813527,127.0867224
8,사가정로49길,02228,37.5812770,127.0866631
6,사가정로49길,02228,37.5811845,127.0866861
379-1,사가정로,02228,37.5811242,127.0868711
377,사가정로,02228,37.5810177,127.0866797
379,사가정로,02228,37.5810032,127.0868647
333,면목로,02228,37.5818077,127.0885542
335,면목로,02228,37.5819012,127.0885350
337,면목로,02228,37.5820677,127.0885338
337,면목로,02228,37.5820423,127.0885525
28,사가정로51길,02228,37.5820713,127.0881029
26,사가정로51길,02228,37.5819545,127.0881090
8,면목로45길,02228,37.5818103,127.0881294
6,면목로45길,02228,37.5818224,127.0882503
341,면목로,02228,37.5825761,127.0883395
341,면목로,02228,37.5825697,127.0884165
341,면목로,02228,37.5825271,127.0884562
341,면목로,02228,37.5824697,127.0884586
341,면목로,02228,37.5824050,127.0884912
341,면목로,02228,37.5823569,127.0884994
341,면목로,02228,37.5823149,127.0884889
341,면목로,02228,37.5823108,127.0884573
341,면목로,02228,37.5822794,127.0884716
341,면목로,02228,37.5822391,127.0884807
38,면목로49길,02228,37.5825645,127.0880447
38,면목로49길,02228,37.5825951,127.0880823
38,면목로49길,02228,37.5825919,127.0881717
36,사가정로51길,02228,37.5824429,127.0880904
39,사가정로51길,02228,37.5826094,127.0877532
39,사가정로51길,02228,37.5826173,127.0877902
39,사가정로51길,02228,37.5826375,127.0877085
17,사가정로51길,02228,37.5826558,127.0876007
19,사가정로51길,02228,37.5826759,127.0874836
37,사가정로51길,02228,37.5824676,127.0876528
35,사가정로51길,02228,37.5824606,127.0878518
35,사가정로51길,02228,37.5824213,127.0878607
31,면목로47길,02228,37.5823295,127.0878492
42-2층,사평대로55길,06541,37.5059015,127.0221732
7,수표로22길,03139,37.5714803,126.9897271
406-10,사가정로,02250,37.5802762,127.0896138
28,면목로38나길,02250,37.5796360,127.0900871
28,면목로38나길,02250,37.5795965,127.0901329
31,용마산로51길,02250,37.5795777,127.0897740
31,용마산로51길,02250,37.5796397,127.0897384
29,면목로42길,02249,37.5793963,127.0895833
74,퇴계로86길,04585,37.5624863,127.0186073
240,월드컵로,03932,37.5693308,126.8980717
2457,남부순환로,06725,37.4827191,127.0192254
13,선릉로132길,06065,37.5182400,127.0422303
638,경인로,08209,37.5072326,126.8862215
29,독서당로51길,04718,37.5505766,127.0262122
314,압구정로,06017,37.5286187,127.0357617
13,새말로19길,05800,37.4871777,127.1313171
42,연무장길,04781,37.5427627,127.0539681
39,삼성로85길,06196,37.5042364,127.0542088
83,삼학사로,05602,37.5045476,127.0969436
190,사가정로,02533,37.5783520,127.0662632
190,사가정로,02533,37.5783227,127.0664003
190,사가정로,02533,37.5783153,127.0662216
190,사가정로,02533,37.5783007,127.0662616
190,사가정로,02533,37.5782714,127.0663310
190,사가정로,02533,37.5782311,127.0663726
190,사가정로,02533,37.5781566,127.0664034
190,사가정로,02533,37.5782372,127.0662093
190,사가정로,02533,37.5781884,127.0662385
19-9,올림픽로32길,05547,37.5146562,127.1097486
111,전농로10길,02532,37.5769429,127.0624480
19,한천로37길,02535,37.5763389,127.0664886
19,한천로37길,02535,37.5762918,127.0665259
33,한천로37길,02535,37.5759150,127.0663113
111,전농로10길,02532,37.5768250,127.0627533
111,전농로10길,02532,37.5768000,127.0628023
148,사가정로,02532,37.5766040,127.0614097
148,사가정로,02532,37.5768828,127.0600355
148,사가정로,02532,37.5765369,127.0604952
148,사가정로,02532,37.5761364,127.0602343
12,한강대로54길,04382,37.5325236,126.9722982
6,영동대로137길,06072,37.5219863,127.0550225
6,논현로31길,06740,37.4823015,127.0423250
35,대사관로,04401,37.5337083,127.0020493
37,선릉로152길,06016,37.5246390,127.0427308
13,언주로151길,06026,37.5218245,127.0321603
144-1,새창로,04363,37.5346878,126.9617388
220,면목로,02255,37.5725955,127.0841056
222,면목로,02255,37.5727815,127.0841634
222,면목로,02255,37.5727327,127.0842681
224,면목로,02255,37.5728804,127.0842196
224,면목로,02255,37.5729506,127.0842858
224,면목로,02255,37.5729012,127.0843059
6,면목로24길,02255,37.5728104,127.0844229
5,면목로22길,02255,37.5724221,127.0842849
5,면목로22길,02255,37.5724166,127.0844050
218,면목로22길,02255,37.5723661,127.0840154
2,창의문로5가길,03022,37.5918790,126.9634297
27,창의문로7길,03022,37.5917263,126.9632265
7,역삼로33길,06224,37.4975666,127.0415832
85,율곡로,03058,37.5778867,126.9885378
70-6,삼양로571,01006,37.6539639,127.0125585
25,한강대로50길,04382,37.5315602,126.9721657
169,방배로,06573,37.4886763,126.9926675
5,방배로18길,06664,37.4851809,126.9955414
120,방배로,06664,37.4850086,126.9958216
114,방배로,06665,37.4843749,126.9960130
39-5,월드컵로5길,04025,37.5513827,126.9101804
3-7,북촌로5나길,03053,37.5813799,126.9816367
291,반포대로,06506,37.5049535,126.9994031
18,만리재옛길,04209,37.5455701,126.9551372
14,동교로23길,03992,37.5567916,126.9207641
104,희우정로,04007,37.5544763,126.9016321
65,대사관로,04401,37.5334202,127.0053502
187,동교로,03992,37.5572084,126.9219747
60,효령로72길,06732,37.4858068,127.0280123
6,독서당로29길,04419,37.5367592,127.0115807
22,선릉로161길,06018,37.5275300,127.0386036
40-4,선릉로86길,06197,37.5037429,127.0530632
20 2층,사당로,07027,37.4952537,126.9566992
33-23,월드컵로5길,04025,37.5506364,126.9109559
242,동교로,03982,37.5614120,126.9244258
50,한남대로20길,04419,37.5351108,127.0095755
64,언주로172길,06018,37.5266504,127.0389641
33,성미산로26길,03984,37.5623670,126.9233322
27,와우산로29마길,04053,37.5551450,126.9263131
41,동작대로3길,07025,37.4786511,126.9791368
104,반포대로,06648,37.4893848,127.0090822
8,성덕정3길,04774,37.5395579,127.0476182
53,성수일로6길,04782,37.5442069,127.0556981
15,봉은사로2길,06123,37.5036223,127.0258990
80-15,대흥로,04149,37.5471135,126.9420797
5-1,연무장7가길,04782,37.5431146,127.0550837
39,양화로6길,04044,37.5489740,126.9163294
8,선릉로131길,06059,37.5179742,127.0402808
36,경희궁길,03175,37.5728998,126.9699360
14,월드컵로1길,04024,37.5499011,126.9120763
5,마조로3길,04760,37.5584171,127.0398457
8,테헤란로64길,06192,37.5041997,127.0509345
6,테헤란로79길,06158,37.5073953,127.0558982
5,용마산로96길,02188,37.5905172,127.0979542
5,용마산로96길,02188,37.5904912,127.0979758
9,용마산로96길,02188,37.5904667,127.0980722
9,용마산로96길,02188,37.5904514,127.0981096
442-1,용마산로,02188,37.5908529,127.0978443
446,용마산로,02188,37.5910632,127.0979571
446,용마산로,02188,37.5910039,127.0979530
26,강서로18길,07756,37.5338910,126.8471481
100,신흥로,04337,37.5452073,126.9846442
60,언주로172길,06018,37.5267792,127.0385768
11-1,뚝섬로9길,04784,37.5393137,127.0564731
838-1,경인로,07306,37.5160063,126.9060724
268,석촌호수로,05623,37.5097423,127.1056439
36,뚝섬로13길,04785,37.5412672,127.0580766
17-17,무교로,04520,37.5674256,126.9789066
17,무교로,04520,37.5674203,126.9790567
36,동남로4길,05806,37.4870873,127.1245844
36,동남로4길,05806,37.4870809,127.1244905
36,동남로4길,05806,37.4871134,127.1246904
34,동남로4길,05806,37.4872485,127.1246610
32,동남로4길,05806,37.4873653,127.1246779
30-1,동남로4길,05806,37.4875126,127.1247124
30,동남로4길,05806,37.4876325,127.1247112
28,동남로4길,05806,37.4877428,127.1246940
26,동남로4길,05806,37.4879403,127.1246442
58,양화로,04045,37.5500626,126.9152607
22,신림로67길,08760ㅍ,37.4859730,126.9280433
103-4,양재천로,06748,37.4768002,127.0401090
819,도봉로,01307,37.6774654,127.0446662
50,이태원로27가길,04350,37.5350737,126.9925101
3,군자로7길,05008,37.5463926,127.0700287
32,일로로,05012,37.5462991,127.0684737
146,동일로,05014,37.5453572,127.0660869
엘지여의도에클라트 1층,국회대로780,07237,37.5298340,126.9192483
775,경인로,7299,37.5156789,126.8998428
2,가재울미래로,03711,37.5742500,126.9173057
11,응암로9길,03485,37.5874406,126.9152384
11,봉은사로78길,06154,37.5120612,127.0529848
552,논현로,06136,37.5053657,127.0350838
24-4,강남대로84길,06240,37.4966782,127.0304876
113,도산대로,06035,37.5169939,127.0208411
34,도산대로17길,06033,37.5209707,127.0241125
16,역삼로4길,06252,37.4922043,127.0320805
641,봉은사사로,06083,37.5153870,127.0655936
42,삼성로85길,06194,37.5045383,127.0536434
282,동교로,3981,37.5641972,126.9266450
250,개포로,06309,37.4790124,127.0499184
295,광평로,06349,37.4883111,127.1040363
재화스퀘어 지하1층 B113호,"독막로 311,",4156,37.5438749,126.9472381
8-8,회기로21길,02453,37.5915182,127.0533535
10,선릉로93길,06149,37.5054540,127.0475239
35,광나나루로6길,04799,37.5466651,127.0632930
12-1,용답중앙15길,04805,37.5644915,127.0538558
502,강남대로,06119,37.5072634,127.0237525
46-3,논현로38길,06296,37.4856792,127.0453804
26,언주로30길,06294,37.4870905,127.0532874
39,학동로25길,06041,37.5161850,127.0277529
52,논현로85길,06235,37.4982161,127.0339268
27-3,무학봉15길,04710,37.5634290,127.0300790
35,백범로,04107,37.5517197,126.9411026
93,아차산로,04794,37.5453931,127.0538854
23,금호호산2길,04729,37.5489223,127.0222090
19,도산대로87길,06012,37.5259021,127.0497926
24,성미산로,03997,37.5584717,126.9109879
18,잔다리로7길,04043,37.5530450,126.9166705
39,성수일로8길,04794,37.5457420,127.0546166
40,한림말길,04736,37.5409141,127.0153880
4,광성로6안길,04096,37.5489492,126.9384915
451,도곡로,06209,37.4988383,127.0597947
153,양화로,03995,37.5564938,126.9224715
424,선릉로,06198,37.5028957,127.0498762
20,독막로7길,04048,37.5487102,126.9191500
109,행당로,04714,37.5580664,127.0310193
27,마조로3나길,04760,37.5598448,127.0397223
27,논현로28길,06301,37.4837692,127.0442840
8,남부순환로351길,06267,37.4854104,127.0348129
9,왕십리로14가길,04788,37.5500076,127.0450361
23,광나루로20길,05021,37.5458324,127.0745246
11,월드컵북로7길,04000,37.5580559,126.9171020
11,논현로136길,06051,37.5162158,127.0310210
3,전농로14길,2531,37.5767026,127.0580036
5,논현로94길,06140,37.5024550,127.0368343
7,성수이로7가길,04781,37.5411149,127.0546416
40,논현로26길,06300,37.4836703,127.0454482
27,테헤란로64길,06197,37.5031350,127.0518093
442,강남대로,06123,37.5021169,127.0263262
2,백범로26길,04149,37.5457680,126.9461547
26,망우로18가길,2499,37.5890057,127.0612733
30,압구정로75길,06011,37.5276090,127.0477417
27,역삼로25길,06224,37.4979828,127.0390697
32,언주로85길,06221,37.5007768,127.0405890
2,마조로,04763,37.5579976,127.0411335
64,금호로,04718,37.5492197,127.0261647
90,정릉천동로,2568,37.5797584,127.0360414
6,마조로3길,04760,37.5585978,127.0401239
815,선릉로,06019,37.5247953,127.0393694
174,독막로,04087,37.5471827,126.9329212
27,광평로31길,06354,37.4848798,127.0897910
467,봉은사로,06096,37.5125451,127.0505554
37-6,압구정로79길,06012,37.5257768,127.0505279
