House number,Street name,Postal code,Latitude,Longitude
1000,Holt Avenue,32789,28.5925001,-81.3489577
445,North Park Avenue,32789,28.6008106,-81.3512980
633,Osceola Avenue,32789,28.5964750,-81.3436600
2472,Aloma Avenue,32792,28.6010363,-81.3200301
741,South Orlando Avenue,32789-4844,28.5916016,-81.3664545
526,North Park Avenue,32789,28.6008522,-81.3506617
131,Orlando Avenue,32789,28.5982017,-81.3655486
124,North Park Avenue,32789,28.5982213,-81.3509301
505,North Park Avenue,32789,28.6013947,-81.3511797
329,North Park Avenue,32789,28.6003941,-81.3511881
400,South Park Avenue,32789,28.5946374,-81.3505834
538,Park Avenue,32789,28.5936474,-81.3504695
119,E. Lyman Avenue,32789,28.5950193,-81.3504486
1927,Aloma Avenue,32792,28.6012638,-81.3266612
610,Morse Boulevard,32789,28.5975435,-81.3570529
850,West Morse Boulevard,32789,28.5974157,-81.3607195
201 North,New York Avenue ste 250,32789,28.5989596,-81.3531229
933,Orlando Avenue,32789,28.6056378,-81.3655725
2090,Aloma Avenue,32792,28.6002625,-81.3248771
2117,West Fairbanks Avenue,32789,28.5932972,-81.3781973
1925,Mizell Avenue,32792,28.5967438,-81.3269475
200,East New England Avenue,32789,28.5957618,-81.3496660
1600 W,Fairbanks Avenue,32789,28.5929717,-81.3710284
415,Orlando Avenue,32789,28.6012969,-81.3655556
952,West Fairbanks Avenue,32789,28.5929202,-81.3618208
2131,Fairbanks Avenue,32789,28.5929027,-81.3644499
1285,Orange Avenue,32789,28.5876701,-81.3634103
1215,Louisiana Avenue,32789,28.6096737,-81.3631785
2555,Temple Trail,32789,28.6262985,-81.3366803
617,Worthington Drive,32789,28.5888930,-81.3281595
147,E Lyman Ave,32789,28.5952134,-81.3502022
1850,Lee Rd,32789,28.6050551,-81.3739176
303,North Park Avenue,32789,28.5997780,-81.3513080
528,South Park Avenue,32789,28.5937360,-81.3504657
1000,Holt Avenue,32789,28.5936752,-81.3483260
280,West Canton Avenue,32789,28.6002253,-81.3541586
440,North Orlando Avenue,32789-2914,28.6007231,-81.3632532
520 suite 130,Orlando Avenue,32789,28.6032923,-81.3627288
520,North Orlando Avenue,32789,28.6030804,-81.3633564
600,North Orlando Avenue,32789,28.6031510,-81.3646224
2100,Aloma Ave,32792,28.6001217,-81.3244303
148 West,Morse Boulevard,32789,28.5970585,-81.3517072
3001,Aloma Ave.,32792,28.5919646,-81.3685224
601,South New York Avenue,32789,28.5929221,-81.3530242
601,South New York Avenue,32789,28.5929255,-81.3528415
2295,Aloma Avenue,32792,28.6026084,-81.3220453
216,West Lyman Avenue,32789,28.5948187,-81.3530385
2259,Howard Drive,32789,28.5706309,-81.3422098
1200,South Pennsylvania Avenue,32789,28.5877086,-81.3564080
220,Spring Lane,32789,28.5730523,-81.3467814
1221,Woodmere Drive,32789,28.6131619,-81.3374101
701,Via Bella,32789,28.6079895,-81.3381198
1500,Cavendish Road,32789,28.5850205,-81.3671083
2072,Lake Drive,32789,28.6025176,-81.3733023
1760,Fawsett Road,32789,28.5814971,-81.3522629
648,Dunraven Drive,32792,28.5882446,-81.3247855
1325,Orchid Avenue,32789,28.5854869,-81.3624392
699,North Orlando Avenue,32789,28.6036335,-81.3655151
1550,Chestnut Avenue,32789,28.6133468,-81.3326795
1693,Walnut Avenue,32789,28.6129912,-81.3307990
1901,Aloma Avenue,32792,28.6007406,-81.3276629
1550,Woodland Avenue,32789,28.6065618,-81.3338144
1200,Lewis Drive,32789,28.6097519,-81.3667583
100,Stirling Avenue,32789,28.5857960,-81.3494313
992,Genius Drive,32789,28.5938737,-81.3407981
2125,Sycamore Drive,32789,28.5712933,-81.3408936
1425,Hibiscus Avenue,32789,28.6174720,-81.3339393
2424,Chantilly Avenue,32789,28.6220112,-81.3323172
1054,Fairway Drive,32792,28.5827364,-81.3091644
1960,Winter Park Road,32789,28.5791178,-81.3459753
555,Sylvan Drive,32789,28.6023609,-81.3342748
1700,Demetree Drive,32789,28.5809185,-81.3335308
1303,Canterbury Road,32789,28.5857020,-81.3703450
249,East Canton Avenue,32789,28.6007820,-81.3492812
760,North Lakemont Avenue,32792,28.6051598,-81.3267417
1245,West Fairbanks Avenue,32789,28.5934269,-81.3661174
1044,North Kentucky Avenue,32789,28.5921892,-81.3625245
721,Virginia Drive,32789,28.5834615,-81.3405776
196,Balfour Drive,32792,28.5981584,-81.3159345
701,East Lake Sue Avenue,32789,28.5823362,-81.3407485
120,East Rockwood Way,32789,28.5758846,-81.3478355
501,North Phelps Avenue,32789,28.6019911,-81.3314408
1105,Schultz Avenue,32789,28.5873510,-81.3672672
540,North Pennsylvania Avenue,32789,28.6016821,-81.3567544
1306,Summerland Avenue,32789,28.6113280,-81.3565470
1700,Greenwich Avenue,32789,28.5977297,-81.3307699
436,Selkirk Drive,32792,28.5915084,-81.3239667
2489,Whitehall Circle,32792,28.5869855,-81.3187180
2233,Azalea Place,32789,28.6219151,-81.3422134
1737,Alabama Drive,32789,28.6104499,-81.3396953
1274,Serena Drive,32789,28.5816507,-81.3287660
2122,Arbor Park Drive,32789,28.6176850,-81.3281146
1884,Jessica Court,32789,28.5797706,-81.3283052
1781,Oakhurst Avenue,32789,28.6081476,-81.3286458
1232,Michigan Avenue,32789,28.5883167,-81.3656717
674,South Lakemont Avenue,32792,28.5875668,-81.3275411
541,North Virginia Avenue,32789,28.6015629,-81.3550057
2817,Eastern Parkway,32789,28.5712978,-81.3434514
1245,Wisconsin Avenue,32789,28.5862133,-81.3693102
1331,Oneco Avenue,32789,28.6156088,-81.3355198
522,Country Club Drive,32789,28.6037635,-81.3700313
731,Dunbar Street,32789,28.6027630,-81.3588117
1936,West Fairbanks Avenue,32789,28.5929564,-81.3756928
163,East Morse Boulevard,32789,28.5979729,-81.3500200
501,West Canton Avenue,32789,28.6008431,-81.3557519
2305,Smiley Avenue,32792,28.5912727,-81.3213141
648,Dunbar Street,32789,28.6024498,-81.3576607
504,Kilshore Lane,32789,28.5940243,-81.3694269
622,Lander Road,32792,28.6033116,-81.3244672
1630,Aloma Avenue,32789,28.6001918,-81.3316782
140,East Kings Way,32789,28.5809242,-81.3476797
2357,Middleton Avenue,32792,28.5904616,-81.3200341
630,East Lake Sue Avenue,32789,28.5822039,-81.3419414
455,Briarwood Drive,32789,28.5780748,-81.3433831
2319,Sherbrooke Road,32792,28.5852257,-81.3208751
326,Valera Court,32789,28.5843056,-81.3556674
1242,Oaks Boulevard,32789,28.6096589,-81.3595084
306,Village Lane,32792,28.5990878,-81.3185310
651,Pinetree Road,32789,28.6170295,-81.3437217
357,Grouse Court,32789,28.5772100,-81.3449319
1233,Park Green Place,32789,28.6098235,-81.3699185
451,Fairfax Avenue,32789,28.5865857,-81.3546219
2723,Norris Avenue,32789,28.5730556,-81.3444136
1570,Grove Terrace,32789,28.5968395,-81.3326337
1016,Lake Bell Drive,32789,28.6079981,-81.3795766
409,Village Lane,32792,28.5996219,-81.3192050
700,Dixie Parkway,32789,28.6135859,-81.3586646
319,Raintree Court,32789,28.6094943,-81.3541472
2260,Howard Drive,32789,28.5711328,-81.3417657
2150,Via Tuscany,32789,28.6186869,-81.3386590
1433,Magnolia Avenue,32789,28.6165865,-81.3339341
1425,Chestnut Avenue,32789,28.6137944,-81.3341177
671,Israel Simpson Court,32789,28.5998496,-81.3580664
210,East Kings Way,32789,28.5809692,-81.3472872
1570,Oneco Avenue,32789,28.6152811,-81.3323583
230,East Rockwood Way,32789,28.5760093,-81.3466478
1005,Lakemont Circle,32792,28.5845162,-81.3289895
431,Brechin Drive,32792,28.5916604,-81.3271113
1042,Azalea Lane,32789,28.5888402,-81.3584101
3055,Temple Trail,32789,28.6299235,-81.3369213
1006,Early Avenue,32789,28.6077511,-81.3813304
824,West Lyman Avenue,32789,28.5946883,-81.3597659
201,North Phelps Avenue,32789,28.5979209,-81.3313034
1500,Palmer Avenue,32789,28.6085468,-81.3340949
1806,Laurelton Hall Lane,32789,28.5798586,-81.3388874
471,Holt Avenue,32789,28.5924233,-81.3550934
729,Executive Drive,32789,28.6052551,-81.3689364
1753,Lookout Landing Circle,32789,28.5809951,-81.3358139
1822,Barker Drive,32789,28.5754854,-81.3306504
917,North Pennsylvania Avenue,32789,28.6053634,-81.3572685
2330,Cady Way,32792,28.5932490,-81.3206221
1221,Richmond Road,32789,28.5875265,-81.3545316
420,Covey Cove,32789,28.5758358,-81.3445753
2347,Mulbry Drive,32789,28.5745486,-81.3402249
1303,Village Lane,32792,28.6005134,-81.3191349
686,Penn Place,32789,28.6085909,-81.3588004
842,Minnesota Avenue,32789,28.5896331,-81.3730293
441,Genius Drive,32789,28.5900557,-81.3343730
1515,Lasbury Avenue,32789,28.6040266,-81.3335789
2904,Northwood Boulevard,32789,28.5685572,-81.3418038
1365,Grove Terrace,32789,28.5971500,-81.3361156
1610,Chestnut Avenue,32789,28.6133433,-81.3318816
1333,Golfside Drive,32792,28.5779254,-81.3142445
1636,Elizabeths Walk,32789,28.5799366,-81.3344473
1682,Arbor Park Drive,32789,28.6136516,-81.3280981
1350,West Fairbanks Avenue,32789,28.5929183,-81.3675222
2881,Chantilly Avenue,32789,28.6266471,-81.3338935
463,West Lyman Avenue,32789,28.5950672,-81.3558439
1550,Lasbury Avenue,32789,28.6036098,-81.3330727
147,East Lyman Avenue,32789,28.5950982,-81.3502722
1431,Michigan Avenue,32789,28.5889239,-81.3688762
1800,Greenwich Avenue,32789,28.5977361,-81.3292772
2485,Middleton Avenue,32792,28.5908450,-81.3183962
800,Miles Avenue,32789,28.5906226,-81.3631424
341,East Reading Way,32789,28.5803546,-81.3456338
200,North Orlando Avenue,32789,28.5985276,-81.3649552
2718,Norris Avenue,32789,28.5727057,-81.3446524
664,Dunraven Drive,32792,28.5877632,-81.3247996
1750,Via Tuscany,32789,28.6149183,-81.3389399
521,West Canton Avenue,32789,28.6005582,-81.3563797
448,Briarwood Drive,32789,28.5775221,-81.3433532
2553,Banchory Road,32792,28.5900409,-81.3176708
1409,Sunset Drive,32789,28.6114130,-81.3339668
222,Alexander Place,32789,28.5966525,-81.3469087
2200,North Park Avenue,32789,28.6117937,-81.3644556
1220,Sharon Place,32789,28.6188788,-81.3366991
410,Setter Trail,32789,28.5767509,-81.3437776
777,Via Lugano,32789,28.6149343,-81.3415980
1085,West Morse Boulevard,32789,28.5988385,-81.3639078
1421,Norfolk Avenue,32789,28.5829352,-81.3652659
326,West Morse Boulevard,32789,28.5976015,-81.3533512
2602,Amsden Road,32792,28.6009917,-81.3169153
1830,Edwin Boulevard,32789,28.6014774,-81.3289367
1321,Harmon Avenue,32789,28.5861118,-81.3673147
1653,Joeline Court,32789,28.5811315,-81.3341422
1947,Lee Road,32789,28.6061566,-81.3751819
1100,North New York Avenue,32789,28.6082960,-81.3527656
2120,Temple Drive,32789,28.6175169,-81.3357971
1745,Walker Avenue,32789,28.6036023,-81.3305047
2638,Mandan Trail,32789,28.6246743,-81.3308574
1410,Border Drive,32789,28.6222559,-81.3334775
700,Oxford Road,32789,28.5875015,-81.3524999
124,East Kings Way,32789,28.5809895,-81.3479509
1834,Pineview Circle,32792,28.6089940,-81.3254882
1954,Bering Avenue,32789,28.6110404,-81.3754517
1600,Westchester Avenue,32789,28.5834634,-81.3713187
1233,Minnesota Avenue,32789,28.5896573,-81.3665071
1082,Golfside Drive,32792,28.5824045,-81.3147595
2295,Lee Road,32789,28.6062095,-81.3798974
611,West Fairbanks Avenue,32789,28.5934018,-81.3573202
914,Grover Avenue,32789,28.5823623,-81.3614657
1560,Mayfield Avenue,32789,28.6094294,-81.3330817
1744,Lookout Landing Circle,32789,28.5815319,-81.3357356
1510,Chestnut Avenue,32789,28.6133649,-81.3331564
400,West Lyman Avenue,32789,28.5948092,-81.3545716
2906,Lolissa Lane,32789,28.6269461,-81.3308739
1805,Palmer Avenue,32792,28.6086740,-81.3270518
1190,Galloway Drive,32789,28.6062229,-81.3638225
1000,South Orlando Avenue,32789,28.5884341,-81.3646961
443,Broadview Avenue,32789,28.5946411,-81.3671106
741,Glenridge Way,32789,28.5790457,-81.3411709
870,Georgia Avenue,32789,28.6052551,-81.3460020
850,Virginia Drive,32789,28.5822842,-81.3395518
2318,Whitehall Drive,32792,28.5865098,-81.3210036
1825,Loch Berry Road,32789,28.5931823,-81.3289888
2409,Mandan Trail,32789,28.6217152,-81.3319048
323,Trismen Terrace,32789,28.6002730,-81.3421713
1871,Bryan Avenue,32789,28.6029661,-81.3285923
1821,Taylor Avenue,32789,28.6044879,-81.3293762
384,South Perth Lane,32792,28.5927953,-81.3238368
531,West Morse Boulevard,32789,28.5979387,-81.3565920
2225,Via Tuscany,32789,28.6192288,-81.3408020
1284,Sara Court,32789,28.5814709,-81.3280612
371,East Reading Way,32789,28.5805259,-81.3453353
1855,Walker Avenue,32789,28.6036810,-81.3286569
940,Mead Avenue,32789,28.5846656,-81.3623033
215,West Comstock Avenue,32789,28.5943421,-81.3522952
750,Clay Street,32789,28.5906520,-81.3730274
1663,Roundelay Lane,32789,28.5985700,-81.3313085
1771,Winchester Drive,32789,28.5813143,-81.3424339
1011,Greentree Drive,32789,28.6070948,-81.3373471
304,Village Lane,32792,28.5990800,-81.3185837
1606,Berkshire Avenue,32789,28.5826127,-81.3716304
740,Clay Street,32789,28.5914177,-81.3731633
2198,Whitehall Drive,32792,28.5864999,-81.3228732
1601,Summerland Avenue,32789,28.6139745,-81.3573133
320,Stirling Avenue,32789,28.5856482,-81.3523629
1052,South Kentucky Avenue,32789,28.5915373,-81.3626535
391,Vitoria Avenue,32789,28.5902289,-81.3539206
526,Worthington Drive,32789,28.5903145,-81.3286278
1583,Highland Road,32789,28.5837693,-81.3493373
534,Carolina Avenue,32789,28.5981652,-81.3565998
1128,Preserve Point Drive,32789,28.5850564,-81.3363058
1364,Harmon Avenue,32789,28.5857030,-81.3679769
178,Ward Drive,32789,28.5974602,-81.3318909
1771,Laurel Road,32789,28.5815419,-81.3449024
690,West Webster Avenue,32789,28.6038561,-81.3583355
933,Early Avenue,32789,28.6068450,-81.3808066
716,Balmoral Road,32789,28.5863832,-81.3290923
674,Blairshire Circle,32792,28.5884567,-81.3211778
761,Northwood Circle,32789,28.6070940,-81.3580567
1175,Washington Avenue,32789,28.5880208,-81.3579671
1324,Indiana Avenue,32789,28.5866233,-81.3673476
887,Balch Avenue,32789,28.5896405,-81.3642327
595,Lake Front Boulevard,32789,28.6030836,-81.3704932
425,Dunblane Drive,32792,28.5919898,-81.3262055
424,Garfield Avenue,32789,28.5993208,-81.3552256
2033,Sycamore Drive,32789,28.5708392,-81.3409793
402,Setter Trail,32789,28.5770423,-81.3438253
2521,Tuscaloosa Trail,32789,28.6275237,-81.3285846
1540,Hibiscus Avenue,32789,28.6170212,-81.3327129
2120,Mallard Circle,32789,28.5774777,-81.3423966
911,North Park Avenue,32789,28.6054482,-81.3511355
750,Orange Avenue,32789,28.5915019,-81.3579853
672,Osceola Avenue,32789,28.5952044,-81.3431489
650,Pinetree Road,32789,28.6164411,-81.3436449
1717,Hollywood Avenue,32789,28.5972208,-81.3308088
1805,Jessica Court,32789,28.5806261,-81.3305045
1761,Pinetree Road,32789,28.6161351,-81.3450091
1315,Westchester Avenue,32789,28.5823884,-81.3671428
1770,Edwin Boulevard,32789,28.6015107,-81.3299434
1720,Carollee Lane,32789,28.5945812,-81.3305326
502,South Lakemont Avenue,32792,28.5912192,-81.3275649
889,Palmer Avenue,32789,28.6088847,-81.3419685
2923,Summerfield Road,32792,28.5859434,-81.3103236
1630,Dale Avenue,32789,28.6055641,-81.3324025
3063,Temple Trail,32789,28.6301004,-81.3365759
605,Ellen Drive,32789,28.6046711,-81.3692891
2162,Blossom Lane,32789,28.6030654,-81.3751367
1047,Aragon Avenue,32789,28.5911156,-81.3628636
1270,Orange Avenue,32789,28.5875984,-81.3624872
2312,Mulbry Drive,32789,28.5733373,-81.3406914
270,West Reading Way,32789,28.5795171,-81.3504792
841,Douglas Avenue,32789,28.5954571,-81.3602453
1785,Carollee Lane,32789,28.5950483,-81.3295773
861,Carver Street,32789,28.6051741,-81.3601818
884,Audubon Lane,32789,28.5949002,-81.3394552
559,Park North Court,32789,28.6098977,-81.3565764
1635,Oakhurst Avenue,32789,28.6079981,-81.3324071
1430,Gene Street,32789,28.5919752,-81.3684382
1540,Grove Terrace,32789,28.5968301,-81.3331043
707,West Swoope Avenue,32789,28.6020709,-81.3584416
2469,Whitehall Circle,32792,28.5869414,-81.3175898
410,Genius Drive,32789,28.5914225,-81.3333022
343,North Phelps Avenue,32789,28.5997222,-81.3313869
949,Turner Road,32789,28.6075313,-81.3773404
2024,Yorkshire Drive,32792,28.6064707,-81.3260445
1420,South Pennsylvania Avenue,32789,28.5846711,-81.3547277
1800,Oneco Avenue,32789,28.6152772,-81.3283002
1214,Burning Tree Lane,32792,28.5811500,-81.3137026
401,South Orlando Avenue,32789,28.6011466,-81.3658594
1922,Taylor Avenue,32792,28.6038009,-81.3268372
1030,Orange Avenue,32789,28.5895967,-81.3602732
526,South Lakemont Avenue,32792,28.5903281,-81.3275621
2142,Lake Drive,32789,28.6024198,-81.3758480
1102,Schultz Avenue,32789,28.5874633,-81.3669143
960,Balch Avenue,32789,28.5885114,-81.3637552
1500,Bonnie Burn Circle,32789,28.5846993,-81.3534253
301,Salvador Square,32789,28.5830408,-81.3545072
1735,Barcelona Way,32789,28.5819583,-81.3561799
1119,South Pennsylvania Avenue,32789,28.5887907,-81.3569882
1005,Lakeview Drive,32789,28.5899495,-81.3524239
1851,Winchester Drive,32789,28.5801839,-81.3424365
741,Dixie Parkway,32789,28.6139691,-81.3593485
2615,Parkland Drive,32789,28.5720459,-81.3466846
1806,Jessica Court,32789,28.5803208,-81.3305222
1730,Temple Drive,32789,28.6138782,-81.3358073
772,Maryland Avenue,32789,28.5913469,-81.3544416
30,East Stovin Avenue,32789,28.6072210,-81.3504901
747,Margaret Square,32789,28.6105556,-81.3737140
2201,Hawick Lane,32792,28.5991476,-81.3233107
434,Genius Drive,32789,28.5906109,-81.3334274
527,Langholm Drive,32789,28.5902068,-81.3299393
2111,Glenwood Drive,32792,28.5997360,-81.3245185
2430,Via Sienna,32789,28.6215418,-81.3375367
1961,Winter Park Road,32789,28.5790907,-81.3465670
918,Camellia Avenue,32789,28.5831431,-81.3615837
1712,Lake Waumpi Drive,32789,28.6289237,-81.3319431
2127,Mallard Circle,32789,28.5772898,-81.3427512
444,West Swoope Avenue,32789,28.6017731,-81.3556047
1140,Kenwood Avenue,32789,28.6087353,-81.3603841
1804,Summerfield Road,32792,28.5854937,-81.3295849
868,Golfview Terrace,32789,28.6052559,-81.3489066
223,East Canton Avenue,32789,28.6007666,-81.3494992
2804,Eastern Parkway,32789,28.5709255,-81.3438459
2906,Parkland Drive,32789,28.5718505,-81.3413253
2010,Whitehall Drive,32792,28.5864192,-81.3255558
1402,Indiana Avenue,32789,28.5866078,-81.3690021
519,Brechin Drive,32792,28.5905575,-81.3271016
2291,Fawsett Road,32789,28.5761805,-81.3510355
1324,Miller Avenue,32789,28.5874648,-81.3673661
1651,Summerland Avenue,32789,28.6145121,-81.3578699
1711,Oneco Avenue,32789,28.6156678,-81.3294173
1521,Mayflower Court,32792,28.6036242,-81.3236953
10,Isle of Sicily Road,32789,28.6179783,-81.3469538
1320,Lake Knowles Circle,32789,28.6106713,-81.3347218
1025,Early Avenue,32789,28.6084235,-81.3808528
1650,Highland Road,32789,28.5826979,-81.3488539
849,South Orlando Avenue,32789,28.5904768,-81.3654379
2599,Via Tuscany,32789,28.6228049,-81.3405486
100,North Orlando Avenue,32789,28.5980191,-81.3648443
270,West New England Avenue,32789,28.5957154,-81.3536674
1575,Dale Avenue,32789,28.6060409,-81.3331209
541,West Canton Avenue,32789,28.6005958,-81.3567102
1699,Joeline Court,32789,28.5817543,-81.3336519
1122,Solana Avenue,32789,28.6081547,-81.3625575
1249,Sara Court,32789,28.5821999,-81.3284476
941,Georgia Avenue,32789,28.6064224,-81.3465980
713,Margaret Square,32789,28.6111976,-81.3743116
1775,Lake Berry Drive,32789,28.5828183,-81.3315365
1711,Barcelona Way,32789,28.5829511,-81.3561957
1137,Park Green Place,32789,28.6085061,-81.3699076
1234,Fairway Drive,32792,28.5800712,-81.3092314
1800,Jessica Court,32789,28.5804940,-81.3305415
1923,Hammerlin Avenue,32789,28.5693773,-81.3448627
1400,West Fairbanks Avenue,32789,28.5928429,-81.3679426
2190,Temple Drive,32789,28.6179620,-81.3359512
731,Margaret Square,32789,28.6105454,-81.3744246
1685,Magnolia Avenue,32789,28.6165152,-81.3304454
2557,Madeline Avenue,32789,28.6221247,-81.3297803
1443,Golfside Drive,32792,28.5827728,-81.3125278
2466,Whitehall Circle,32792,28.5865431,-81.3173768
1506,Chestnut Avenue,32789,28.6133782,-81.3333653
1407,Westchester Avenue,32789,28.5839942,-81.3682732
215,Salvador Square,32789,28.5828153,-81.3534408
784,Margaret Square,32789,28.6106520,-81.3726952
2759,Summerfield Road,32792,28.5860277,-81.3131033
1613,Magnolia Avenue,32789,28.6165175,-81.3317607
601,Executive Drive,32789,28.6030136,-81.3689472
1180,Via Lugano,32789,28.6138538,-81.3378892
1718,Magnolia Avenue,32789,28.6161372,-81.3297772
2420,Gallery View Drive,32792,28.6032266,-81.3202107
1250,Via Capri,32789,28.6118201,-81.3372749
1341,College Point,32789,28.5866553,-81.3500355
918,Grover Avenue,32789,28.5823919,-81.3617213
1562,Arbor Park Drive,32789,28.6124923,-81.3280735
1007,Village Lane,32792,28.6003422,-81.3202496
1200,Mayfield Avenue,32789,28.6094175,-81.3378781
1351,Place Vendome,32789,28.6197977,-81.3354552
1279,Michigan Avenue,32789,28.5887297,-81.3667572
1220,South Lakemont Avenue,32792,28.5815439,-81.3274445
1947,Lanier Court,32792,28.5814628,-81.3265094
1080,West Fairbanks Avenue,32789,28.5927834,-81.3634739
533,Country Club Drive,32789,28.6035834,-81.3695201
411,Cortland Avenue,32789,28.6018506,-81.3382030
338,East Lyman Avenue,32789,28.5948675,-81.3480060
151,East Welbourne Avenue,32789,28.5968971,-81.3502034
1476,Grove Terrace,32789,28.5968358,-81.3341700
2401,Whitehall Circle,32792,28.5877214,-81.3192250
1810,Pineview Circle,32792,28.6098813,-81.3270867
2136,Albert Lee Parkway,32789,28.6071106,-81.3772890
690,Osceola Avenue,32789,28.5952524,-81.3425610
2416,Winter Park Road,32789,28.5720245,-81.3458315
1822,Greenwich Avenue,32789,28.5977589,-81.3289376
1219,Golfside Drive,32792,28.5808527,-81.3150166
2233,Lee Road,32789,28.6061096,-81.3782515
2835,Parkland Circle,32789,28.5724086,-81.3425079
2263,Howard Drive,32789,28.5699080,-81.3422102
450,West Canton Avenue,32789,28.6002381,-81.3557304
131,North Orlando Avenue,32789,28.5982758,-81.3657236
1140,South Pennsylvania Avenue,32789,28.5882804,-81.3565190
1651,Dale Avenue,32789,28.6059855,-81.3321639
1884,West Fairbanks Avenue,32789,28.5929181,-81.3746426
2200,Venetian Way,32789,28.6199122,-81.3403086
844,West Swoope Avenue,32789,28.6017055,-81.3603726
1111,Washington Avenue,32789,28.5888787,-81.3580292
611,Ellen Drive,32789,28.6051380,-81.3693823
1739,Lake Waumpi Drive,32789,28.6297478,-81.3312256
151,Oakwood Way,32789,28.5769423,-81.3474640
5,Isle of Sicily Road,32789,28.6165682,-81.3477440
1841,Winter Park Road,32789,28.5806440,-81.3465904
2909,Parkland Drive,32789,28.5722578,-81.3412425
777,Margaret Square,32789,28.6102449,-81.3726938
1745,Hollywood Avenue,32789,28.5972742,-81.3303415
430,North Orlando Avenue,32789,28.6011556,-81.3648647
2433,Lee Road,32789,28.6060751,-81.3826769
1661,Laurel Road,32789,28.5826582,-81.3449995
2309,Chantilly Avenue,32789,28.6204743,-81.3332132
654,Huntington Avenue,32789,28.5906539,-81.3575709
1820,Edwin Boulevard,32789,28.6014850,-81.3291674
2727,Wright Avenue,32789,28.5738977,-81.3442263
2295,Glenwood Drive,32792,28.6003736,-81.3216331
949,Poinciana Lane,32789,28.6224053,-81.3408746
209,Village Lane,32792,28.5996960,-81.3188004
2048,Venetian Way,32789,28.6202723,-81.3436169
624,North Lakemont Avenue,32792,28.6033450,-81.3277427
1030,North Park Avenue,32789,28.6065225,-81.3504628
1751,Oakhurst Avenue,32789,28.6081129,-81.3293376
670,Clay Street,32789,28.5918193,-81.3731429
1425,Granville Drive,32789,28.6113935,-81.3608700
641,North Park Avenue,32789,28.6027549,-81.3512521
2331,Banchory Road,32792,28.5897151,-81.3205491
820,Hamilton Place Court,32789,28.6062468,-81.3592600
307,Village Lane,32792,28.5990670,-81.3186716
1940,Woodcrest Drive,32792,28.5818447,-81.3258470
632,Worthington Drive,32789,28.5886563,-81.3285353
650,Dixie Parkway,32789,28.6135997,-81.3575925
1651,Elizabeths Walk,32789,28.5804255,-81.3337817
926,Fremont Avenue,32789,28.6065753,-81.3818590
1352,Richmond Road,32789,28.5861430,-81.3535174
1943,Durham Avenue,32789,28.6098411,-81.3755004
350,Briarwood Drive,32789,28.5765732,-81.3444282
309,North Park Avenue,32789,28.5998512,-81.3511730
2050,Sunset Drive,32789,28.6170280,-81.3344085
2145,Aloma Avenue,32792,28.6022289,-81.3236729
1817,Loch Berry Road,32789,28.5931816,-81.3292661
622,Blairshire Circle,32792,28.5874470,-81.3201278
1724,Pine Avenue,32789,28.6107934,-81.3301154
2870,Chantilly Avenue,32789,28.6265768,-81.3334257
2340,Lafayette Avenue,32789,28.6202312,-81.3347927
2955,Temple Trail,32789,28.6281925,-81.3384401
1121,Solana Avenue,32789,28.6071595,-81.3623982
1014,Dupont Avenue,32789,28.6080618,-81.3804059
476,Sylvan Drive,32789,28.6015441,-81.3331409
2519,Aloma Avenue,32792,28.6019565,-81.3194643
2637,Mandan Trail,32789,28.6246869,-81.3313562
780,Bonita Drive,32789,28.6050757,-81.3341681
610,North Orlando Avenue,32789,28.6020942,-81.3631661
351,Village Lane,32792,28.5989738,-81.3190116
1571,Magnolia Avenue,32789,28.6165325,-81.3323467
1321,Medinah Court,32792,28.5780753,-81.3148152
835,West New England Avenue,32789,28.5959675,-81.3599728
1712,Barcelona Way,32789,28.5829222,-81.3556940
1570,Mayfield Avenue,32789,28.6094382,-81.3328729
712,Village Lane,32792,28.5997693,-81.3202225
832,Huntington Court,32789,28.5901806,-81.3576535
216,South Pennsylvania Avenue,32789,28.5965301,-81.3567129
751,South Orlando Avenue,32789,28.5911584,-81.3662735
1026,South Lakemont Avenue,32792,28.5837357,-81.3274980
1955,Oakhurst Avenue,32792,28.6078024,-81.3269525
1522,Lake Knowles Circle,32789,28.6125249,-81.3347464
1413,Trovillion Avenue,32789,28.6010625,-81.3663289
673,Granville Drive,32789,28.6108981,-81.3579013
733,Minnesota Avenue,32789,28.5899196,-81.3584825
2170,West Fairbanks Avenue,32789,28.5928930,-81.3787153
2335,Mulbry Drive,32789,28.5741746,-81.3401987
931,Harmon Avenue,32789,28.5860482,-81.3612945
2024,Gunn Road,32792,28.5838075,-81.3239742
641,Virginia Drive,32789,28.5837070,-81.3414041
600,West Canton Avenue,32789,28.6002592,-81.3570986
1890,Demetree Drive,32789,28.5807502,-81.3280746
1740,Palm Avenue,32789,28.6144457,-81.3286997
1033,South Lakemont Avenue,32792,28.5851133,-81.3288016
1038,Fairway Drive,32792,28.5831873,-81.3092343
813,North Lakemont Avenue,32792,28.6061675,-81.3285805
355,Village Lane,32792,28.5989900,-81.3190018
2838,Summerfield Road,32792,28.5855884,-81.3116188
767,Margaret Square,32789,28.6105546,-81.3730782
1820,Harland Park Drive,32789,28.5796703,-81.3378253
1655,Pine Avenue,32789,28.6111844,-81.3318437
1810,Carrigan Avenue,32789,28.6237817,-81.3292244
2482,Fifeshire Drive,32792,28.5888320,-81.3182935
3121,Temple Trail,32751,28.6303266,-81.3351317
413,Village Lane,32792,28.5995692,-81.3191898
1680,Palm Avenue,32789,28.6144092,-81.3301177
1250,Serena Drive,32789,28.5821484,-81.3287955
1892,Lake Spier Drive,32789,28.5773568,-81.3278989
218,South Pennsylvania Avenue,32789,28.5964318,-81.3567055
1919,Aloma Avenue,32792,28.6012209,-81.3269445
500,Beloit Avenue,32789,28.6075515,-81.3567402
1352,Devon Road,32789,28.5850760,-81.3719662
1441,Norfolk Avenue,32789,28.5829483,-81.3655058
1032,Early Avenue,32789,28.6108611,-81.3815629
655,Minnesota Avenue,32789,28.5896800,-81.3576860
600,Ward Avenue,32789,28.5926481,-81.3626601
2004,Howard Drive,32789,28.5785583,-81.3414093
1369,Mayfield Avenue,32789,28.6098060,-81.3354048
585,Via Lugano,32789,28.6152722,-81.3447227
2827,Woodside Avenue,32789,28.5705728,-81.3430160
2836,Woodside Avenue,32789,28.5702381,-81.3426940
2229,Via Tuscany,32789,28.6195811,-81.3395969
2212,Venetian Way,32789,28.6204487,-81.3402044
1510,Alabama Drive,32789,28.6103821,-81.3425780
2310,Atomic Court,32789,28.6064687,-81.3806152
1500,Howell Branch Road,32789,28.6245836,-81.3336223
1330,Golfside Drive,32792,28.5781052,-81.3137871
1922,Stonehurst Road,32789,28.5790215,-81.3431338
2422,Via Sienna,32789,28.6214444,-81.3368662
211,Blossom Lane,32789,28.6045737,-81.3776820
105,North Virginia Avenue,32789,28.5979713,-81.3548627
1400,Lyndale Boulevard,32789,28.6115929,-81.3621176
1132,Washington Avenue,32789,28.5881929,-81.3573663
1451,Highland Road,32789,28.5852874,-81.3493517
380,Waterfall Lane,32789,28.6071420,-81.3555075
255,Osceola Court,32789,28.5961498,-81.3445107
1597,South Pennsylvania Avenue,32789,28.5836009,-81.3542801
2340,Brookshire Avenue,32792,28.5916822,-81.3202871
1551,Elm Avenue,32789,28.6105925,-81.3332162
406,Park North Court,32789,28.6090881,-81.3548720
1013,Temple Grove,32789,28.6057320,-81.3368348
774,Margaret Square,32789,28.6101523,-81.3729068
910,Grover Avenue,32789,28.5823684,-81.3612632
901,Bungalow Avenue,32789,28.5901797,-81.3610936
2920,Chantilly Avenue,32789,28.6271734,-81.3334930
645,Huntington Avenue,32789,28.5911459,-81.3574248
1090,Kenwood Avenue,32789,28.6080285,-81.3603599
1111,South Orlando Avenue,32789,28.5873330,-81.3652655
1378,Pelham Road,32789,28.5848367,-81.3709683
625,Brechin Drive,32792,28.5889266,-81.3271028
533,West New England Avenue,32789,28.5959731,-81.3564827
1945,Lanier Court,32792,28.5814602,-81.3265468
2240,Venetian Way,32789,28.6229462,-81.3434043
110,Village Lane,32792,28.6001455,-81.3189942
633,Gaines Way,32789,28.6159586,-81.3568836
1,Isle of Sicily Road,32789,28.6150951,-81.3473121
1960,Forrest Road,32789,28.5789238,-81.3480470
1681,Arbor Park Drive,32789,28.6133845,-81.3285689
548,Holt Avenue,32789,28.5918755,-81.3563629
409,Sandlewood Cove,32789,28.6263602,-81.3386680
1607,Hibiscus Avenue,32789,28.6174389,-81.3317262
845,Douglas Avenue,32789,28.5954596,-81.3603450
907,Village Lane,32792,28.6002119,-81.3199313
1411,Berkshire Avenue,32789,28.5827794,-81.3689701
241,East Canton Avenue,32789,28.6008056,-81.3494137
1635,Dale Avenue,32789,28.6059740,-81.3323883
763,Granville Drive,32789,28.6109387,-81.3591761
1808,Village Lane,32792,28.5990945,-81.3170863
1035,Lakeview Drive,32789,28.5895776,-81.3526502
521,Melrose Avenue,32789,28.5880785,-81.3558889
168,Sandlewood Trail,32789,28.6255349,-81.3376617
2468,Lake Waumpi Drive,32789,28.6288731,-81.3289816
1703,Village Lane,32792,28.5991190,-81.3176778
690,DePugh Street,32789,28.6009878,-81.3582385
2010,Crosby Way,32792,28.5952563,-81.3254334
1248,Arlington Place,32789,28.5872007,-81.3550291
711,Northwood Circle,32789,28.6066076,-81.3589401
708,Balmoral Road,32789,28.5869140,-81.3290939
2486,Whitehall Circle,32792,28.5864966,-81.3184672
681,North Capen Avenue,32789,28.6030013,-81.3591709
800,Aragon Avenue,32789,28.5906989,-81.3602945
805,South Orlando Avenue,32789,28.5904442,-81.3682846
650,Israel Simpson Court,32789,28.5995865,-81.3577352
797,Pinetree Road,32789,28.6174029,-81.3417686
158,North Edinburgh Drive,32792,28.5974293,-81.3253342
1257,Indiana Avenue,32789,28.5869386,-81.3665430
1854,Jessica Court,32789,28.5799391,-81.3291408
2918,Sandwell Drive,32792,28.5863839,-81.3101068
1927,Taylor Avenue,32792,28.6042026,-81.3268042
1125,Washington Avenue,32789,28.5886448,-81.3580845
1371,Ridgewood Avenue,32789,28.6111499,-81.3635277
265,Rippling Lane,32789,28.6041266,-81.3802234
2019,Natalen Road,32792,28.5851577,-81.3240344
976,Orange Avenue,32789,28.5897566,-81.3598133
1333,South Denning Drive,32789,28.5852514,-81.3610207
700,South Orlando Avenue,32789,28.5916524,-81.3647289
2932,Summerfield Road,32792,28.5856332,-81.3100578
665,Dunraven Drive,32792,28.5877784,-81.3253512
230,Brewer Avenue,32789,28.5995162,-81.3390494
1080,Keyes Avenue,32789,28.6068159,-81.3518725
863,South Orlando Avenue,32789,28.5901115,-81.3657473
777,Halifax Avenue,32792,28.6054754,-81.3258825
1807,Via Amalfi,32789,28.6160337,-81.3437652
162,Burks Circle,32789,28.5954212,-81.3287211
455,Lakewood Drive,32789,28.6011406,-81.3405691
311,East Morse Boulevard,32789,28.5983182,-81.3473193
2070,Sharon Road,32789,28.6180150,-81.3367929
1202,Village Lane,32792,28.6005213,-81.3197523
1377,Mizell Avenue,32789,28.5962818,-81.3357513
1761,Lookout Landing Circle,32789,28.5809994,-81.3361445
911,North Orlando Avenue,32789,28.6051653,-81.3655328
1235,Preserve Point Drive,32789,28.5815945,-81.3382604
323,Sylvan Boulevard,32789,28.5995545,-81.3369366
1203,Germaine Drive,32789,28.5814491,-81.3324918
855,South Pennsylvania Avenue,32789,28.5902733,-81.3569402
2418,Whitehall Circle,32792,28.5873304,-81.3182734
1875,Lake Spier Drive,32789,28.5771454,-81.3288766
1820,Windsor Drive,32789,28.6050520,-81.3292502
1101,North Park Avenue,32789,28.6082177,-81.3511261
1790,Hollywood Avenue,32789,28.5969239,-81.3296112
926,Colfax Avenue,32789,28.6068010,-81.3768516
248,Rippling Lane,32789,28.6045858,-81.3802562
180,North Park Avenue,32789,28.5985474,-81.3509170
731,Midget Drive,32789,28.5921104,-81.3621659
1949,Strathaven Road,32792,28.5833449,-81.3253344
2239,Howard Drive,32789,28.5737990,-81.3415658
1981,Aloma Avenue,32792,28.6012368,-81.3255215
1700,Diana Drive,32789,28.6148856,-81.3601277
459,Virginia Drive,32789,28.5839890,-81.3440566
1007,Early Avenue,32789,28.6078597,-81.3808570
2808,Sanbina Street,32789,28.6258887,-81.3313880
1945,Albert Lee Parkway,32789,28.6075232,-81.3752865
208,Village Lane,32792,28.5996813,-81.3187963
1950,Mizell Avenue,32792,28.5960587,-81.3268756
2807,Wright Avenue,32789,28.5739021,-81.3435471
350,East Kings Way,32789,28.5810013,-81.3455020
1820,Laurel Road,32789,28.5809351,-81.3444954
2308,Whitehall Drive,32792,28.5865037,-81.3212654
2325,Coldstream Drive,32792,28.5929102,-81.3208642
240,Alexander Place,32789,28.5964154,-81.3471510
1731,Pinetree Road,32789,28.6158728,-81.3454197
1737,Oakhurst Avenue,32789,28.6080789,-81.3297333
1440,Mayfield Avenue,32789,28.6093733,-81.3346336
930,Grover Avenue,32789,28.5824069,-81.3622884
1041,Tuscany Place,32789,28.6230223,-81.3382864
1475,Magnolia Avenue,32789,28.6165457,-81.3337026
233,East Lake Sue Avenue,32789,28.5825538,-81.3471179
1820,Shiloh Lane,32789,28.5807431,-81.3410237
2207,Kindel Avenue,32789,28.6078681,-81.3778527
2345,Chantilly Avenue,32789,28.6214560,-81.3329508
2125,West Fairbanks Avenue,32789,28.5933960,-81.3785085
301,Glenridge Way,32789,28.5788685,-81.3460122
2888,Lolissa Lane,32789,28.6264788,-81.3309268
214,Balfour Drive,32792,28.5986809,-81.3159610
1015,Bungalow Avenue,32789,28.5902008,-81.3624959
208,Sandlewood Trail,32789,28.6252558,-81.3381876
250,Stirling Avenue,32789,28.5856956,-81.3510325
779,South Pennsylvania Avenue,32789,28.5911021,-81.3570702
102,South Interlachen Avenue,32789,28.5970676,-81.3482130
1671,Oneco Avenue,32789,28.6156931,-81.3303337
616,Formosa Avenue,32789,28.5926331,-81.3772373
1665,Temple Drive,32789,28.6133047,-81.3363852
275,North Capen Avenue,32789,28.5994399,-81.3590903
1802,Palmer Avenue,32792,28.6087471,-81.3275133
2231,Howard Drive,32789,28.5744240,-81.3419779
1660,Magnolia Avenue,32789,28.6161704,-81.3308619
1217,Raintree Place,32789,28.6096909,-81.3557218
2719,Summerfield Road,32792,28.5860410,-81.3145148
1821,Summerland Avenue,32789,28.6161235,-81.3579533
1334,Orchid Avenue,32789,28.5847785,-81.3627531
2426,Summerfield Road,32792,28.5856433,-81.3175984
810,Hamilton Place Court,32789,28.6067819,-81.3598770
443,Jo-Al-Ca Avenue,32789,28.6010007,-81.3360001
2077,Aloma Avenue,32792,28.6016827,-81.3236145
125,Hampden Place,32789,28.5835294,-81.3495827
1850,Edwin Boulevard,32789,28.6014973,-81.3286532
1442,Michigan Avenue,32789,28.5883651,-81.3690737
300,South Park Avenue,32789,28.5958008,-81.3508542
2323,Brookshire Avenue,32792,28.5921209,-81.3208368
2480,Banchory Road,32792,28.5895883,-81.3182958
821,Carver Street,32789,28.6047520,-81.3596662
1122,Aragon Avenue,32789,28.5905960,-81.3638434
1681,Blue Ridge Road,32789,28.5820817,-81.3402553
1200,Park Pointe Lane,32789,28.6239985,-81.3339194
441,South Virginia Avenue,32789,28.5945746,-81.3548856
612,Byron Road,32792,28.6030056,-81.3259154
2265,Nairn Drive,32792,28.5983099,-81.3221987
790,Via Lugano,32789,28.6143137,-81.3420079
1500,Magnolia Avenue,32789,28.6160954,-81.3334050
205,West Fairbanks Avenue,32789,28.5932920,-81.3520830
2311,Loch Lomond Drive,32792,28.5980087,-81.3211009
240,Killarney Drive,32789,28.5962277,-81.3662124
1046,Turner Road,32789,28.6092747,-81.3764490
2724,Eastern Parkway,32789,28.5708798,-81.3445405
1310,Magnolia Avenue,32789,28.6161884,-81.3358115
401,Cortland Avenue,32789,28.6016610,-81.3381494
279,Sandlewood Trail,32789,28.6258297,-81.3385416
1411,Michigan Avenue,32789,28.5889199,-81.3684754
1101,Symonds Avenue,32789,28.5993635,-81.3641803
519,Henkel Circle,32789,28.5957632,-81.3407949
1124,Azalea Lane,32789,28.5877224,-81.3584646
820,Keyes Avenue,32789,28.6045735,-81.3514452
1823,Sunset Drive,32789,28.6150141,-81.3346920
1713,Lookout Landing Circle,32789,28.5820101,-81.3352164
1117,North Orlando Avenue,32789,28.6082378,-81.3654126
1230,Lake Knowles Circle,32789,28.6101834,-81.3362549
750,Green Oaks Court,32789,28.6144943,-81.3593846
1850,North Park Avenue,32789,28.6103975,-81.3610256
920,Osceola Avenue,32789,28.5970375,-81.3396086
662,Israel Simpson Court,32789,28.5995966,-81.3580842
436,Dunraven Drive,32792,28.5915090,-81.3248828
1354,Buckingham Road,32789,28.5850292,-81.3689904
1851,Summerland Avenue,32789,28.6164753,-81.3580480
2411,Mandan Trail,32789,28.6220042,-81.3318060
2253,Brookshire Avenue,32792,28.5920883,-81.3218277
619,West Canton Avenue,32789,28.6005750,-81.3572960
1742,Barcelona Way,32789,28.5818008,-81.3554160
660,South Orlando Avenue,32789,28.5922517,-81.3646464
405,Kilshore Lane,32789,28.5949284,-81.3696700
1027,Golfside Drive,32792,28.5830205,-81.3159859
1018,Early Avenue,32789,28.6081692,-81.3813350
641,Douglas Avenue,32789,28.5954618,-81.3575841
1028,Lake Bell Drive,32789,28.6082286,-81.3797395
700,Melrose Avenue,32789,28.5874118,-81.3605014
1660,Palmer Avenue,32789,28.6086453,-81.3320819
663,DePugh Street,32789,28.6013463,-81.3578751
920,Colfax Avenue,32789,28.6066031,-81.3768322
1530,Via Tuscany,32789,28.6123433,-81.3392121
618,Penn Place,32789,28.6079427,-81.3583404
552,Park North Court,32789,28.6095467,-81.3561919
2337,Middleton Avenue,32792,28.5904466,-81.3205544
2104,Venetian Way,32789,28.6197697,-81.3421425
2020,Venetian Way,32789,28.6209110,-81.3444730
1825,Bryan Avenue,32789,28.6028867,-81.3289993
1341,Harmon Avenue,32789,28.5859761,-81.3676725
1724,Golfside Drive,32792,28.5802288,-81.3100575
1750,Barcelona Way,32789,28.5815008,-81.3554898
1570,Magnolia Avenue,32789,28.6161557,-81.3323611
1814,Laurelton Hall Lane,32789,28.5800603,-81.3385470
534,Genius Drive,32789,28.5891770,-81.3326844
1868,Lake Spier Drive,32789,28.5765817,-81.3288374
631,North Phelps Avenue,32789,28.6035064,-81.3314611
1620,Holts Grove Circle,32789,28.5953935,-81.3347214
2800,Parkland Drive,32789,28.5716816,-81.3439325
1565,Mayfield Avenue,32789,28.6098229,-81.3330143
2227,West Fairbanks Avenue,32789,28.5934551,-81.3793405
1401,Pelham Road,32789,28.5846652,-81.3713416
1765,Pine Avenue,32789,28.6111995,-81.3290138
1130,Via Salerno,32789,28.6107010,-81.3393471
631,West Fairbanks Avenue,32789,28.5934073,-81.3574275
1010,Village Lane,32792,28.6002553,-81.3202299
2050,Versailles Avenue,32789,28.6189891,-81.3336110
1444,West Fairbanks Avenue,32789,28.5927561,-81.3685032
2142,Blossom Lane,32789,28.6040718,-81.3761843
601,Palmer Avenue,32789,28.6071781,-81.3446962
302,Genius Drive,32789,28.5932496,-81.3339146
1760,Bryan Avenue,32789,28.6024283,-81.3303514
1251,Preserve Point Drive,32789,28.5810023,-81.3382171
1333,Sunset Drive,32789,28.6110497,-81.3340717
1421,Michigan Avenue,32789,28.5887787,-81.3686888
1461,Palm Avenue,32789,28.6147393,-81.3334911
1315,Bridgeport Drive,32789,28.5804749,-81.3315883
1924,Summerfield Road,32792,28.5855371,-81.3264162
1774,Magnolia Avenue,32789,28.6162075,-81.3291540
1945,Temple Drive,32789,28.6159121,-81.3363561
385,West Fairbanks Avenue,32789,28.5933116,-81.3540961
1525,Wilbar Circle,32789,28.6127017,-81.3333164
1439,Howell Branch Road,32789,28.6251385,-81.3344872
1701,Goodrich Avenue,32789,28.5989809,-81.3308393
2733,Woodside Avenue,32789,28.5702413,-81.3446911
210,East Lake Sue Avenue,32789,28.5821538,-81.3475996
262,West Welbourne Avenue,32789,28.5966127,-81.3537861
1201,South Orlando Avenue,32789,28.5862674,-81.3656623
2310,Forrest Road,32789,28.5746718,-81.3480454
2720,Summerfield Road,32792,28.5856450,-81.3144762
1567,Forest Avenue,32789,28.5838658,-81.3470973
1237,Burning Tree Lane,32792,28.5804505,-81.3141305
659,Greene Drive,32792,28.5880777,-81.3197558
847,North Phelps Avenue,32789,28.6062895,-81.3315821
2024,Venetian Way,32789,28.6207051,-81.3443103
1565,Forest Avenue,32789,28.5836953,-81.3470968
2389,Forrest Road,32789,28.5728528,-81.3484413
460,Fairfax Avenue,32789,28.5861646,-81.3547327
1120,Washington Avenue,32789,28.5885393,-81.3574329
389,Grouse Court,32789,28.5773106,-81.3443215
1330,Ridgewood Avenue,32789,28.6106505,-81.3630865
2338,Summerfield Road,32792,28.5857383,-81.3204622
836,Symonds Avenue,32789,28.5985766,-81.3601620
450,Beloit Avenue,32789,28.6075593,-81.3557831
525,North Park Avenue,32789,28.6015167,-81.3512929
230,West Reading Way,32789,28.5796860,-81.3500467
1475,Grove Terrace,32789,28.5971907,-81.3340933
2721,Woodside Avenue,32789,28.5702518,-81.3448749
2911,Northwood Boulevard,32789,28.5689376,-81.3414499
2131,Sycamore Drive,32789,28.5712224,-81.3406285
461,East Webster Avenue,32789,28.6044442,-81.3468813
1303,Raintree Place,32789,28.6109446,-81.3558849
2700,Winter Park Road,32789,28.5699363,-81.3459112
1838,Jill Court,32789,28.5809005,-81.3296454
2436,Tioga Trail,32789,28.6227312,-81.3303059
625,Dunraven Drive,32792,28.5889252,-81.3253796
1736,Drum Street,32789,28.6284416,-81.3311217
1570,Drum Street,32789,28.6284183,-81.3327800
2533,Balfour Court,32792,28.6038257,-81.3190650
1740,Summerland Avenue,32789,28.6154593,-81.3574585
1531,Norfolk Avenue,32789,28.5829514,-81.3664126
2926,Parkland Court,32789,28.5716244,-81.3404740
926,Hanover Avenue,32789,28.6066474,-81.3835640
1094,Azalea Lane,32789,28.5882891,-81.3584167
1270,Via Salerno,32789,28.6107506,-81.3370970
840,West Webster Avenue,32789,28.6038369,-81.3603892
1525,Palmer Avenue,32789,28.6089746,-81.3334729
1807,Alice Avenue,32792,28.6094667,-81.3268111
2702,Phillips Park Court,32789,28.5743890,-81.3456891
2805,Parkland Drive,32789,28.5721195,-81.3437158
843,Palmer Avenue,32789,28.6084569,-81.3425624
111,South Phelps Avenue,32789,28.5955189,-81.3312771
1338,Orchid Avenue,32789,28.5847060,-81.3628736
133,Benmore Drive,32792,28.5957262,-81.3274998
2002,Taylor Avenue,32792,28.6038218,-81.3261641
321,Stirling Avenue,32789,28.5861082,-81.3520684
160,Alexander Place,32789,28.5969945,-81.3465359
699,Osceola Avenue,32789,28.5960860,-81.3425753
1230,Lakeview Drive,32789,28.5874155,-81.3517300
2317,Mulbry Drive,32789,28.5736107,-81.3402156
1112,Washington Avenue,32789,28.5887565,-81.3574336
513,Brechin Drive,32792,28.5907748,-81.3270961
440,Lakewood Drive,32789,28.6006387,-81.3411160
2392,Lafayette Avenue,32789,28.6212241,-81.3347460
1621,Hillcrest Avenue,32789,28.5831453,-81.3481201
1572,Sunset Drive,32789,28.6131753,-81.3341968
123,Garfield Avenue,32789,28.5999663,-81.3514912
1761,Shiloh Lane,32789,28.5812863,-81.3415583
2350,Temple Drive,32789,28.6201569,-81.3358958
809,Margaret Square,32789,28.6113075,-81.3733240
1828,Pineview Circle,32792,28.6095274,-81.3255584
2255,Chantilly Avenue,32789,28.6189814,-81.3330214
1150,Orange Avenue,32789,28.5883718,-81.3613665
1652,Westchester Avenue,32789,28.5834754,-81.3719575
840,Huntington Court,32789,28.5899982,-81.3579894
118,South Park Avenue,32789,28.5974290,-81.3508565
1520,Holts Grove Circle,32789,28.5954174,-81.3315884
731,Williams Drive,32789,28.6118231,-81.3585994
921,Balch Avenue,32789,28.5890395,-81.3641678
2842,Woodside Avenue,32789,28.5702333,-81.3424292
650,Clay Street,32789,28.5923829,-81.3732197
777,Maryland Avenue,32789,28.5912278,-81.3547559
410,West Comstock Avenue,32789,28.5939496,-81.3551515
1762,Elizabeths Walk,32789,28.5796913,-81.3326172
102,Village Lane,32792,28.6000990,-81.3192054
1842,West Fairbanks Avenue,32789,28.5927825,-81.3739503
1351,Mayfield Avenue,32789,28.6097753,-81.3355792
1170,Kenwood Avenue,32789,28.6090735,-81.3604071
1717,Howell Branch Road,32789,28.6256492,-81.3303524
255,Sylvan Boulevard,32789,28.5987487,-81.3368966
1813,Palmer Avenue,32792,28.6086459,-81.3261447
1155,Louisiana Avenue,32789,28.6084784,-81.3618169
306,Turkey Run,32789,28.5777312,-81.3453187
805,Maryland Avenue,32789,28.5907875,-81.3548604
1127,South Pennsylvania Avenue,32789,28.5886726,-81.3569192
848,Miles Avenue,32789,28.5900120,-81.3631340
317,West Lyman Avenue,32789,28.5950436,-81.3543480
375,West Welbourne Avenue,32789,28.5968802,-81.3541484
1294,Howell Branch Road,32789,28.6245166,-81.3373729
1151,Preserve Point Drive,32789,28.5837279,-81.3381334
517,Henkel Circle,32789,28.5955757,-81.3409719
2219,Whitehall Drive,32792,28.5869132,-81.3225815
1773,Magnolia Avenue,32789,28.6166063,-81.3291615
1835,Temple Drive,32789,28.6146854,-81.3363646
607,Village Lane,32792,28.5993150,-81.3196251
2318,Atomic Court,32789,28.6064791,-81.3808271
401,Jo-Al-Ca Avenue,32789,28.6005608,-81.3359550
1037,North Virginia Avenue,32789,28.6066921,-81.3550634
439,Briarwood Drive,32789,28.5776968,-81.3438430
221,Oakwood Way,32789,28.5769549,-81.3468409
650,Randy Lane,32789,28.5753452,-81.3416980
2619,Winter Park Road,32789,28.5704238,-81.3479911
200,Palmer Avenue,32789,28.6067641,-81.3485033
1212,Village Lane,32792,28.6006542,-81.3197817
2104,Mallard Circle,32789,28.5779006,-81.3426752
1330,Orchid Avenue,32789,28.5848905,-81.3626178
621,Osceola Avenue,32789,28.5959063,-81.3440331
1931,Woodcrest Drive,32792,28.5823656,-81.3265372
2002,Via Tuscany,32789,28.6164916,-81.3388919
510,Genius Drive,32789,28.5889963,-81.3334628
1809,Barker Drive,32789,28.5764281,-81.3309244
235,Blossom Lane,32789,28.6048716,-81.3793441
350,Village Lane,32792,28.5990387,-81.3189725
301,Sylvan Drive,32789,28.5988391,-81.3326120
1227,Minnesota Avenue,32789,28.5896492,-81.3662897
1898,West Fairbanks Avenue,32789,28.5926516,-81.3753080
1921,Taylor Avenue,32792,28.6042048,-81.3270255
1270,Via Lugano,32789,28.6139008,-81.3366582
1661,Orange Avenue,32789,28.5831124,-81.3686867
1700,Walnut Avenue,32789,28.6125215,-81.3305108
1604,Alabama Drive,32789,28.6103839,-81.3410624
1217,Fairway Drive,32792,28.5804224,-81.3095845
617,Railroad Avenue,32789,28.6030384,-81.3567086
121,North Phelps Avenue,32789,28.5966997,-81.3313182
2153,Lee Road,32789,28.6061299,-81.3768710
970,Aragon Avenue,32789,28.5906363,-81.3621079
501,South New York Avenue,32789,28.5938700,-81.3529979
1828,Howell Branch Road,32789,28.6248125,-81.3283486
519,Park North Court,32789,28.6088093,-81.3563016
2242,Smiley Avenue,32792,28.5908699,-81.3218489
1161,Palmer Avenue,32789,28.6088864,-81.3380260
1940,Winter Park Road,32789,28.5793986,-81.3459790
271,Chelton Circle,32789,28.5785633,-81.3502361
1094,McKean Circle,32789,28.6082576,-81.3441793
1850,Whitehall Drive,32789,28.5864047,-81.3281513
650,South Lakemont Avenue,32792,28.5882489,-81.3275619
716,Via Bella,32789,28.6070689,-81.3389209
438,South Lakemont Avenue,32792,28.5914310,-81.3275686
510,Lander Road,32792,28.6020696,-81.3242923
2811,Eastern Parkway,32789,28.5712891,-81.3436446
2974,Chantilly Avenue,32789,28.6277867,-81.3335106
817,Brock Street,32789,28.6134533,-81.3598953
942,Garden Drive,32789,28.5838739,-81.3629197
2260,Brookshire Avenue,32792,28.5916516,-81.3215802
1224,Golfside Drive,32792,28.5806723,-81.3145456
244,Rippling Lane,32789,28.6044851,-81.3798601
1901,Village Lane,32792,28.5988853,-81.3175602
831,West Webster Avenue,32789,28.6041890,-81.3603686
222,Sylvan Boulevard,32789,28.5981099,-81.3361062
1941,Englewood Road,32789,28.5798073,-81.3510067
271,West Canton Avenue,32789,28.6005954,-81.3537122
1503,Palmer Avenue,32789,28.6089629,-81.3337752
401,St Andrews Boulevard,32792,28.6006404,-81.3213158
221,Cortland Avenue,32789,28.5993479,-81.3381763
2273,Lee Road,32789,28.6072404,-81.3790565
1911,Laurel Road,32789,28.5797707,-81.3448966
2019,Oakhurst Avenue,32792,28.6077958,-81.3262606
1000,Anchorage Court,32789,28.6071129,-81.3465379
190,Balfour Drive,32792,28.5980066,-81.3161304
1840,Greenwich Avenue,32789,28.5978008,-81.3286604
2624,Park Place Drive,32789,28.5693763,-81.3465939
574,Genius Drive,32789,28.5906899,-81.3327498
2265,Smiley Avenue,32792,28.5912802,-81.3216195
307,Moray Lane,32792,28.5991362,-81.3249668
1561,Chestnut Avenue,32789,28.6138095,-81.3324503
1256,South Pennsylvania Avenue,32789,28.5871846,-81.3561728
321,Turkey Run,32789,28.5783854,-81.3453695
1047,North Kentucky Avenue,32789,28.5925202,-81.3625569
3036,Northwood Boulevard,32789,28.5705882,-81.3401716
440,West Canton Avenue,32789,28.6002495,-81.3555653
2269,Lee Road,32789,28.6068892,-81.3787530
2728,Norris Avenue,32789,28.5726849,-81.3441943
828,Miles Avenue,32789,28.5902458,-81.3631317
1660,Oneco Avenue,32789,28.6152442,-81.3305692
960,Georgia Avenue,32789,28.6065450,-81.3459969
1999,Aloma Avenue,32792,28.6011416,-81.3248728
382,South Perth Lane,32792,28.5930114,-81.3237064
665,Brechin Drive,32792,28.5877714,-81.3271211
490,North Orlando Avenue,32789,28.6020991,-81.3628049
2102,Summerfield Road,32792,28.5840529,-81.3197276
1317,North New York Avenue,32789,28.6108404,-81.3536904
2924,Cove Trail,32789,28.6276213,-81.3403117
440,Killarney Bay Court,32789,28.6001195,-81.3664104
131,East Kings Way,32789,28.5814878,-81.3477750
1349,Sawgrass Court,32792,28.5771171,-81.3141175
436,Brechin Drive,32792,28.5914937,-81.3266340
1780,Palmer Avenue,32789,28.6087361,-81.3286632
1520,Neola Trail,32789,28.6233723,-81.3324493
1184,North Pennsylvania Avenue,32789,28.6085686,-81.3568524
2721,Parkland Drive,32789,28.5720854,-81.3441643
1014,Fairway Drive,32792,28.5838474,-81.3092051
330,Killarney Bay Court,32789,28.6001188,-81.3659492
200,West Welbourne Avenue,32789,28.5965583,-81.3525208
968,Palmer Avenue,32789,28.6080358,-81.3404885
1661,Woodland Avenue,32789,28.6069816,-81.3319863
1650,Chestnut Avenue,32789,28.6134053,-81.3312865
350,West Fairbanks Avenue,32789,28.5927713,-81.3534959
617,North Interlachen Avenue,32789,28.6022578,-81.3490151
1750,Via Amalfi,32789,28.6155351,-81.3430932
1600,Highland Road,32789,28.5834184,-81.3488906
1350,Lyndale Boulevard,32789,28.6109148,-81.3619655
1925,Albert Lee Parkway,32789,28.6075052,-81.3748408
1855,Hollywood Avenue,32789,28.5972567,-81.3284779
1800,Summerland Avenue,32789,28.6164243,-81.3565205
219,Sandlewood Trail,32789,28.6250267,-81.3385235
1007,Layton Drive,32792,28.5846938,-81.3213346
662,Callahan Street,32789,28.6031614,-81.3579405
960,Railroad Avenue,32789,28.6059448,-81.3599570
1358,Richmond Road,32789,28.5859813,-81.3532800
871,Dixie Parkway,32789,28.6139905,-81.3606171
1379,Canterbury Road,32789,28.5846074,-81.3703412
751,Orange Avenue,32789,28.5916869,-81.3584311
261,Cortland Avenue,32789,28.5996518,-81.3383134
1041,Osceola Avenue,32789,28.5978813,-81.3384271
505,West Welbourne Avenue,32789,28.5969257,-81.3561182
1188,Lewis Drive,32789,28.6094799,-81.3668144
216,Sandlewood Trail,32789,28.6254427,-81.3382380
1091,Oaks Boulevard,32789,28.6079648,-81.3599280
2702,Winter Park Road,32789,28.5698108,-81.3459474
2848,Mulford Avenue,32789,28.5694804,-81.3421619
171,South Phelps Avenue,32789,28.5939937,-81.3312256
401,Worthington Drive,32789,28.5927311,-81.3290404
651,Israel Simpson Court,32789,28.5998587,-81.3577454
671,Via Lugano,32789,28.6152283,-81.3436192
1245,Michigan Avenue,32789,28.5889105,-81.3659591
2611,Lee Road,32789,28.6060805,-81.3837085
2410,Lafayette Avenue,32789,28.6219154,-81.3343616
2026,Fosgate Drive,32789,28.5778240,-81.3403258
1821,Laurel Road,32789,28.5809917,-81.3449317
223,Blossom Lane,32789,28.6047803,-81.3785584
2525,Sweetwater Trail,32789,28.6258523,-81.3282646
1726,Glenridge Way,32789,28.5786522,-81.3324020
650,Northwood Circle,32789,28.6060127,-81.3582306
780,Maryland Avenue,32789,28.5910612,-81.3543347
796,West Swoope Avenue,32789,28.6017187,-81.3595592
950,South Ranger Boulevard,32792,28.5849983,-81.3110624
603,Village Lane,32792,28.5992844,-81.3198038
2338,Albert Lee Parkway,32789,28.6069779,-81.3814522
1020,North Park Avenue,32789,28.6062859,-81.3504994
1836,Jessica Court,32789,28.5800066,-81.3296457
860,West New England Avenue,32789,28.5957203,-81.3605609
2004,Woodcrest Drive,32792,28.5820781,-81.3248912
2660,Via Tuscany,32789,28.6237742,-81.3400655
201,North New York Avenue,32789,28.5989059,-81.3529555
686,Blairshire Circle,32792,28.5877169,-81.3211569
2939,Rouen Avenue,32789,28.6273894,-81.3329046
1006,West Fairbanks Avenue,32789,28.5929605,-81.3620597
1256,Michigan Avenue,32789,28.5883189,-81.3660874
1901,Gipson Green Lane,32789,28.6174692,-81.3608224
641,Pinetree Road,32789,28.6169572,-81.3440051
1640,Cypress Point Lane,32792,28.5805699,-81.3112394
1930,Via Venetia,32789,28.6170870,-81.3405551
328,Trismen Terrace,32789,28.6004065,-81.3415578
1850,Glencoe Road,32789,28.5806060,-81.3494858
608,South Phelps Avenue,32789,28.5894331,-81.3303264
2190,Aloma Avenue,32792,28.6002599,-81.3239810
1311,Palmetto Avenue,32789,28.5870963,-81.3626870
185,North Lakemont Avenue,32792,28.5976454,-81.3281332
1865,Walker Avenue,32789,28.6036649,-81.3285072
772,Granville Drive,32789,28.6104542,-81.3593552
213,East Canton Avenue,32789,28.6007102,-81.3496226
220,East Reading Way,32789,28.5797045,-81.3471210
525,Lake Front Boulevard,32789,28.6015883,-81.3702013
1620,Hillcrest Avenue,32789,28.5832097,-81.3476872
1031,West Morse Boulevard,32789,28.5980494,-81.3627877
1364,Clay Street,32789,28.5848972,-81.3729907
1278,Sara Court,32789,28.5815121,-81.3280738
640,Langholm Drive,32789,28.5883515,-81.3294692
151,East Fawsett Road,32789,28.5753528,-81.3473903
2524,Modac Trail,32789,28.6280106,-81.3285549
391,Glenridge Way,32789,28.5788849,-81.3449654
1052,Azalea Lane,32789,28.5887043,-81.3584586
1955,Albert Lee Parkway,32789,28.6074978,-81.3755357
2143,Mallard Circle,32789,28.5767865,-81.3427464
905,Greentree Drive,32789,28.6062967,-81.3386629
1783,Via Palermo,32789,28.6153434,-81.3405183
1331,Hibiscus Avenue,32789,28.6174159,-81.3354882
2055,Glenwood Drive,32792,28.5996889,-81.3258335
533,South Phelps Avenue,32789,28.5899434,-81.3308265
2307,Mulbry Drive,32789,28.5732145,-81.3402829
1331,Chapman Circle,32789,28.5792555,-81.3361048
2561,Middleton Avenue,32792,28.5908913,-81.3174085
111,East Rockwood Way,32789,28.5763387,-81.3479699
740,North Lakemont Avenue,32792,28.6048820,-81.3275600
408,North Orlando Avenue,32789,28.6020925,-81.3632865
1101,North Pennsylvania Avenue,32789,28.6079515,-81.3572337
233,West Park Avenue,32789,28.5964075,-81.3523489
1790,Windsor Drive,32789,28.6049904,-81.3297206
627,North Interlachen Avenue,32789,28.6025190,-81.3490440
1620,Chestnut Avenue,32789,28.6133932,-81.3317384
505,North Park Avenue,32789,28.6013663,-81.3512965
1660,Mizell Avenue,32789,28.5959820,-81.3312942
1272,Miller Avenue,32789,28.5875665,-81.3664067
1500,Alabama Drive,32789,28.6105546,-81.3428934
2532,Fifeshire Drive,32792,28.5888770,-81.3178699
701,Margaret Square,32789,28.6115020,-81.3736270
901,West Webster Avenue,32789,28.6053547,-81.3621980
854,English Court,32789,28.5995570,-81.3605772
649,Balmoral Road,32789,28.5883639,-81.3311550
1440,Place Vendome,32789,28.6193766,-81.3333562
2100,Lake Drive,32789,28.6017705,-81.3739634
251,Cortland Avenue,32789,28.5996311,-81.3382052
637,Huntington Avenue,32789,28.5910140,-81.3573564
1660,Lee Road,32789,28.6056682,-81.3707423
202,North Capen Avenue,32789,28.5984973,-81.3587879
1020,Railroad Avenue,32789,28.6069651,-81.3610450
111,West Kings Way,32789,28.5814666,-81.3485321
124,Sandlewood Trail,32789,28.6259328,-81.3380214
1326,Palmetto Avenue,32789,28.5861548,-81.3626004
1131,Minnesota Avenue,32789,28.5897430,-81.3639713
674,West Lyman Avenue,32789,28.5947395,-81.3580865
444,Garfield Avenue,32789,28.5993444,-81.3556744
1626,Lookout Landing Circle,32789,28.5821344,-81.3367346
900,North Denning Drive,32789,28.6054113,-81.3609929
629,Ellen Drive,32789,28.6050249,-81.3697375
1412,Village Lane,32792,28.6006682,-81.3188782
813,West New England Avenue,32789,28.5960455,-81.3596574
570,Country Club Drive,32789,28.6044099,-81.3702610
1670,Woodland Avenue,32789,28.6066494,-81.3317297
661,Harold Avenue,32789,28.5915118,-81.3719577
1630,Chestnut Avenue,32789,28.6133825,-81.3315825
211,Overlook Road,32789,28.5980832,-81.3369039
1821,Aloma Avenue,32789,28.6007895,-81.3290499
520,Clarendon Avenue,32789,28.5886670,-81.3559314
331,South Park Avenue,32789,28.5951543,-81.3513025
701,Clay Street,32789,28.5917827,-81.3734606
1494,Westchester Avenue,32789,28.5834892,-81.3699353
442,Mallard Circle,32789,28.5758424,-81.3430549
875,West Canton Avenue,32789,28.6010003,-81.3602391
1579,Golfside Drive,32792,28.5795348,-81.3116601
530,Lake Front Boulevard,32789,28.6020227,-81.3702309
300,South Virginia Avenue,32789,28.5955986,-81.3545743
1181,Whitesell Drive,32789,28.6170228,-81.3376095
390,Waterfall Lane,32789,28.6072982,-81.3557199
1879,Lake Spier Drive,32789,28.5772971,-81.3286714
298,West Lyman Avenue,32789,28.5946769,-81.3543352
403,North Interlachen Avenue,32789,28.6007015,-81.3488417
1562,Golfside Drive,32792,28.5792336,-81.3122575
1520,Bonnie Burn Circle,32789,28.5844571,-81.3534744
301,North Pennsylvania Avenue,32789,28.5995892,-81.3573026
1815,Palmer Avenue,32792,28.6086629,-81.3259578
1350,College Point,32789,28.5862567,-81.3488813
1430,Buckingham Road,32789,28.5843582,-81.3689569
147,Moray Lane,32792,28.5973041,-81.3248102
394,Henkel Circle,32789,28.5946950,-81.3411934
2518,Brookshire Avenue,32792,28.5912939,-81.3181576
502,South Phelps Avenue,32789,28.5911765,-81.3304440
1540,Bonnie Burn Circle,32789,28.5839674,-81.3535444
185,Detmar Drive,32789,28.5981510,-81.3405720
2014,Aloma Avenue,32792,28.6002116,-81.3263040
1607,Aloma Avenue,32789,28.6006920,-81.3318232
114,South Park Avenue,32789,28.5975168,-81.3507979
1592,Mayflower Court,32792,28.6039172,-81.3219136
1804,Village Lane,32792,28.5990774,-81.3170808
1421,Highland Road,32789,28.5855458,-81.3494086
440,Sylvan Drive,32789,28.6011258,-81.3332612
517,Country Club Drive,32789,28.6032211,-81.3695362
1127,Oaks Boulevard,32789,28.6084863,-81.3598815
871,Bonita Drive,32789,28.6064679,-81.3350825
325,South Pennsylvania Avenue,32789,28.5954701,-81.3570144
1550,Palmer Avenue,32789,28.6085984,-81.3332629
959,Fairway Drive,32792,28.5841599,-81.3096889
1116,Washington Avenue,32789,28.5886548,-81.3574271
1870,Barker Drive,32789,28.5755534,-81.3287034
1520,Mizell Avenue,32789,28.5958398,-81.3332102
1240,College Point,32789,28.5875875,-81.3490340
2026,Kimbrace Place,32792,28.5921422,-81.3246199
1531,Oakhurst Avenue,32789,28.6079640,-81.3340058
2711,Woodside Avenue,32789,28.5702188,-81.3455144
2336,Woodcrest Drive,32792,28.5821363,-81.3200805
2007,Edwin Boulevard,32792,28.6019110,-81.3258809
251,Salvador Square,32789,28.5814632,-81.3530375
171,Cortland Avenue,32789,28.5984949,-81.3383262
2134,Lake Drive,32789,28.6019888,-81.3755598
305,North Lakemont Avenue,32792,28.5989984,-81.3281967
505,Carolina Avenue,32789,28.5988044,-81.3560092
2612,Park Place Drive,32789,28.5693683,-81.3471242
482,Lakewood Drive,32789,28.6008984,-81.3395493
921,Osceola Avenue,32789,28.5976418,-81.3396136
851,Virginia Drive,32789,28.5826502,-81.3394844
1308,Green Cove Road,32789,28.6117277,-81.3540705
1100,Schultz Avenue,32789,28.5875183,-81.3669051
763,South Orlando Avenue,32789,28.5910487,-81.3662732
953,Golfside Drive,32792,28.5840683,-81.3160046
2855,Northwood Boulevard,32789,28.5689336,-81.3419234
656,Symonds Avenue,32789,28.5988358,-81.3576890
600,Dunbar Street,32789,28.6024511,-81.3571559
609,Railroad Avenue,32789,28.6029616,-81.3567607
1854,Palmer Avenue,32792,28.6082845,-81.3243080
785,Margaret Square,32789,28.6107314,-81.3728233
1620,Westchester Avenue,32789,28.5834568,-81.3717269
1507,Place Picardy,32789,28.6184083,-81.3334373
1666,Westchester Avenue,32789,28.5834803,-81.3721600
515,Lake Front Boulevard,32789,28.6014212,-81.3699576
1571,Hibiscus Avenue,32789,28.6174538,-81.3323839
613,Selkirk Drive,32792,28.5893647,-81.3244524
341,North Pennsylvania Avenue,32789,28.5999673,-81.3571056
2573,Madeline Avenue,32789,28.6224602,-81.3297751
124,Oak Grove Road,32789,28.6109465,-81.3716054
1025,Camellia Avenue,32789,28.5835659,-81.3644602
1129,Park Green Place,32789,28.6082562,-81.3697696
623,Executive Drive,32789,28.6038359,-81.3689595
2219,Venetian Way,32789,28.6207884,-81.3407510
1243,Minnesota Avenue,32789,28.5896561,-81.3669542
410,Balmoral Road,32789,28.5924232,-81.3312487
1385,Orchid Avenue,32789,28.5846321,-81.3638027
1595,Hibiscus Avenue,32789,28.6174075,-81.3321718
1818,Carrigan Avenue,32789,28.6237602,-81.3290186
2009,Oakhurst Avenue,32792,28.6077842,-81.3264911
1532,Berkshire Avenue,32789,28.5826201,-81.3709325
430,Killarney Drive,32789,28.5947007,-81.3684726
410,Cortland Avenue,32789,28.6018851,-81.3376234
2261,Banchory Road,32792,28.5896933,-81.3215960
1491,West Fairbanks Avenue,32789,28.5933053,-81.3693268
1560,Glencoe Avenue,32789,28.5840134,-81.3498959
1800,South Lakemont Avenue,32792,28.5795101,-81.3258718
341,East Kings Way,32789,28.5816199,-81.3455158
1470,Aloma Avenue,32789,28.6001337,-81.3340496
300,Sylvan Boulevard,32789,28.5993577,-81.3364280
475,Shoreview Avenue,32789,28.5939541,-81.3679278
1081,Kenwood Avenue,32789,28.6078541,-81.3607831
1742,Chestnut Avenue,32789,28.6134262,-81.3294633
2258,Aloma Avenue,32792,28.6007523,-81.3216359
565,West Fairbanks Avenue,32789,28.5932792,-81.3559532
1220,Osceola Avenue,32789,28.5962990,-81.3371438
600,Huntington Avenue,32789,28.5906940,-81.3569572
2837,Northwood Boulevard,32789,28.5689265,-81.3425683
2335,Coldstream Drive,32792,28.5928997,-81.3206273
501,Lakeview Avenue,32789,28.5938151,-81.3689755
1020,South Lakemont Avenue,32792,28.5839695,-81.3275019
456,Briarwood Drive,32789,28.5777320,-81.3430081
1400,Place Picardy,32789,28.6180100,-81.3343524
367,Sylvan Drive,32789,28.6001836,-81.3325062
1957,Aloma Avenue,32792,28.6012420,-81.3261811
1580,South Pennsylvania Avenue,32789,28.5839164,-81.3541113
1443,Place Vendome,32789,28.6198147,-81.3330209
1845,Temple Drive,32789,28.6149604,-81.3363624
2233,West Fairbanks Avenue,32789,28.5934764,-81.3796023
160,Glenridge Way,32789,28.5784218,-81.3475374
1571,Mizell Avenue,32789,28.5963418,-81.3326166
625,Glenridge Way,32789,28.5789904,-81.3423952
1411,Border Drive,32789,28.6226602,-81.3334912
1241,Miller Avenue,32789,28.5879394,-81.3657786
1931,West Fairbanks Avenue,32789,28.5934048,-81.3756508
1346,Chapman Circle,32789,28.5794783,-81.3353677
131,Oak Grove Road,32789,28.6108385,-81.3718700
446,Melrose Avenue,32789,28.5878120,-81.3547195
1353,Palmetto Avenue,32789,28.5861969,-81.3633079
1809,Pineview Circle,32792,28.6103142,-81.3266330
1571,Hillcrest Avenue,32789,28.5839153,-81.3481818
418,Genius Drive,32789,28.5911584,-81.3333201
602,West Swoope Avenue,32789,28.6021330,-81.3546274
1765,Carollee Lane,32789,28.5951159,-81.3300450
1225,Raintree Place,32789,28.6099411,-81.3557631
704,West Comstock Avenue,32789,28.5938893,-81.3582238
784,South Pennsylvania Avenue,32789,28.5908853,-81.3563876
2467,Forfarshire Drive,32792,28.5885290,-81.3184951
996,Bungalow Avenue,32789,28.5902568,-81.3621125
531,North Virginia Avenue,32789,28.6013318,-81.3550267
2818,Mulford Avenue,32789,28.5694693,-81.3432741
1071,Oaks Boulevard,32789,28.6077411,-81.3598415
260,Trismen Terrace,32789,28.5993066,-81.3414794
407,South Lakemont Avenue,32792,28.5925132,-81.3281360
807,West Morse Boulevard,32789,28.5979331,-81.3557975
2103,Taylor Avenue,32792,28.6042066,-81.3251493
401,Beloit Avenue,32789,28.6080743,-81.3555137
600,Osceola Avenue,32789,28.5949349,-81.3442231
1605,Highland Road,32789,28.5829498,-81.3492910
2434,Via Sienna,32789,28.6217465,-81.3375434
1038,Aloma Avenue,32789,28.5999928,-81.3385943
1368,Hibiscus Avenue,32789,28.6170125,-81.3351316
1671,Chestnut Avenue,32789,28.6138128,-81.3311039
501,Selkirk Drive,32792,28.5911911,-81.3243926
1120,Solana Avenue,32789,28.6080368,-81.3623919
222,South Pennsylvania Avenue,32789,28.5962804,-81.3567548
1351,Richmond Road,32789,28.5858480,-81.3538000
1451,Lyndale Boulevard,32789,28.6115570,-81.3625827
751,Symonds Avenue,32789,28.5991813,-81.3591112
503,North Virginia Avenue,32789,28.6005728,-81.3549930
2300,Forrest Road,32789,28.5749028,-81.3480587
1220,Via Salerno,32789,28.6106151,-81.3381778
1491,Summerland Avenue,32789,28.6125807,-81.3570623
1651,Chestnut Avenue,32789,28.6138041,-81.3312628
1790,Grinnell Terrace,32789,28.5937227,-81.3295358
434,West Swoope Avenue,32789,28.6015611,-81.3555368
532,Langholm Drive,32789,28.5900621,-81.3295026
222,Salvador Square,32789,28.5824142,-81.3532712
360,West Comstock Avenue,32789,28.5939817,-81.3544504
2240,Coldstream Drive,32792,28.5924722,-81.3223118
1927,Aloma Avenue,32792,28.6012243,-81.3266797
807,South Orlando Avenue,32789,28.5899845,-81.3682536
2315,Coldstream Drive,32792,28.5929013,-81.3211383
1930,Summerland Avenue,32789,28.6172348,-81.3568568
601,West Comstock Avenue,32789,28.5942190,-81.3572932
250,Carolina Avenue,32789,28.5981324,-81.3537050
1302,Green Cove Road,32789,28.6106934,-81.3541512
2928,Northwood Boulevard,32789,28.5685264,-81.3409065
658,Penn Place,32789,28.6081152,-81.3587894
404,West Lyman Avenue,32789,28.5947534,-81.3548862
1295,Orange Avenue,32789,28.5874499,-81.3635598
1748,Pine Avenue,32789,28.6107913,-81.3295143
2425,Middleton Avenue,32792,28.5909177,-81.3190539
2101,Banchory Road,32792,28.5900399,-81.3238718
1709,North Park Avenue,32789,28.6098799,-81.3599015
2572,Fifeshire Drive,32792,28.5888479,-81.3173961
1400,Pelham Road,32789,28.5844627,-81.3709795
358,Virginia Drive,32789,28.5831154,-81.3458579
2871,Rouen Avenue,32789,28.6265671,-81.3328677
2630,Lafayette Avenue,32789,28.6246408,-81.3344170
2000,Temple Drive,32789,28.6164825,-81.3359060
2352,Woodcrest Drive,32792,28.5822529,-81.3195948
1541,Chestnut Avenue,32789,28.6137892,-81.3328617
1461,Sunset Drive,32789,28.6119193,-81.3338407
693,Darcey Drive,32792,28.5873112,-81.3228788
600,West Swoope Avenue,32789,28.6017028,-81.3571180
212,Genius Drive,32789,28.5947943,-81.3351791
721,West Webster Avenue,32789,28.6042046,-81.3586421
2727,Eastern Parkway,32789,28.5712845,-81.3443486
2081,Dundee Drive,32792,28.5945560,-81.3250075
1666,Forest Avenue,32789,28.5826650,-81.3466509
1881,Carollee Lane,32789,28.5950897,-81.3283840
2992,Chantilly Avenue,32789,28.6280122,-81.3335331
2225,Aloma Avenue,32792,28.6022213,-81.3226594
851,West Comstock Avenue,32789,28.5942137,-81.3603408
1450,Cavendish Road,32789,28.5852191,-81.3669096
1930,Forrest Road,32789,28.5794793,-81.3480768
1227,Golfside Drive,32792,28.5806272,-81.3150128
919,Moss Lane,32789,28.6233515,-81.3419250
1772,Chestnut Avenue,32789,28.6134305,-81.3288056
858,Douglas Avenue,32789,28.5952780,-81.3603880
2151,Loch Lomond Drive,32792,28.5973549,-81.3231151
2365,Mulbry Drive,32789,28.5749571,-81.3407371
331,Beloit Avenue,32789,28.6080058,-81.3543728
275,Salvador Square,32789,28.5819303,-81.3542542
1110,North Park Avenue,32789,28.6076196,-81.3505631
1163,Minnesota Avenue,32789,28.5896015,-81.3644507
250,Chase Avenue,32789,28.5962128,-81.3456951
2418,Tioga Trail,32789,28.6220903,-81.3303537
646,Selkirk Drive,32792,28.5884528,-81.3239604
1504,North Park Avenue,32789,28.6103532,-81.3559172
1601,Lee Road,32789,28.6062003,-81.3692918
1256,Serena Drive,32789,28.5820566,-81.3287351
1251,Indiana Avenue,32789,28.5869278,-81.3662941
300,South Lakemont Avenue,32792,28.5943410,-81.3275091
1156,Oaks Boulevard,32789,28.6089027,-81.3594902
626,Railroad Avenue,32789,28.6031300,-81.3563579
152,Sandlewood Trail,32789,28.6256206,-81.3374780
1840,Laurel Road,32789,28.5807618,-81.3444979
415,North Orlando Avenue,32789,28.6016175,-81.3654987
510,Carolina Avenue,32789,28.5985152,-81.3561734
2112,Arbor Park Drive,32789,28.6174367,-81.3281005
1965,Lanier Court,32792,28.5814617,-81.3261543
1443,Hibiscus Avenue,32789,28.6174642,-81.3337553
1760,Goodrich Avenue,32789,28.5986464,-81.3304206
1627,Elizabeths Walk,32789,28.5804449,-81.3348504
1050,Mayfield Avenue,32789,28.6094220,-81.3393928
847,Old England Avenue,32789,28.6049027,-81.3482697
1656,Cypress Point Lane,32792,28.5810096,-81.3113934
617,Brechin Drive,32792,28.5891823,-81.3271254
1625,Golfside Drive,32792,28.5799900,-81.3110321
514,Henkel Circle,32789,28.5959126,-81.3404308
2245,Via Tuscany,32789,28.6201942,-81.3397018
931,Palmer Avenue,32789,28.6088678,-81.3410429
414,Worthington Drive,32789,28.5922590,-81.3286182
1331,Aloma Avenue,32789,28.6008031,-81.3369686
2812,Norris Avenue,32789,28.5727808,-81.3432257
1468,Williams Drive,32789,28.6121512,-81.3593174
2760,Sanbina Street,32789,28.6254457,-81.3314427
526,Langholm Drive,32789,28.5903069,-81.3295252
2003,Taylor Avenue,32792,28.6042071,-81.3260718
2250,Cady Way,32792,28.5933231,-81.3218813
1800,Village Lane,32792,28.5990602,-81.3170754
1648,Cypress Point Lane,32792,28.5807844,-81.3112276
1811,Summerfield Road,32792,28.5860220,-81.3291192
1521,Palm Avenue,32789,28.6147484,-81.3331421
1341,Place Picardy,32789,28.6184562,-81.3358689
660,Via Lugano,32789,28.6146035,-81.3437854
191,Cole Avenue,32789,28.6015811,-81.3522572
1500,Sunset Drive,32789,28.6124509,-81.3335369
1061,Cherokee Avenue,32789,28.6062105,-81.3634640
674,Randy Lane,32789,28.5753565,-81.3405016
307,Balfour Drive,32792,28.6000370,-81.3182369
2510,Tuscaloosa Trail,32789,28.6270768,-81.3291505
2210,Aloma Avenue,32792,28.6001855,-81.3232556
1740,Laurel Road,32789,28.5818289,-81.3445263
1641,Oneco Avenue,32789,28.6156308,-81.3310722
471,Broadview Avenue,32789,28.5943779,-81.3668199
638,West Comstock Avenue,32789,28.5936983,-81.3574736
415,Turkey Run,32789,28.5785077,-81.3442172
1302,Raintree Place,32789,28.6107177,-81.3553793
674,West Morse Boulevard,32789,28.5968365,-81.3577794
600,Village Lane,32792,28.5992955,-81.3197388
2048,Albert Lee Parkway,32789,28.6071295,-81.3764320
235,Rippling Lane,32789,28.6037106,-81.3785016
1415,Buckingham Road,32789,28.5842609,-81.3693273
261,Detmar Drive,32789,28.5993035,-81.3405165
1901,Lee Road,32789,28.6061357,-81.3747954
2233,Brookshire Avenue,32792,28.5920927,-81.3223107
1640,Orange Avenue,32789,28.5828883,-81.3680379
1323,Aloma Avenue,32789,28.6006369,-81.3371812
718,Margaret Square,32789,28.6107986,-81.3738782
645,Pansy Avenue,32789,28.6094123,-81.3581393
1369,Sawgrass Court,32792,28.5776019,-81.3149695
1303,Chapman Circle,32789,28.5803017,-81.3360495
515,Langholm Drive,32789,28.5906964,-81.3299346
1750,Temple Drive,32789,28.6143235,-81.3358866
2235,Via Tuscany,32789,28.6198532,-81.3397038
1415,Miller Avenue,32789,28.5877661,-81.3688348
220,West Reading Way,32789,28.5798321,-81.3499163
1915,Natalen Road,32792,28.5850684,-81.3268977
1228,North Orlando Avenue,32789,28.6097938,-81.3646357
1137,Tom Gurney Drive,32789,28.6179340,-81.3383667
1372,Miller Avenue,32789,28.5874810,-81.3675064
1531,Berkshire Avenue,32789,28.5829061,-81.3709522
541,Fairfax Avenue,32789,28.5865828,-81.3557156
400,South Park Avenue,32789,28.5948498,-81.3506017
165,Overlook Road,32789,28.5975632,-81.3369645
401,Langholm Drive,32789,28.5926821,-81.3299470
2725,Eastern Parkway,32789,28.5712455,-81.3445541
1664,Roundelay Lane,32789,28.5981767,-81.3313135
455,West Welbourne Avenue,32789,28.5969840,-81.3556685
232,Sandlewood Trail,32789,28.6256325,-81.3382418
1375,Miller Avenue,32789,28.5878845,-81.3677913
2613,Parkland Drive,32789,28.5720430,-81.3467625
792,McIntyre Avenue,32789,28.5909566,-81.3554063
1597,Oakhurst Avenue,32789,28.6079992,-81.3330803
2913,Mulford Avenue,32789,28.5698454,-81.3413780
1655,Barcelona Way,32789,28.5841904,-81.3566299
1540,Dale Avenue,32789,28.6054780,-81.3338546
1171,South Pennsylvania Avenue,32789,28.5879247,-81.3568731
2313,Loch Lomond Drive,32792,28.5982544,-81.3207339
1860,Via Contessa,32789,28.6154214,-81.3368033
1448,Holts Grove Circle,32789,28.5935677,-81.3323592
904,Railroad Avenue,32789,28.6044676,-81.3579979
1169,South Pennsylvania Avenue,32789,28.5878531,-81.3568759
1225,Michigan Avenue,32789,28.5887748,-81.3658404
1324,Serena Drive,32789,28.5803222,-81.3288054
2632,Mandan Trail,32789,28.6243939,-81.3308098
1921,Gunn Road,32792,28.5842667,-81.3262814
2013,Kimbrace Place,32792,28.5924020,-81.3252003
535,Genius Drive,32789,28.5890413,-81.3321597
1504,Golfside Drive,32792,28.5779075,-81.3124685
238,West Welbourne Avenue,32789,28.5963401,-81.3534031
1031,Willard Avenue,32789,28.6114922,-81.3630645
1365,Sunnyside Drive,32789,28.6111031,-81.3614892
2017,Lake Drive,32789,28.6041306,-81.3748413
1645,Berkshire Avenue,32789,28.5829171,-81.3719555
371,East Kings Way,32789,28.5815110,-81.3451391
424,West Swoope Avenue,32789,28.6018311,-81.3554247
1780,Carollee Lane,32789,28.5946357,-81.3295885
1820,Mayflower Court,32792,28.6052570,-81.3234662
1904,Natalen Road,32792,28.5846792,-81.3274605
2019,Edwin Boulevard,32792,28.6018791,-81.3254507
1194,Lewis Drive,32789,28.6096135,-81.3667350
2017,Aloma Avenue,32792,28.6021842,-81.3222880
317,Valera Court,32789,28.5848036,-81.3556162
681,South Lakemont Avenue,32792,28.5873535,-81.3281761
2021,Taylor Avenue,32792,28.6042060,-81.3253955
918,Fremont Avenue,32789,28.6063827,-81.3818583
1552,Sunset Drive,32789,28.6129234,-81.3337690
2708,Wright Avenue,32789,28.5735461,-81.3451349
1850,Englewood Road,32789,28.5805091,-81.3508065
917,Camellia Avenue,32789,28.5834344,-81.3616875
2722,Eastern Parkway,32789,28.5708655,-81.3447523
1466,Alabama Drive,32789,28.6106054,-81.3434732
223,Sandlewood Trail,32789,28.6250817,-81.3385361
375,Cortland Avenue,32789,28.6012126,-81.3381635
321,Hannibal Square,32789,28.5955783,-81.3575862
507,Langholm Drive,32789,28.5909604,-81.3299541
2368,Middleton Avenue,32792,28.5900249,-81.3197710
2127,Lake Drive,32789,28.6020839,-81.3749867
244,Balfour Drive,32792,28.5997771,-81.3164473
623,Selkirk Drive,32792,28.5891338,-81.3243925
1361,Harmon Avenue,32789,28.5859643,-81.3679685
842,Granville Drive,32789,28.6104772,-81.3600005
820,Pinetree Road,32789,28.6168378,-81.3412057
2349,Summerfield Road,32792,28.5861294,-81.3202141
526,Garfield Avenue,32789,28.5992985,-81.3563723
731,Minnesota Avenue,32789,28.5896531,-81.3584805
440,Shoreview Avenue,32789,28.5946096,-81.3675779
2205,Hawick Lane,32792,28.5991371,-81.3231050
830,Carver Street,32789,28.6050659,-81.3595021
1381,Place Picardy,32789,28.6183748,-81.3347369
1601,Harris Circle,32789,28.5979135,-81.3320980
1377,Palmetto Avenue,32789,28.5861826,-81.3638021
1530,Golfside Drive,32792,28.5783721,-81.3125634
250,Virginia Drive,32789,28.5844211,-81.3471926
161,West Reading Way,32789,28.5803560,-81.3494039
272,West New England Avenue,32789,28.5957137,-81.3537420
2118,Nairn Drive,32792,28.5976251,-81.3239574
1420,Magnolia Avenue,32789,28.6161456,-81.3342374
507,Dunblane Drive,32792,28.5910576,-81.3261746
2348,Summerfield Road,32792,28.5856812,-81.3201785
1831,Windsor Drive,32789,28.6055256,-81.3290428
1836,Pineview Circle,32792,28.6088126,-81.3254721
1390,Miller Avenue,32789,28.5874852,-81.3679831
1110,Alabama Drive,32789,28.6082220,-81.3430073
605,Selkirk Drive,32792,28.5896151,-81.3244345
300,West Reading Way,32789,28.5793680,-81.3507030
1770,Glencoe Road,32789,28.5813620,-81.3496378
870,North Phelps Avenue,32789,28.6065959,-81.3311000
2337,Sherbrooke Road,32792,28.5852522,-81.3201648
1860,Edwin Boulevard,32789,28.6015418,-81.3284508
1710,Windsor Drive,32789,28.6050284,-81.3310327
805,West Canton Avenue,32789,28.6010352,-81.3598046
147,Virginia Drive,32789,28.5855454,-81.3484863
108,Sandlewood Trail,32789,28.6260286,-81.3381869
502,Village Lane,32792,28.5988879,-81.3194760
1301,Pelham Road,32789,28.5856966,-81.3713265
919,Fairway Drive,32792,28.5852682,-81.3097109
1976,Lanier Court,32792,28.5810868,-81.3257954
1308,Alberta Drive,32789,28.6013900,-81.3365311
193,South Perth Lane,32792,28.5947613,-81.3242789
1936,Lee Road,32789,28.6055631,-81.3749679
1530,Elm Avenue,32789,28.6102949,-81.3334459
340,East Reading Way,32789,28.5797714,-81.3456724
731,West Morse Boulevard,32789,28.5978513,-81.3586610
200,North Denning Drive,32789,28.5982446,-81.3607347
425,West New England Avenue,32789,28.5960177,-81.3552145
1870,Walker Avenue,32789,28.6033157,-81.3284843
192,Balfour Drive,32792,28.5980892,-81.3160964
1208,Alexa Drive,32789,28.5814794,-81.3335825
307,South Park Avenue,32789,28.5957423,-81.3511344
1101,North Kentucky Avenue,32789,28.5920859,-81.3630695
521,Balmoral Road,32789,28.5904747,-81.3317537
1007,Dunraven Drive,32792,28.5844836,-81.3252943
2178,Whitehall Drive,32792,28.5864716,-81.3232190
3009,Temple Trail,32789,28.6292846,-81.3383719
633,Osceola Avenue,32789,28.5965011,-81.3437359
2010,Fawsett Road,32789,28.5790913,-81.3513440
2731,Eastern Parkway,32789,28.5712272,-81.3441709
1673,Mayfield Avenue,32789,28.6098401,-81.3316119
1710,Palmer Avenue,32789,28.6086838,-81.3309382
1257,Serena Drive,32789,28.5820538,-81.3292626
797,English Court,32789,28.5998952,-81.3595624
720,West New England Avenue,32789,28.5957292,-81.3582394
2241,Lafayette Avenue,32789,28.6187559,-81.3352244
1127,Minnesota Avenue,32789,28.5895978,-81.3637714
1851,Aloma Avenue,32789,28.6007437,-81.3286540
1881,Edwin Boulevard,32789,28.6019932,-81.3282901
2061,Aloma Avenue,32792,28.6013858,-81.3235357
2131,Lee Road,32789,28.6062874,-81.3763701
1231,North Park Avenue,32789,28.6092739,-81.3521612
703,Executive Drive,32789,28.6042870,-81.3689330
220,Brewer Avenue,32789,28.5993072,-81.3390612
2036,Sharon Road,32789,28.6173081,-81.3368250
1807,Stonehurst Road,32789,28.5810609,-81.3439318
2575,Banchory Road,32792,28.5900414,-81.3174371
1033,Turner Road,32789,28.6086839,-81.3762474
2144,Venetian Way,32789,28.6195736,-81.3404167
2092,Aloma Avenue,32792,28.6002880,-81.3248786
1258,Burning Tree Lane,32792,28.5798215,-81.3137641
194,Balfour Drive,32792,28.5981363,-81.3159625
1770,Walnut Avenue,32789,28.6125858,-81.3289620
1700,Fawsett Road,32789,28.5820484,-81.3522138
1725,Carollee Lane,32789,28.5950789,-81.3305528
1856,Lake Spier Drive,32789,28.5762699,-81.3292384
1600,Mayfield Avenue,32789,28.6094553,-81.3326236
626,South New York Avenue,32789,28.5927545,-81.3524401
609,South Lakemont Avenue,32792,28.5893972,-81.3281201
2407,Lafayette Avenue,32789,28.6212587,-81.3352385
600,North Virginia Avenue,32789,28.6021277,-81.3547642
440,Fitzwalter Drive,32792,28.5915277,-81.3169399
649,Jackson Avenue,32789,28.5923048,-81.3709270
724,Margaret Square,32789,28.6106375,-81.3739543
1813,Pineview Circle,32792,28.6102878,-81.3261529
1730,Spruce Avenue,32789,28.6116867,-81.3300064
640,Balmoral Road,32789,28.5887742,-81.3309756
740,Palmer Avenue,32789,28.6072977,-81.3430947
1113,Via del Mar,32789,28.6207547,-81.3388183
1460,Oneco Avenue,32789,28.6152698,-81.3336144
1540,Wilbar Circle,32789,28.6117643,-81.3331420
1760,Hollywood Avenue,32789,28.5969117,-81.3301285
521,North Lakemont Avenue,32789,28.6028580,-81.3282192
1211,Lewis Drive,32789,28.6097590,-81.3673128
675,Darcey Drive,32792,28.5876013,-81.3234935
1009,Greentree Drive,32789,28.6066576,-81.3373395
433,Lakewood Drive,32789,28.6013424,-81.3412460
444,Lakewood Drive,32789,28.6006697,-81.3408076
551,Country Club Drive,32789,28.6039715,-81.3695319
1230,Via Salerno,32789,28.6107044,-81.3379789
1608,Barcelona Way,32789,28.5852011,-81.3561005
1640,Legion Drive,32789,28.6145104,-81.3584901
1770,Palmer Avenue,32789,28.6087328,-81.3288814
150,East Dana Way,32789,28.5775299,-81.3474838
1923,North Park Avenue,32789,28.6098402,-81.3621659
1315,Orchid Avenue,32789,28.5857050,-81.3621315
1024,Early Avenue,32789,28.6083452,-81.3813325
439,Garfield Avenue,32789,28.5996641,-81.3554200
527,Henkel Circle,32789,28.5960296,-81.3409453
1888,Carollee Lane,32789,28.5946366,-81.3281114
1435,Howell Branch Road,32789,28.6251073,-81.3348705
1014,West Comstock Avenue,32789,28.5935165,-81.3623530
1360,Place Vendome,32789,28.6193373,-81.3347836
1980,Lanier Court,32792,28.5811095,-81.3257999
687,Minnesota Avenue,32789,28.5900636,-81.3582358
1226,Michigan Avenue,32789,28.5884034,-81.3651979
760,Virginia Drive,32789,28.5826810,-81.3403414
2025,Strathaven Road,32792,28.5834285,-81.3237487
1040,North Kentucky Avenue,32789,28.5921759,-81.3623593
870,Mayfield Avenue,32789,28.6091394,-81.3423963
360,East Reading Way,32789,28.5797091,-81.3452952
209,St Andrews Boulevard,32792,28.5994671,-81.3207843
430,Killarney Bay Court,32789,28.6001301,-81.3665938
1261,Richmond Road,32789,28.5870017,-81.3543522
865,West New England Avenue,32789,28.5959727,-81.3605554
2185,Via Tuscany,32789,28.6188901,-81.3398939
1319,Serena Drive,32789,28.5804863,-81.3291830
950,Cypress Lane,32789,28.6211224,-81.3413474
121,South New York Avenue,32789,28.5974271,-81.3529821
1313,West Fairbanks Avenue,32789,28.5932683,-81.3672616
712,Margaret Square,32789,28.6112554,-81.3742869
1243,Via Estrella,32789,28.6201908,-81.3366471
408,Turkey Run,32789,28.5780367,-81.3444940
224,Rippling Lane,32789,28.6041485,-81.3782663
1275,Michigan Avenue,32789,28.5887301,-81.3666251
464,West Canton Avenue,32789,28.6002350,-81.3558613
1421,Holts Grove Circle,32789,28.5939986,-81.3336843
2107,Whitehall Drive,32792,28.5868392,-81.3247625
796,English Court,32789,28.5995356,-81.3596030
2018,Cove Trail,32789,28.6279994,-81.3397612
711,Executive Drive,32789,28.6045923,-81.3689528
1926,Lanier Court,32792,28.5810837,-81.3266704
1639,Barcelona Way,32789,28.5848855,-81.3568753
632,Country Club Drive,32789,28.6051451,-81.3709555
123,Oak Grove Road,32789,28.6110696,-81.3718583
931,Greentree Drive,32789,28.6054756,-81.3381709
604,Village Lane,32792,28.5992872,-81.3197875
2073,Lake Drive,32789,28.6023815,-81.3737973
2334,Brookshire Avenue,32792,28.5916869,-81.3206236
812,Granville Drive,32789,28.6104121,-81.3596792
1760,Mondrian Circle,32789,28.6056380,-81.3725374
747,Maryland Avenue,32789,28.5915111,-81.3547506
630,Pansy Avenue,32789,28.6090836,-81.3576364
2025,Lake Drive,32789,28.6039057,-81.3745974
1314,Bessmor Road,32789,28.6215306,-81.3342887
119,East Lyman Avenue,32789,28.5951060,-81.3504374
1814,Alice Avenue,32792,28.6090628,-81.3266198
1181,Benjamin Avenue,32789,28.6095472,-81.3663209
1201,North Lakemont Avenue,32792,28.6096660,-81.3285477
811,West Webster Avenue,32789,28.6041819,-81.3599665
663,Callahan Street,32789,28.6034667,-81.3579072
847,South Orlando Avenue,32789,28.5905422,-81.3654386
2973,Lolissa Lane,32789,28.6291748,-81.3304538
1405,Elvin Avenue,32789,28.6107520,-81.3672882
1035,Golfside Drive,32792,28.5827206,-81.3160005
750,Margaret Square,32789,28.6104098,-81.3737291
2737,West Fairbanks Avenue,32789,28.5947746,-81.3854125
1919,Woodcrest Drive,32792,28.5823485,-81.3267865
1460,Mizell Avenue,32789,28.5958354,-81.3349678
1740,Walnut Avenue,32789,28.6125647,-81.3297380
2015,Woodcrest Drive,32792,28.5825302,-81.3244252
2742,Sanbina Street,32789,28.6252588,-81.3314297
126,North Park Avenue,32789,28.5982677,-81.3509029
1325,Sunnyside Drive,32789,28.6104872,-81.3614061
710,West New England Avenue,32789,28.5957296,-81.3581054
1820,Anzle Avenue,32789,28.5994498,-81.3291548
232,Osceola Court,32789,28.5964946,-81.3441192
310,Killarney Bay Court,32789,28.6001239,-81.3662074
874,Clay Street,32789,28.5899138,-81.3729679
1029,Fairway Drive,32792,28.5832716,-81.3096614
1865,Barker Drive,32789,28.5758967,-81.3288976
1017,Anchorage Court,32789,28.6081152,-81.3471645
1810,Hollywood Avenue,32789,28.5969580,-81.3291564
2615,Via Tuscany,32789,28.6233521,-81.3405847
2754,Eastern Parkway,32789,28.5708862,-81.3441760
1020,Temple Grove,32789,28.6084795,-81.3357247
2619,Park Place Drive,32789,28.5698903,-81.3468673
1470,Place Picardy,32789,28.6179930,-81.3334297
1231,Via Estrella,32789,28.6202335,-81.3371990
800,Mayfield Avenue,32789,28.6085621,-81.3433980
525,Brechin Drive,32792,28.5903402,-81.3271010
580,Palmer Avenue,32789,28.6066959,-81.3450655
1901,Laurelton Hall Lane,32789,28.5805607,-81.3368560
643,Greene Drive,32792,28.5885454,-81.3197104
1041,Aragon Avenue,32789,28.5910556,-81.3627014
1831,Azalea Avenue,32789,28.6231519,-81.3292224
2201,Fawsett Road,32789,28.5764483,-81.3508719
1660,Orange Avenue,32789,28.5825771,-81.3684805
470,Fitzwalter Drive,32792,28.5909529,-81.3169631
296,Detmar Drive,32789,28.6003031,-81.3400491
2171,Turkey Run,32789,28.5771664,-81.3459568
2050,Temple Drive,32789,28.6170078,-81.3359170
411,West New England Avenue,32789,28.5960484,-81.3550463
1530,Mizell Avenue,32789,28.5958460,-81.3329235
2071,Temple Drive,32789,28.6180380,-81.3363597
832,Symonds Avenue,32789,28.5988489,-81.3600013
1043,Aragon Avenue,32789,28.5910526,-81.3627668
890,North Phelps Avenue,32789,28.6068132,-81.3311006
1611,Palm Avenue,32789,28.6147985,-81.3317584
300,West Lake Sue Avenue,32789,28.5821248,-81.3513790
1845,Albert Lee Parkway,32789,28.6075222,-81.3736752
1319,Michigan Avenue,32789,28.5887619,-81.3674005
2837,Summerfield Road,32792,28.5859733,-81.3116822
2502,Lafayette Avenue,32789,28.6226799,-81.3343983
172,Oak Grove Road,32789,28.6101195,-81.3722944
1600,Oneco Avenue,32789,28.6152848,-81.3319781
913,Camellia Avenue,32789,28.5834377,-81.3614725
345,Beloit Avenue,32789,28.6080293,-81.3548560
1144,Park Green Place,32789,28.6087774,-81.3692728
552,South New York Avenue,32789,28.5933898,-81.3524502
1020,Palmer Avenue,32789,28.6080516,-81.3397001
1055,Lakeview Drive,32789,28.5894124,-81.3527337
524,North Lakemont Avenue,32792,28.6025254,-81.3277152
1580,Glencoe Avenue,32789,28.5837634,-81.3498921
1001,North Orlando Avenue,32789,28.6067173,-81.3657689
1200,Via Salerno,32789,28.6106867,-81.3384525
2526,Anaconda Trail,32789,28.6261328,-81.3282623
621,Blairshire Circle,32792,28.5872313,-81.3206350
1136,Howell Branch Road,32789,28.6237104,-81.3413807
532,Holt Avenue,32789,28.5918786,-81.3562040
507,Worthington Drive,32789,28.5910616,-81.3290445
275,South New York Avenue,32789,28.5965160,-81.3529039
435,West Lyman Avenue,32789,28.5951541,-81.3551960
3062,Temple Trail,32789,28.6305630,-81.3368474
2837,Wright Avenue,32789,28.5734107,-81.3421342
1081,North Park Avenue,32789,28.6067903,-81.3511244
920,Moss Lane,32789,28.6229113,-81.3419703
1563,Golfside Drive,32792,28.5791246,-81.3118396
320,Holt Avenue,32789,28.5920959,-81.3530325
1351,Place Picardy,32789,28.6183762,-81.3352886
1740,Taylor Avenue,32789,28.6040559,-81.3305684
1363,Buckingham Road,32789,28.5848907,-81.3693389
1205,Mayfield Avenue,32789,28.6099652,-81.3377334
281,Salvador Square,32789,28.5822851,-81.3542616
844,Huntington Court,32789,28.5900537,-81.3577901
460,Virginia Drive,32789,28.5834911,-81.3441080
947,Camellia Avenue,32789,28.5834659,-81.3632860
920,Fairway Drive,32792,28.5853489,-81.3092967
620,Pinetree Road,32789,28.6164154,-81.3440313
1104,Preserve Point Drive,32789,28.5863647,-81.3370489
1701,Diana Drive,32789,28.6149008,-81.3606483
1781,Lake Berry Drive,32789,28.5831674,-81.3316217
1717,Temple Drive,32789,28.6137118,-81.3363460
2555,Temple Trail,32789,28.6262632,-81.3367631
2111,Mallard Circle,32789,28.5775646,-81.3428362
1360,Magnolia Avenue,32789,28.6161189,-81.3350103
834,West Lyman Avenue,32789,28.5947205,-81.3600839
1500,Cardinal Court,32789,28.6125902,-81.3576358
181,South Phelps Avenue,32789,28.5936820,-81.3312285
1423,West Fairbanks Avenue,32789,28.5933649,-81.3681470
1945,Bering Avenue,32789,28.6113930,-81.3752597
2704,Wright Avenue,32789,28.5735484,-81.3453156
1300,Clay Street,32789,28.5856865,-81.3729966
1545,Elm Avenue,32789,28.6106085,-81.3334033
2805,Northwood Boulevard,32789,28.5689394,-81.3437511
211,Trismen Terrace,32789,28.5982362,-81.3416723
1620,Palm Avenue,32789,28.6143894,-81.3314859
1021,Lake Bell Drive,32789,28.6083619,-81.3792850
1831,Laurelton Hall Lane,32789,28.5805886,-81.3385611
494,Lakewood Drive,32789,28.6010286,-81.3391820
2410,Whitehall Circle,32792,28.5872661,-81.3187032
2143,Blossom Lane,32789,28.6042077,-81.3757889
2703,Phillips Park Court,32789,28.5748326,-81.3453790
1551,Aloma Avenue,32789,28.6006239,-81.3326737
1146,South Pennsylvania Avenue,32789,28.5880672,-81.3563947
1928,Gunn Road,32792,28.5837580,-81.3262424
531,West Comstock Avenue,32789,28.5942183,-81.3565110
501,South Phelps Avenue,32789,28.5911480,-81.3308583
2552,Brookshire Avenue,32792,28.5912895,-81.3176715
973,Wilma Avenue,32789,28.6093407,-81.3623122
2118,Howard Drive,32789,28.5771201,-81.3413517
530,North Lakemont Avenue,32792,28.6027317,-81.3277252
1251,Lakeview Drive,32789,28.5869056,-81.3521489
901,Harmon Avenue,32789,28.5860601,-81.3609736
2060,St George Street,32789,28.5775261,-81.3323701
1751,Mizell Avenue,32789,28.5964193,-81.3301488
1955,Woodcrest Drive,32792,28.5825232,-81.3250857
861,West Canton Avenue,32789,28.6005387,-81.3606335
808,Margaret Square,32789,28.6114757,-81.3732030
1670,Elm Avenue,32789,28.6102333,-81.3316194
1071,West Morse Boulevard,32789,28.5983449,-81.3633746
251,Chelton Circle,32789,28.5788881,-81.3501406
964,Cypress Lane,32789,28.6211266,-81.3407863
1849,Whitehall Drive,32789,28.5868091,-81.3281370
229,East Canton Avenue,32789,28.6006928,-81.3496606
1912,Arbor Park Drive,32789,28.6160454,-81.3283047
1729,Elizabeths Walk,32789,28.5803981,-81.3326194
2809,Sanbina Street,32789,28.6258601,-81.3318462
1342,Gene Street,32789,28.5914008,-81.3673946
810,Carver Street,32789,28.6048659,-81.3592240
2422,Summerfield Road,32792,28.5856482,-81.3178259
814,Margaret Square,32789,28.6110051,-81.3733104
507,Country Club Drive,32789,28.6028854,-81.3695451
1530,Woodland Avenue,32789,28.6064926,-81.3339980
150,West Rockwood Way,32789,28.5760812,-81.3491354
2005,Sycamore Drive,32789,28.5699126,-81.3409016
1653,Chase Landing Way,32789,28.5834215,-81.3345607
1220,Park Green Place,32789,28.6094150,-81.3694153
1254,Via Estrella,32789,28.6197348,-81.3364213
1707,Demetree Drive,32789,28.5813899,-81.3330868
1465,Berkshire Avenue,32789,28.5829589,-81.3697216
2241,Nairn Drive,32792,28.5982717,-81.3228023
1301,Green Cove Road,32789,28.6104388,-81.3547425
951,Palmer Avenue,32789,28.6088821,-81.3408123
940,Cypress Avenue,32789,28.5865449,-81.3617324
711,Jackson Avenue,32789,28.5912170,-81.3711403
1500,Lee Road,32789,28.6056732,-81.3689378
205,Village Lane,32792,28.5995635,-81.3187639
1591,Mizell Avenue,32789,28.5963233,-81.3322956
1200,Louisiana Avenue,32789,28.6098783,-81.3628626
2225,Loch Lomond Drive,32792,28.5972827,-81.3222330
1512,Granville Drive,32789,28.6124839,-81.3603844
1807,Palmer Avenue,32792,28.6086662,-81.3268492
2618,Park Place Drive,32789,28.5693723,-81.3468590
1221,Sunset Drive,32789,28.6100013,-81.3342740
953,Wilma Avenue,32789,28.6093443,-81.3620006
2120,Suffield Drive,32792,28.6046055,-81.3250976
1280,Harding Street,32789,28.6101413,-81.3436654
1624,Golfside Drive,32792,28.5802721,-81.3115532
151,West Fawsett Road,32789,28.5754005,-81.3491445
1778,Mondrian Circle,32789,28.6052246,-81.3723819
432,North Orlando Avenue,32789,28.6020958,-81.3630457
1833,Alice Avenue,32792,28.6090221,-81.3259637
1620,Woodland Avenue,32789,28.6065783,-81.3326706
176,Balfour Drive,32792,28.5973944,-81.3156674
310,Genius Drive,32789,28.5929675,-81.3335907
665,South Lakemont Avenue,32792,28.5878157,-81.3281214
840,West Canton Avenue,32789,28.6002175,-81.3603893
960,Aragon Avenue,32789,28.5906230,-81.3619551
1353,Harmon Avenue,32789,28.5861349,-81.3678099
1627,Mizell Avenue,32789,28.5963385,-81.3317066
300,East New England Avenue,32789,28.5954900,-81.3475256
1909,Oakhurst Avenue,32792,28.6077316,-81.3277781
1275,Serena Drive,32789,28.5816580,-81.3291648
662,West Morse Boulevard,32789,28.5972931,-81.3577816
1008,Village Lane,32792,28.6004001,-81.3202628
181,West Stovin Avenue,32789,28.6082945,-81.3522794
471,Shepherd Avenue,32789,28.6013806,-81.3325203
210,North Pennsylvania Avenue,32789,28.5988739,-81.3567823
1111,Temple Drive,32789,28.6093188,-81.3366654
1330,Mayfield Avenue,32789,28.6094172,-81.3358149
1051,Aloma Avenue,32789,28.6004449,-81.3383325
1217,Alexa Drive,32789,28.5817473,-81.3331315
617,South Phelps Avenue,32789,28.5891183,-81.3308115
464,West Lyman Avenue,32789,28.5947528,-81.3561856
1205,Village Lane,32792,28.6006376,-81.3197780
2403,Middleton Avenue,32792,28.5908428,-81.3193248
958,Orange Avenue,32789,28.5900517,-81.3594915
245,Salvador Square,32789,28.5812770,-81.3526973
2743,Summerfield Road,32792,28.5860100,-81.3136454
200,East Lyman Avenue,32789,28.5951806,-81.3492286
1333,Canterbury Road,32789,28.5852950,-81.3703374
890,Georgia Avenue,32789,28.6055604,-81.3459999
235,East Kings Way,32789,28.5815312,-81.3469401
1631,Lasbury Avenue,32789,28.6040776,-81.3318307
290,Detmar Drive,32789,28.6000721,-81.3400421
1761,Goodrich Avenue,32789,28.5990431,-81.3301694
580,Virginia Drive,32789,28.5834600,-81.3422851
520,Clay Street,32789,28.5935960,-81.3731461
1750,Westchester Avenue,32789,28.5834122,-81.3729232
1805,Albert Lee Parkway,32789,28.6075737,-81.3729212
1137,Oaks Boulevard,32789,28.6086321,-81.3598602
1531,Oneco Avenue,32789,28.6156368,-81.3331168
1281,Sara Court,32789,28.5814478,-81.3285098
1651,Lookout Landing Circle,32789,28.5824767,-81.3354995
1605,Village Lane,32792,28.5987122,-81.3180740
2015,Taylor Avenue,32792,28.6042275,-81.3256075
110,Killarney Bay Court,32789,28.6005733,-81.3663670
930,Cypress Avenue,32789,28.5864960,-81.3615048
401,East Fairbanks Avenue,32789,28.5944577,-81.3469482
830,Douglas Avenue,32789,28.5952346,-81.3601511
1611,Elizabeths Walk,32789,28.5805551,-81.3356291
1871,Aloma Avenue,32789,28.6007928,-81.3282669
667,Blairshire Circle,32792,28.5888104,-81.3216276
310,North Phelps Avenue,32789,28.5991459,-81.3308585
1203,Turner Road,32789,28.6106218,-81.3756404
1725,Aloma Avenue,32789,28.6007606,-81.3307544
1849,Azalea Avenue,32789,28.6231847,-81.3281877
2436,Chantilly Avenue,32789,28.6223714,-81.3323495
913,Golfside Drive,32792,28.5853607,-81.3160988
1967,Aloma Avenue,32792,28.6012454,-81.3258850
910,Aragon Avenue,32789,28.5906167,-81.3612197
2501,Winter Park Road,32789,28.5714933,-81.3463311
1740,Spruce Avenue,32789,28.6116957,-81.3297103
2107,Brookview Drive,32792,28.6059630,-81.3253614
1204,Lewis Drive,32789,28.6098249,-81.3667842
1198,Lewis Drive,32789,28.6096990,-81.3667695
354,Sylvan Drive,32789,28.5998500,-81.3319888
609,Berwick Drive,32792,28.5893664,-81.3225890
930,Bungalow Avenue,32789,28.5899063,-81.3615164
111,North Lakemont Avenue,32792,28.5968918,-81.3281309
245,Rippling Lane,32789,28.6038739,-81.3791193
1001,Anchorage Court,32789,28.6071474,-81.3470809
904,Fairway Drive,32792,28.5857998,-81.3093479
141,West Lyman Avenue,32789,28.5950673,-81.3515872
1937,Loch Berry Road,32792,28.5931950,-81.3259724
1327,Bridgeport Drive,32789,28.5799304,-81.3315679
1720,Walnut Avenue,32789,28.6125663,-81.3301930
1644,Aloma Avenue,32789,28.6002309,-81.3314072
210,East Rockwood Way,32789,28.5760279,-81.3468753
1331,Palmetto Avenue,32789,28.5866345,-81.3628399
512,North Lakemont Avenue,32792,28.6021157,-81.3276766
1415,Westchester Avenue,32789,28.5838810,-81.3684442
501,West Fairbanks Avenue,32789,28.5932612,-81.3554701
911,Seminole Drive,32789,28.6060026,-81.3451412
310,South Park Avenue,32789,28.5956907,-81.3508787
301,North Phelps Avenue,32789,28.5989851,-81.3313659
1902,Arbor Park Drive,32789,28.6157614,-81.3284318
887,Douglas Avenue,32789,28.5954928,-81.3608234
1400,Bonnie Burn Circle,32789,28.5852476,-81.3551596
1198,Orange Avenue,32789,28.5880773,-81.3619283
1208,Sharon Place,32789,28.6188609,-81.3372663
531,North Capen Avenue,32789,28.6016234,-81.3591912
420,Melrose Avenue,32789,28.5877642,-81.3540775
848,Symonds Avenue,32789,28.5988851,-81.3604748
1120,Kenwood Avenue,32789,28.6082358,-81.3603453
665,Randy Lane,32789,28.5757766,-81.3407678
2100,Lee Road,32789,28.6056204,-81.3771154
1263,Serena Drive,32789,28.5819492,-81.3292748
691,West Canton Avenue,32789,28.6005697,-81.3582496
1811,Winchester Drive,32789,28.5807697,-81.3424633
1620,Orange Avenue,32789,28.5830941,-81.3677456
1861,Blue Ridge Road,32789,28.5801887,-81.3405484
1250,South Pennsylvania Avenue,32789,28.5873080,-81.3560954
1724,Lake Waumpi Drive,32789,28.6296030,-81.3319327
1956,Eland Avenue,32789,28.6087096,-81.3759296
1741,Laurel Road,32789,28.5818195,-81.3449625
1307,Lindenwood Lane,32792,28.5813781,-81.3254686
1160,Tom Gurney Drive,32789,28.6175253,-81.3379602
777,West Lyman Avenue,32789,28.5949695,-81.3594958
2170,Fawsett Road,32789,28.5768760,-81.3507882
423,Turkey Run,32789,28.5785108,-81.3439212
2050,St George Street,32789,28.5779111,-81.3323746
1112,Solana Avenue,32789,28.6074637,-81.3617542
2338,Middleton Avenue,32792,28.5900616,-81.3205314
600,North Park Avenue,32789,28.6021952,-81.3507287
175,East Webster Avenue,32789,28.6044511,-81.3495709
2341,Forrest Road,32789,28.5741066,-81.3485670
211,Village Lane,32792,28.5996666,-81.3187923
2221,Loch Lomond Drive,32792,28.5973366,-81.3226913
2910,Parkland Drive,32789,28.5719225,-81.3411480
1404,Grove Terrace,32789,28.5968083,-81.3352887
768,Margaret Square,32789,28.6104887,-81.3730406
1122,Azalea Lane,32789,28.5878214,-81.3584961
913,Osceola Avenue,32789,28.5974013,-81.3401115
1409,Michigan Avenue,32789,28.5887273,-81.3684723
200,Carolina Avenue,32789,28.5981435,-81.3531649
2110,Lake Drive,32789,28.6014748,-81.3744516
2349,Winter Park Road,32789,28.5741895,-81.3464904
1349,Essex Road,32789,28.5862276,-81.3527044
9,Isle of Sicily Road,32789,28.6176986,-81.3477197
1680,Oneco Avenue,32789,28.6152618,-81.3301079
1030,Early Avenue,32789,28.6085900,-81.3813272
837,West Lyman Avenue,32789,28.5950167,-81.3603778
1324,Sunset Drive,32789,28.6108113,-81.3336876
1727,Palmer Avenue,32789,28.6091035,-81.3302819
601,North Phelps Avenue,32789,28.6031214,-81.3314443
1570,Oakhurst Avenue,32789,28.6075255,-81.3333593
200,East New England Avenue,32789,28.5958097,-81.3495267
909,North Kentucky Avenue,32789,28.5924928,-81.3610890
1688,Pine Avenue,32789,28.6107837,-81.3315058
1555,Woodland Avenue,32789,28.6069634,-81.3337876
911,Osceola Avenue,32789,28.5971583,-81.3405158
996,North Phelps Avenue,32789,28.6075804,-81.3311436
1780,Mizell Avenue,32789,28.5960109,-81.3295616
2118,Whitehall Drive,32792,28.5864085,-81.3243094
641,Williams Drive,32789,28.6118668,-81.3576708
311,North Pennsylvania Avenue,32789,28.5998247,-81.3571033
454,Seymour Avenue,32789,28.5997216,-81.3404991
1441,Mayfield Avenue,32789,28.6098079,-81.3346100
2355,Coldstream Drive,32792,28.5929450,-81.3200759
1844,Jill Court,32789,28.5809394,-81.3294741
600,North Knowles Avenue,32789,28.6022727,-81.3496104
1504,Village Lane,32792,28.5985875,-81.3182429
2199,Whitehall Drive,32792,28.5869564,-81.3229120
1860,Anzle Avenue,32789,28.5994873,-81.3284413
1773,Alabama Drive,32789,28.6099234,-81.3390391
1611,Summerland Avenue,32789,28.6139538,-81.3578399
1612,Elizabeths Walk,32789,28.5800009,-81.3356594
1907,Aloma Avenue,32792,28.6012311,-81.3272843
1745,Lake Berry Drive,32789,28.5828145,-81.3330913
2721,West Fairbanks Avenue,32789,28.5948169,-81.3850418
234,Balfour Drive,32792,28.5994692,-81.3163934
1916,Hammerlin Avenue,32789,28.5692686,-81.3453982
1721,Elizabeths Walk,32789,28.5804249,-81.3329310
594,Lake Front Boulevard,32789,28.6027653,-81.3702210
1414,Golfside Drive,32792,28.5772676,-81.3132705
681,Penn Place,32789,28.6087357,-81.3581464
2424,Mandan Trail,32789,28.6221401,-81.3313607
680,Douglas Avenue,32789,28.5952672,-81.3582409
2912,Mulford Avenue,32789,28.5694602,-81.3414484
1735,Demetree Drive,32789,28.5814430,-81.3316194
2552,Fifeshire Drive,32792,28.5888639,-81.3176081
2553,Fifeshire Drive,32792,28.5893122,-81.3176125
1021,McKean Circle,32789,28.6077418,-81.3458419
1826,Laurelton Hall Lane,32789,28.5800672,-81.3378302
1610,Lookout Landing Circle,32789,28.5820504,-81.3373544
1895,Lake Spier Drive,32789,28.5778216,-81.3278754
1096,Azalea Lane,32789,28.5882531,-81.3585132
1644,Roundelay Lane,32789,28.5982413,-81.3318747
815,McIntyre Avenue,32789,28.5906339,-81.3557542
856,West Lyman Avenue,32789,28.5947170,-81.3603674
132,North Park Avenue,32789,28.5983309,-81.3507247
1741,Pine Avenue,32789,28.6112006,-81.3297275
2601,Western Parkway,32789,28.5712380,-81.3475076
610,Genius Drive,32789,28.5912726,-81.3327533
2023,Yorkshire Drive,32792,28.6068832,-81.3260645
1811,Pineview Circle,32792,28.6102818,-81.3263742
1801,Oglesby Avenue,32789,28.5914407,-81.3738240
610,Palmer Avenue,32789,28.6067858,-81.3443147
820,Huntington Court,32789,28.5904391,-81.3576668
327,Santiago Drive,32789,28.5837964,-81.3558246
1864,Grinnell Terrace,32789,28.5937065,-81.3282986
1194,North Park Avenue,32789,28.6100713,-81.3511945
1716,Mizell Avenue,32789,28.5959947,-81.3305744
2456,Whitehall Circle,32792,28.5868332,-81.3168168
1761,Bryan Avenue,32789,28.6027969,-81.3303339
525,Berwick Drive,32792,28.5903098,-81.3225919
248,Blossom Lane,32789,28.6053324,-81.3798070
2126,Howard Drive,32789,28.5768669,-81.3413882
1234,Palmer Avenue,32789,28.6084756,-81.3373141
865,West Comstock Avenue,32789,28.5942381,-81.3604655
675,Blairshire Circle,32792,28.5883207,-81.3216884
1517,Williams Drive,32789,28.6124607,-81.3598046
508,South Lakemont Avenue,32792,28.5909800,-81.3275579
222,West Comstock Avenue,32789,28.5940231,-81.3522848
1618,Neola Trail,32789,28.6234061,-81.3310031
318,Park North Court,32789,28.6089423,-81.3538181
1696,Cypress Point Lane,32792,28.5806314,-81.3108127
691,West Swoope Avenue,32789,28.6020768,-81.3582890
2248,Howard Drive,32789,28.5728218,-81.3412916
1531,Golfside Drive,32792,28.5782495,-81.3120614
1141,Mayfield Avenue,32789,28.6100177,-81.3387371
715,West Lyman Avenue,32789,28.5950440,-81.3586274
767,French Avenue,32789,28.5912872,-81.3520171
1507,Village Lane,32792,28.5985972,-81.3182530
2021,Summerfield Road,32792,28.5860735,-81.3240591
530,Lander Road,32792,28.6027175,-81.3244778
1775,Aloma Avenue,32789,28.6007679,-81.3300065
1032,Braemar Drive,32792,28.5835290,-81.3265689
2825,Mulford Avenue,32789,28.5698492,-81.3431352
2841,Chantilly Avenue,32789,28.6262264,-81.3338703
1358,Chapman Circle,32789,28.5794962,-81.3348007
2579,Brookshire Avenue,32792,28.5916643,-81.3173547
1264,South Pennsylvania Avenue,32789,28.5871516,-81.3560400
715,Via Bella,32789,28.6071013,-81.3380764
